NMEA Sentence Code,UTC Time,Status,Latitude,Latitude Direction,Longitude,Longitude Direction,Speed (knots),Track Angle (degrees true),Date,MagneticVariation,Magnetic Variation Direction,[FAA Mode]-Optional,Checksum
$GPRMC,145658.0,A,3305.793919,N,11718.614981,W,8.6,152.9,070810,,,A*7C
$GPRMC,145701.0,A,3305.786164,N,11718.610213,W,11.5,152.2,070810,,,A*43
$GPRMC,145704.0,A,3305.776500,N,11718.605103,W,12.5,157.4,070810,,,A*49
$GPRMC,145707.0,A,3305.766940,N,11718.600341,W,11.7,159.5,070810,,,A*4C
$GPRMC,145710.0,A,3305.759811,N,11718.596765,W,6.0,158.4,070810,,,A*7C
$GPRMC,145713.0,A,3305.753416,N,11718.595427,W,5.1,138.1,070810,,,A*79
$GPRMC,145716.0,A,3305.750220,N,11718.590458,W,6.1,101.4,070810,,,A*7D
$GPRMC,145728.0,A,3305.746534,N,11718.582910,W,4.6,97.7,070810,,,A*4F
$GPRMC,145731.0,A,3305.745252,N,11718.576140,W,8.7,101.2,070810,,,A*73
$GPRMC,145734.0,A,3305.742797,N,11718.566027,W,11.8,111.3,070810,,,A*4B
$GPRMC,145737.0,A,3305.736586,N,11718.556265,W,12.6,134.1,070810,,,A*46
$GPRMC,145740.0,A,3305.727594,N,11718.549079,W,12.4,151.0,070810,,,A*44
$GPRMC,145743.0,A,3305.719819,N,11718.545065,W,7.8,154.2,070810,,,A*7C
$GPRMC,145746.0,A,3305.714182,N,11718.542450,W,6.1,150.3,070810,,,A*77
$GPRMC,145749.0,A,3305.710563,N,11718.540122,W,4.7,141.7,070810,,,A*75
$GPRMC,145752.0,A,3305.707576,N,11718.534378,W,8.3,103.9,070810,,,A*73
$GPRMC,145755.0,A,3305.709210,N,11718.524250,W,13.0,67.4,070810,,,A*70
$GPRMC,145758.0,A,3305.715250,N,11718.511063,W,16.4,58.7,070810,,,A*7E
$GPRMC,145801.0,A,3305.723963,N,11718.496911,W,18.6,51.2,070810,,,A*71
$GPRMC,145804.0,A,3305.735621,N,11718.482875,W,20.5,41.0,070810,,,A*77
$GPRMC,145807.0,A,3305.749451,N,11718.469246,W,21.8,40.7,070810,,,A*7F
$GPRMC,145810.0,A,3305.763485,N,11718.454501,W,22.5,41.7,070810,,,A*7D
$GPRMC,145813.0,A,3305.778394,N,11718.440429,W,22.7,33.9,070810,,,A*74
$GPRMC,145816.0,A,3305.796534,N,11718.431673,W,24.5,10.7,070810,,,A*7D
$GPRMC,145819.0,A,3305.817226,N,11718.432488,W,25.6,348.2,070810,,,A*4C
$GPRMC,145822.0,A,3305.837084,N,11718.442169,W,26.3,335.7,070810,,,A*48
$GPRMC,145825.0,A,3305.857887,N,11718.453465,W,27.8,335.3,070810,,,A*45
$GPRMC,145828.0,A,3305.879711,N,11718.465781,W,29.5,335.0,070810,,,A*48
$GPRMC,145831.0,A,3305.902757,N,11718.478394,W,30.3,335.6,070810,,,A*4B
$GPRMC,145834.0,A,3305.926354,N,11718.491354,W,30.6,333.4,070810,,,A*45
$GPRMC,145837.0,A,3305.948012,N,11718.507749,W,30.1,319.8,070810,,,A*4A
$GPRMC,145840.0,A,3305.964017,N,11718.530360,W,28.4,301.7,070810,,,A*40
$GPRMC,145843.0,A,3305.972959,N,11718.556527,W,27.8,285.8,070810,,,A*43
$GPRMC,145846.0,A,3305.975393,N,11718.584851,W,28.2,270.7,070810,,,A*4E
$GPRMC,145849.0,A,3305.974862,N,11718.613975,W,29.4,268.0,070810,,,A*46
$GPRMC,145852.0,A,3305.974787,N,11718.643979,W,29.7,272.2,070810,,,A*4B
$GPRMC,145855.0,A,3305.978440,N,11718.672982,W,28.8,286.0,070810,,,A*49
$GPRMC,145858.0,A,3305.986920,N,11718.694446,W,17.9,302.7,070810,,,A*44
$GPRMC,145907.0,A,3305.991202,N,11718.703664,W,5.8,313.8,070810,,,A*72
$GPRMC,145910.0,A,3305.998728,N,11718.711379,W,16.0,321.7,070810,,,A*4E
$GPRMC,145913.0,A,3306.011909,N,11718.722106,W,21.5,330.5,070810,,,A*42
$GPRMC,145916.0,A,3306.030746,N,11718.731591,W,26.8,340.1,070810,,,A*40
$GPRMC,145919.0,A,3306.053543,N,11718.741121,W,30.1,340.6,070810,,,A*4C
$GPRMC,145922.0,A,3306.077261,N,11718.751497,W,29.6,339.2,070810,,,A*49
$GPRMC,145925.0,A,3306.098888,N,11718.763642,W,27.6,328.6,070810,,,A*43
$GPRMC,145928.0,A,3306.116739,N,11718.779936,W,25.8,320.2,070810,,,A*4B
$GPRMC,145931.0,A,3306.134065,N,11718.794315,W,24.7,328.8,070810,,,A*49
$GPRMC,145934.0,A,3306.150973,N,11718.803503,W,17.7,343.3,070810,,,A*46
$GPRMC,145943.0,A,3306.163088,N,11718.800450,W,9.2,60.0,070810,,,A*44
$GPRMC,145946.0,A,3306.167576,N,11718.786791,W,17.2,73.9,070810,,,A*7A
$GPRMC,145949.0,A,3306.171592,N,11718.767545,W,21.2,77.6,070810,,,A*72
$GPRMC,145952.0,A,3306.173536,N,11718.746025,W,20.1,88.0,070810,,,A*70
$GPRMC,145955.0,A,3306.175047,N,11718.728946,W,13.3,75.2,070810,,,A*74
$GPRMC,145958.0,A,3306.177635,N,11718.722800,W,6.1,43.4,070810,,,A*44
$GPRMC,150001.0,A,3306.179953,N,11718.718168,W,4.8,76.0,070810,,,A*43
$GPRMC,150004.0,A,3306.182319,N,11718.707517,W,15.8,75.8,070810,,,A*7F
$GPRMC,150007.0,A,3306.186468,N,11718.689336,W,21.5,75.7,070810,,,A*7E
$GPRMC,150010.0,A,3306.191445,N,11718.666248,W,25.5,76.6,070810,,,A*7E
$GPRMC,150013.0,A,3306.196821,N,11718.640946,W,25.6,74.2,070810,,,A*70
$GPRMC,150016.0,A,3306.202315,N,11718.619703,W,18.0,72.4,070810,,,A*7C
$GPRMC,150019.0,A,3306.205954,N,11718.605631,W,11.6,74.4,070810,,,A*7F
$GPRMC,150028.0,A,3306.209142,N,11718.592012,W,7.4,71.1,070810,,,A*41
$GPRMC,150031.0,A,3306.215849,N,11718.584363,W,12.8,23.5,070810,,,A*7F
$GPRMC,150034.0,A,3306.229465,N,11718.587768,W,19.2,330.9,070810,,,A*47
$GPRMC,150037.0,A,3306.244698,N,11718.602604,W,26.8,315.8,070810,,,A*4A
$GPRMC,150040.0,A,3306.262984,N,11718.625154,W,34.2,313.9,070810,,,A*45
$GPRMC,150043.0,A,3306.284692,N,11718.651960,W,39.8,315.4,070810,,,A*46
$GPRMC,150046.0,A,3306.311075,N,11718.680022,W,43.5,320.9,070810,,,A*49
$GPRMC,150049.0,A,3306.341665,N,11718.706239,W,45.7,326.7,070810,,,A*4F
$GPRMC,150052.0,A,3306.375833,N,11718.731375,W,49.0,329.1,070810,,,A*40
$GPRMC,150055.0,A,3306.412760,N,11718.757285,W,51.8,329.7,070810,,,A*41
$GPRMC,150058.0,A,3306.451723,N,11718.783884,W,54.9,331.0,070810,,,A*44
$GPRMC,150101.0,A,3306.493681,N,11718.811127,W,58.3,331.7,070810,,,A*4B
$GPRMC,150104.0,A,3306.537387,N,11718.839084,W,58.7,332.1,070810,,,A*41
$GPRMC,150107.0,A,3306.581266,N,11718.865889,W,58.4,333.3,070810,,,A*4D
$GPRMC,150110.0,A,3306.625279,N,11718.892116,W,58.4,333.3,070810,,,A*4F
$GPRMC,150113.0,A,3306.669437,N,11718.918278,W,58.3,333.4,070810,,,A*40
$GPRMC,150116.0,A,3306.713389,N,11718.944344,W,58.4,333.3,070810,,,A*4C
$GPRMC,150119.0,A,3306.757341,N,11718.970355,W,58.3,333.2,070810,,,A*46
$GPRMC,150122.0,A,3306.801102,N,11718.996728,W,58.4,333.2,070810,,,A*46
$GPRMC,150125.0,A,3306.844931,N,11719.022829,W,58.3,333.0,070810,,,A*44
$GPRMC,150128.0,A,3306.888564,N,11719.049106,W,58.3,333.3,070810,,,A*4F
$GPRMC,150131.0,A,3306.932295,N,11719.075082,W,58.4,333.3,070810,,,A*4B
$GPRMC,150134.0,A,3306.975978,N,11719.101128,W,58.2,333.3,070810,,,A*40
$GPRMC,150137.0,A,3307.019616,N,11719.127254,W,58.2,332.9,070810,,,A*41
$GPRMC,150140.0,A,3307.063261,N,11719.153320,W,58.3,333.4,070810,,,A*44
$GPRMC,150143.0,A,3307.106960,N,11719.179270,W,58.3,333.2,070810,,,A*45
$GPRMC,150146.0,A,3307.150588,N,11719.205377,W,58.4,333.3,070810,,,A*41
$GPRMC,150149.0,A,3307.194401,N,11719.231448,W,58.3,333.4,070810,,,A*4A
$GPRMC,150152.0,A,3307.238047,N,11719.257775,W,58.4,332.9,070810,,,A*45
$GPRMC,150155.0,A,3307.281740,N,11719.284053,W,58.4,333.4,070810,,,A*41
$GPRMC,150158.0,A,3307.325388,N,11719.310063,W,58.2,333.4,070810,,,A*4A
$GPRMC,150201.0,A,3307.369008,N,11719.336240,W,58.3,333.0,070810,,,A*44
$GPRMC,150204.0,A,3307.412689,N,11719.362396,W,58.4,333.4,070810,,,A*4D
$GPRMC,150207.0,A,3307.456578,N,11719.388407,W,58.3,333.2,070810,,,A*49
$GPRMC,150210.0,A,3307.500274,N,11719.414438,W,58.4,333.2,070810,,,A*4F
$GPRMC,150213.0,A,3307.543887,N,11719.440469,W,58.3,333.4,070810,,,A*49
$GPRMC,150216.0,A,3307.587512,N,11719.466565,W,58.3,333.3,070810,,,A*4B
$GPRMC,150219.0,A,3307.630966,N,11719.492561,W,58.3,333.2,070810,,,A*4A
$GPRMC,150222.0,A,3307.674654,N,11719.518712,W,58.3,333.0,070810,,,A*4B
$GPRMC,150225.0,A,3307.718171,N,11719.544788,W,58.3,333.3,070810,,,A*4E
$GPRMC,150228.0,A,3307.761829,N,11719.570784,W,58.4,333.1,070810,,,A*47
$GPRMC,150231.0,A,3307.805334,N,11719.597046,W,58.4,333.2,070810,,,A*46
$GPRMC,150234.0,A,3307.848849,N,11719.623248,W,58.3,333.2,070810,,,A*4C
$GPRMC,150237.0,A,3307.892446,N,11719.649535,W,58.4,333.1,070810,,,A*4E
$GPRMC,150240.0,A,3307.935953,N,11719.675445,W,58.0,333.5,070810,,,A*42
$GPRMC,150243.0,A,3307.979476,N,11719.701149,W,58.1,334.0,070810,,,A*4B
$GPRMC,150246.0,A,3308.023624,N,11719.725621,W,58.3,335.9,070810,,,A*47
$GPRMC,150249.0,A,3308.068451,N,11719.748614,W,58.5,337.3,070810,,,A*44
$GPRMC,150252.0,A,3308.113497,N,11719.771351,W,58.7,336.8,070810,,,A*4F
$GPRMC,150255.0,A,3308.158639,N,11719.794395,W,58.8,336.8,070810,,,A*4D
$GPRMC,150258.0,A,3308.203798,N,11719.817423,W,58.8,336.7,070810,,,A*46
$GPRMC,150301.0,A,3308.248658,N,11719.840512,W,58.1,336.8,070810,,,A*4E
$GPRMC,150304.0,A,3308.293206,N,11719.863098,W,57.9,336.9,070810,,,A*42
$GPRMC,150307.0,A,3308.337950,N,11719.885508,W,58.3,336.9,070810,,,A*47
$GPRMC,150310.0,A,3308.382674,N,11719.908335,W,58.4,337.2,070810,,,A*47
$GPRMC,150313.0,A,3308.427738,N,11719.930901,W,58.5,337.0,070810,,,A*40
$GPRMC,150316.0,A,3308.472842,N,11719.953713,W,58.8,336.8,070810,,,A*4B
$GPRMC,150319.0,A,3308.518074,N,11719.976233,W,58.9,339.1,070810,,,A*43
$GPRMC,150322.0,A,3308.564921,N,11719.992840,W,58.6,347.3,070810,,,A*49
$GPRMC,150325.0,A,3308.613125,N,11720.002687,W,58.0,352.8,070810,,,A*47
$GPRMC,150328.0,A,3308.661892,N,11720.006107,W,58.8,357.9,070810,,,A*4D
$GPRMC,150331.0,A,3308.711060,N,11720.008234,W,58.4,357.6,070810,,,A*48
$GPRMC,150334.0,A,3308.759506,N,11720.010638,W,57.5,357.2,070810,,,A*4F
$GPRMC,150337.0,A,3308.807416,N,11720.014032,W,57.6,354.3,070810,,,A*41
$GPRMC,150340.0,A,3308.855019,N,11720.023890,W,58.3,346.0,070810,,,A*43
$GPRMC,150343.0,A,3308.901554,N,11720.041456,W,58.7,338.3,070810,,,A*40
$GPRMC,150346.0,A,3308.945757,N,11720.065933,W,58.3,333.4,070810,,,A*44
$GPRMC,150349.0,A,3308.989440,N,11720.091501,W,57.9,333.9,070810,,,A*40
$GPRMC,150352.0,A,3309.033239,N,11720.116642,W,58.2,334.2,070810,,,A*49
$GPRMC,150355.0,A,3309.077347,N,11720.141903,W,58.3,334.3,070810,,,A*4E
$GPRMC,150358.0,A,3309.121463,N,11720.167079,W,58.3,333.9,070810,,,A*4D
$GPRMC,150401.0,A,3309.165272,N,11720.192572,W,58.4,333.9,070810,,,A*43
$GPRMC,150404.0,A,3309.209159,N,11720.218009,W,58.0,334.1,070810,,,A*46
$GPRMC,150407.0,A,3309.252555,N,11720.243251,W,58.1,334.4,070810,,,A*46
$GPRMC,150410.0,A,3309.296361,N,11720.267939,W,58.1,335.1,070810,,,A*4E
$GPRMC,150413.0,A,3309.340547,N,11720.292079,W,58.3,335.6,070810,,,A*47
$GPRMC,150416.0,A,3309.384799,N,11720.316264,W,58.3,335.5,070810,,,A*4B
$GPRMC,150419.0,A,3309.429568,N,11720.339755,W,58.5,336.5,070810,,,A*47
$GPRMC,150422.0,A,3309.474506,N,11720.362748,W,58.5,336.9,070810,,,A*41
$GPRMC,150425.0,A,3309.519537,N,11720.385580,W,58.6,336.7,070810,,,A*4C
$GPRMC,150428.0,A,3309.564523,N,11720.408860,W,58.5,336.3,070810,,,A*48
$GPRMC,150431.0,A,3309.609340,N,11720.432291,W,58.4,336.1,070810,,,A*45
$GPRMC,150434.0,A,3309.654079,N,11720.455858,W,58.4,336.4,070810,,,A*4A
$GPRMC,150437.0,A,3309.698680,N,11720.478866,W,58.4,336.5,070810,,,A*4A
$GPRMC,150440.0,A,3309.743533,N,11720.501739,W,58.4,336.6,070810,,,A*4F
$GPRMC,150443.0,A,3309.788320,N,11720.524918,W,58.3,336.6,070810,,,A*42
$GPRMC,150446.0,A,3309.833109,N,11720.548002,W,58.3,336.7,070810,,,A*48
$GPRMC,150449.0,A,3309.878253,N,11720.570824,W,58.5,337.0,070810,,,A*43
$GPRMC,150452.0,A,3309.923440,N,11720.593510,W,58.6,336.9,070810,,,A*4E
$GPRMC,150455.0,A,3309.968287,N,11720.616207,W,58.4,337.1,070810,,,A*4F
$GPRMC,150458.0,A,3310.013429,N,11720.638063,W,58.4,337.9,070810,,,A*49
$GPRMC,150501.0,A,3310.058608,N,11720.660177,W,58.2,337.2,070810,,,A*4E
$GPRMC,150504.0,A,3310.103214,N,11720.683854,W,58.6,334.3,070810,,,A*4E
$GPRMC,150507.0,A,3310.146787,N,11720.710614,W,58.8,331.2,070810,,,A*48
$GPRMC,150510.0,A,3310.189333,N,11720.740019,W,58.7,328.3,070810,,,A*4E
$GPRMC,150513.0,A,3310.230914,N,11720.771331,W,58.5,327.7,070810,,,A*41
$GPRMC,150516.0,A,3310.272249,N,11720.802411,W,58.4,327.8,070810,,,A*41
$GPRMC,150519.0,A,3310.313767,N,11720.833496,W,58.5,327.9,070810,,,A*4C
$GPRMC,150522.0,A,3310.355134,N,11720.864717,W,58.5,327.6,070810,,,A*41
$GPRMC,150525.0,A,3310.396471,N,11720.895998,W,58.5,327.5,070810,,,A*49
$GPRMC,150528.0,A,3310.437625,N,11720.927496,W,58.6,327.5,070810,,,A*43
$GPRMC,150531.0,A,3310.478871,N,11720.958691,W,58.2,327.7,070810,,,A*44
$GPRMC,150534.0,A,3310.519949,N,11720.989264,W,57.6,327.9,070810,,,A*4A
$GPRMC,150537.0,A,3310.560645,N,11721.019690,W,57.6,327.6,070810,,,A*45
$GPRMC,150540.0,A,3310.601607,N,11721.050302,W,57.9,327.8,070810,,,A*45
$GPRMC,150543.0,A,3310.642092,N,11721.081654,W,58.2,326.0,070810,,,A*4C
$GPRMC,150546.0,A,3310.682315,N,11721.114560,W,58.3,325.4,070810,,,A*46
$GPRMC,150549.0,A,3310.722314,N,11721.147807,W,58.2,325.1,070810,,,A*4D
$GPRMC,150552.0,A,3310.762417,N,11721.181181,W,58.6,325.1,070810,,,A*4E
$GPRMC,150555.0,A,3310.802554,N,11721.214710,W,58.5,324.7,070810,,,A*43
$GPRMC,150558.0,A,3310.842357,N,11721.248300,W,58.4,325.0,070810,,,A*44
$GPRMC,150601.0,A,3310.882281,N,11721.281648,W,58.3,325.0,070810,,,A*46
$GPRMC,150604.0,A,3310.922318,N,11721.314790,W,58.4,325.1,070810,,,A*46
$GPRMC,150607.0,A,3310.962212,N,11721.348349,W,58.3,325.0,070810,,,A*45
$GPRMC,150610.0,A,3311.002289,N,11721.381567,W,58.5,325.2,070810,,,A*44
$GPRMC,150613.0,A,3311.042492,N,11721.415161,W,59.0,324.9,070810,,,A*49
$GPRMC,150616.0,A,3311.082879,N,11721.448645,W,58.6,325.1,070810,,,A*4E
$GPRMC,150619.0,A,3311.123021,N,11721.481938,W,58.5,325.0,070810,,,A*4C
$GPRMC,150622.0,A,3311.163259,N,11721.515256,W,58.5,325.0,070810,,,A*42
$GPRMC,150625.0,A,3311.203354,N,11721.548424,W,58.5,325.0,070810,,,A*47
$GPRMC,150628.0,A,3311.243411,N,11721.581812,W,58.6,324.6,070810,,,A*40
$GPRMC,150631.0,A,3311.283129,N,11721.615869,W,58.7,323.9,070810,,,A*41
$GPRMC,150634.0,A,3311.322645,N,11721.650395,W,58.6,324.0,070810,,,A*45
$GPRMC,150637.0,A,3311.362574,N,11721.684080,W,58.5,324.9,070810,,,A*47
$GPRMC,150640.0,A,3311.402232,N,11721.717066,W,57.5,325.1,070810,,,A*46
$GPRMC,150643.0,A,3311.441610,N,11721.749735,W,57.7,325.5,070810,,,A*4A
$GPRMC,150646.0,A,3311.481529,N,11721.782098,W,58.1,325.7,070810,,,A*46
$GPRMC,150649.0,A,3311.521837,N,11721.814319,W,58.2,326.5,070810,,,A*48
$GPRMC,150652.0,A,3311.562186,N,11721.846662,W,58.3,325.4,070810,,,A*4B
$GPRMC,150655.0,A,3311.602049,N,11721.879663,W,58.3,325.0,070810,,,A*42
$GPRMC,150658.0,A,3311.641936,N,11721.912891,W,58.1,325.0,070810,,,A*44
$GPRMC,150701.0,A,3311.681900,N,11721.945987,W,58.3,325.4,070810,,,A*42
$GPRMC,150704.0,A,3311.721914,N,11721.978979,W,58.3,325.2,070810,,,A*40
$GPRMC,150707.0,A,3311.761825,N,11722.012090,W,58.2,325.1,070810,,,A*4E
$GPRMC,150710.0,A,3311.801573,N,11722.045167,W,58.1,325.0,070810,,,A*46
$GPRMC,150713.0,A,3311.841484,N,11722.078480,W,58.2,324.9,070810,,,A*41
$GPRMC,150716.0,A,3311.881250,N,11722.112120,W,58.4,323.8,070810,,,A*45
$GPRMC,150719.0,A,3311.918996,N,11722.149230,W,58.8,317.1,070810,,,A*44
$GPRMC,150722.0,A,3311.953431,N,11722.191062,W,59.0,312.0,070810,,,A*4E
$GPRMC,150725.0,A,3311.984463,N,11722.236355,W,58.7,306.7,070810,,,A*49
$GPRMC,150728.0,A,3312.011127,N,11722.285097,W,58.5,300.4,070810,,,A*45
$GPRMC,150731.0,A,3312.033693,N,11722.336762,W,58.6,295.1,070810,,,A*4A
$GPRMC,150734.0,A,3312.052213,N,11722.390996,W,58.9,292.0,070810,,,A*44
$GPRMC,150737.0,A,3312.070496,N,11722.445447,W,58.5,292.7,070810,,,A*49
$GPRMC,150740.0,A,3312.088860,N,11722.498952,W,57.8,292.0,070810,,,A*47
$GPRMC,150743.0,A,3312.107126,N,11722.552462,W,57.8,291.8,070810,,,A*4B
$GPRMC,150746.0,A,3312.125070,N,11722.606002,W,57.9,291.9,070810,,,A*4C
$GPRMC,150749.0,A,3312.143359,N,11722.659683,W,58.4,292.2,070810,,,A*44
$GPRMC,150752.0,A,3312.161785,N,11722.713776,W,58.8,292.1,070810,,,A*40
$GPRMC,150755.0,A,3312.180162,N,11722.767950,W,58.9,292.3,070810,,,A*4D
$GPRMC,150758.0,A,3312.199087,N,11722.822134,W,59.1,293.6,070810,,,A*4B
$GPRMC,150801.0,A,3312.221253,N,11722.874548,W,58.6,300.3,070810,,,A*47
$GPRMC,150804.0,A,3312.247505,N,11722.923542,W,58.6,305.6,070810,,,A*4F
$GPRMC,150807.0,A,3312.277647,N,11722.969191,W,58.4,310.9,070810,,,A*47
$GPRMC,150810.0,A,3312.311548,N,11723.010853,W,58.0,316.8,070810,,,A*4E
$GPRMC,150813.0,A,3312.348696,N,11723.048033,W,58.0,322.5,070810,,,A*48
$GPRMC,150816.0,A,3312.388952,N,11723.080004,W,57.9,328.7,070810,,,A*48
$GPRMC,150819.0,A,3312.431619,N,11723.108011,W,58.3,332.2,070810,,,A*4C
$GPRMC,150822.0,A,3312.474950,N,11723.134806,W,58.3,332.3,070810,,,A*47
$GPRMC,150825.0,A,3312.518306,N,11723.161476,W,58.4,332.1,070810,,,A*4C
$GPRMC,150828.0,A,3312.561620,N,11723.188422,W,58.4,332.2,070810,,,A*4B
$GPRMC,150831.0,A,3312.604870,N,11723.215262,W,58.3,332.2,070810,,,A*4A
$GPRMC,150834.0,A,3312.648164,N,11723.242188,W,58.4,332.2,070810,,,A*49
$GPRMC,150837.0,A,3312.691329,N,11723.269170,W,58.5,332.1,070810,,,A*49
$GPRMC,150840.0,A,3312.734839,N,11723.296166,W,58.6,332.1,070810,,,A*49
$GPRMC,150843.0,A,3312.778139,N,11723.323434,W,58.5,331.5,070810,,,A*42
$GPRMC,150846.0,A,3312.821757,N,11723.350742,W,58.9,332.6,070810,,,A*40
$GPRMC,150849.0,A,3312.866429,N,11723.375435,W,58.7,337.6,070810,,,A*49
$GPRMC,150852.0,A,3312.912332,N,11723.393807,W,57.6,344.3,070810,,,A*46
$GPRMC,150855.0,A,3312.959085,N,11723.407999,W,58.1,346.1,070810,,,A*45
$GPRMC,150858.0,A,3313.006425,N,11723.421623,W,58.3,346.1,070810,,,A*4C
$GPRMC,150901.0,A,3313.053714,N,11723.435413,W,58.3,345.5,070810,,,A*43
$GPRMC,150904.0,A,3313.101023,N,11723.449319,W,58.4,345.9,070810,,,A*4E
$GPRMC,150907.0,A,3313.148402,N,11723.463008,W,58.4,345.9,070810,,,A*4C
$GPRMC,150910.0,A,3313.195827,N,11723.477130,W,58.4,345.8,070810,,,A*4F
$GPRMC,150913.0,A,3313.243209,N,11723.491035,W,58.4,345.9,070810,,,A*4F
$GPRMC,150916.0,A,3313.290561,N,11723.504931,W,58.3,346.0,070810,,,A*40
$GPRMC,150919.0,A,3313.337616,N,11723.519807,W,58.6,343.2,070810,,,A*4A
$GPRMC,150922.0,A,3313.383301,N,11723.540381,W,58.3,335.9,070810,,,A*48
$GPRMC,150925.0,A,3313.426273,N,11723.567307,W,58.1,329.0,070810,,,A*4E
$GPRMC,150928.0,A,3313.466478,N,11723.600158,W,58.6,322.6,070810,,,A*4A
$GPRMC,150931.0,A,3313.503860,N,11723.637997,W,58.9,317.2,070810,,,A*47
$GPRMC,150934.0,A,3313.539883,N,11723.678019,W,58.6,317.0,070810,,,A*4F
$GPRMC,150937.0,A,3313.575553,N,11723.718091,W,58.5,316.6,070810,,,A*47
$GPRMC,150940.0,A,3313.611358,N,11723.758198,W,58.4,316.9,070810,,,A*49
$GPRMC,150943.0,A,3313.647105,N,11723.797738,W,58.5,317.2,070810,,,A*47
$GPRMC,150946.0,A,3313.682769,N,11723.837599,W,58.8,316.7,070810,,,A*42
$GPRMC,150949.0,A,3313.718403,N,11723.877766,W,58.6,317.1,070810,,,A*4F
$GPRMC,150952.0,A,3313.754429,N,11723.917592,W,59.0,317.3,070810,,,A*4E
$GPRMC,150955.0,A,3313.790830,N,11723.957679,W,59.6,317.3,070810,,,A*41
$GPRMC,150958.0,A,3313.827317,N,11723.998094,W,59.9,316.9,070810,,,A*43
$GPRMC,151001.0,A,3313.864417,N,11724.039373,W,61.0,317.0,070810,,,A*42
$GPRMC,151004.0,A,3313.901816,N,11724.080853,W,61.5,317.2,070810,,,A*44
$GPRMC,151007.0,A,3313.939987,N,11724.122162,W,61.8,318.3,070810,,,A*44
$GPRMC,151010.0,A,3313.979559,N,11724.161395,W,60.8,321.9,070810,,,A*45
$GPRMC,151013.0,A,3314.019538,N,11724.197916,W,59.7,322.5,070810,,,A*4B
$GPRMC,151016.0,A,3314.059218,N,11724.233709,W,59.4,322.5,070810,,,A*41
$GPRMC,151019.0,A,3314.098548,N,11724.269386,W,58.9,322.5,070810,,,A*41
$GPRMC,151022.0,A,3314.137559,N,11724.304997,W,58.5,322.7,070810,,,A*43
$GPRMC,151025.0,A,3314.176218,N,11724.340352,W,58.4,322.2,070810,,,A*44
$GPRMC,151028.0,A,3314.214714,N,11724.375973,W,58.3,322.2,070810,,,A*4F
$GPRMC,151031.0,A,3314.252231,N,11724.412580,W,58.0,318.5,070810,,,A*4C
$GPRMC,151034.0,A,3314.286706,N,11724.454020,W,59.2,311.4,070810,,,A*47
$GPRMC,151037.0,A,3314.317344,N,11724.501083,W,60.4,304.8,070810,,,A*43
$GPRMC,151040.0,A,3314.343402,N,11724.553145,W,61.2,297.6,070810,,,A*49
$GPRMC,151043.0,A,3314.364379,N,11724.609426,W,62.3,291.7,070810,,,A*4D
$GPRMC,151046.0,A,3314.383877,N,11724.668076,W,63.9,292.4,070810,,,A*49
$GPRMC,151049.0,A,3314.404489,N,11724.727329,W,64.3,293.8,070810,,,A*40
$GPRMC,151052.0,A,3314.429046,N,11724.783515,W,63.1,301.0,070810,,,A*42
$GPRMC,151055.0,A,3314.458730,N,11724.834903,W,62.3,307.8,070810,,,A*40
$GPRMC,151058.0,A,3314.493250,N,11724.881276,W,62.0,315.2,070810,,,A*44
$GPRMC,151101.0,A,3314.532460,N,11724.921092,W,61.2,322.7,070810,,,A*45
$GPRMC,151104.0,A,3314.575220,N,11724.954717,W,61.3,330.1,070810,,,A*4D
$GPRMC,151107.0,A,3314.621712,N,11724.981205,W,61.8,337.1,070810,,,A*4A
$GPRMC,151110.0,A,3314.670729,N,11725.002911,W,63.1,339.7,070810,,,A*4E
$GPRMC,151113.0,A,3314.720593,N,11725.024541,W,63.5,339.5,070810,,,A*41
$GPRMC,151116.0,A,3314.770356,N,11725.046559,W,63.2,339.2,070810,,,A*43
$GPRMC,151119.0,A,3314.819745,N,11725.068436,W,62.6,339.0,070810,,,A*49
$GPRMC,151122.0,A,3314.867647,N,11725.093134,W,62.7,333.1,070810,,,A*42
$GPRMC,151125.0,A,3314.912774,N,11725.124973,W,62.8,326.5,070810,,,A*4E
$GPRMC,151128.0,A,3314.956417,N,11725.159775,W,62.5,326.2,070810,,,A*4D
$GPRMC,151131.0,A,3315.000024,N,11725.194245,W,62.5,326.5,070810,,,A*4A
$GPRMC,151134.0,A,3315.043692,N,11725.228584,W,62.6,326.4,070810,,,A*4F
$GPRMC,151137.0,A,3315.087172,N,11725.263028,W,62.2,326.4,070810,,,A*45
$GPRMC,151140.0,A,3315.130568,N,11725.297106,W,62.3,326.4,070810,,,A*40
$GPRMC,151143.0,A,3315.174055,N,11725.331435,W,62.6,326.2,070810,,,A*43
$GPRMC,151146.0,A,3315.217862,N,11725.366397,W,63.3,326.1,070810,,,A*46
$GPRMC,151149.0,A,3315.262199,N,11725.401677,W,64.1,326.3,070810,,,A*4C
$GPRMC,151152.0,A,3315.307142,N,11725.437147,W,64.5,326.3,070810,,,A*47
$GPRMC,151155.0,A,3315.352122,N,11725.472899,W,64.8,326.2,070810,,,A*41
$GPRMC,151158.0,A,3315.397488,N,11725.508958,W,65.4,326.4,070810,,,A*4B
$GPRMC,151201.0,A,3315.443283,N,11725.544977,W,65.9,326.4,070810,,,A*4F
$GPRMC,151204.0,A,3315.489317,N,11725.581539,W,66.3,326.3,070810,,,A*41
$GPRMC,151207.0,A,3315.535517,N,11725.618111,W,65.6,326.1,070810,,,A*4B
$GPRMC,151210.0,A,3315.580722,N,11725.654034,W,64.9,326.5,070810,,,A*43
$GPRMC,151213.0,A,3315.626344,N,11725.689590,W,65.4,326.5,070810,,,A*4C
$GPRMC,151216.0,A,3315.672094,N,11725.725961,W,65.9,326.2,070810,,,A*49
$GPRMC,151219.0,A,3315.718000,N,11725.762357,W,65.6,326.5,070810,,,A*42
$GPRMC,151222.0,A,3315.762930,N,11725.797490,W,63.2,326.3,070810,,,A*4F
$GPRMC,151225.0,A,3315.806015,N,11725.831824,W,61.1,326.3,070810,,,A*4A
$GPRMC,151228.0,A,3315.847334,N,11725.865213,W,58.8,324.4,070810,,,A*4B
$GPRMC,151231.0,A,3315.885616,N,11725.901558,W,58.3,318.5,070810,,,A*46
$GPRMC,151234.0,A,3315.919550,N,11725.942093,W,56.6,312.3,070810,,,A*44
$GPRMC,151237.0,A,3315.950608,N,11725.981617,W,51.9,314.6,070810,,,A*4A
$GPRMC,151240.0,A,3315.978972,N,11726.014619,W,44.6,316.4,070810,,,A*41
$GPRMC,151243.0,A,3316.005081,N,11726.044275,W,42.7,317.8,070810,,,A*46
$GPRMC,151246.0,A,3316.032283,N,11726.069491,W,39.9,324.6,070810,,,A*48
$GPRMC,151249.0,A,3316.057472,N,11726.087566,W,32.0,329.7,070810,,,A*4B
$GPRMC,151252.0,A,3316.077619,N,11726.102181,W,24.1,324.9,070810,,,A*48
$GPRMC,151255.0,A,3316.091014,N,11726.113848,W,18.5,322.4,070810,,,A*40
$GPRMC,151258.0,A,3316.101449,N,11726.123630,W,14.9,322.1,070810,,,A*4E
$GPRMC,151301.0,A,3316.109911,N,11726.131541,W,13.5,321.2,070810,,,A*46
$GPRMC,151304.0,A,3316.118913,N,11726.140201,W,14.3,320.4,070810,,,A*42
$GPRMC,151307.0,A,3316.127468,N,11726.148414,W,12.8,319.9,070810,,,A*4C
$GPRMC,151310.0,A,3316.134815,N,11726.155394,W,10.7,320.3,070810,,,A*40
$GPRMC,151313.0,A,3316.141069,N,11726.161359,W,9.7,321.2,070810,,,A*7C
$GPRMC,151316.0,A,3316.147398,N,11726.167263,W,10.5,320.5,070810,,,A*40
$GPRMC,151319.0,A,3316.154029,N,11726.173861,W,10.0,318.7,070810,,,A*45
$GPRMC,151322.0,A,3316.159405,N,11726.176718,W,5.8,6.7,070810,,,A*7E
$GPRMC,151637.0,A,3316.167442,N,11726.185544,W,14.9,318.1,070810,,,A*4D
$GPRMC,151640.0,A,3316.177553,N,11726.197322,W,17.4,308.8,070810,,,A*4E
$GPRMC,151643.0,A,3316.181352,N,11726.214607,W,18.8,266.8,070810,,,A*43
$GPRMC,151646.0,A,3316.175458,N,11726.233708,W,20.5,238.9,070810,,,A*47
$GPRMC,151649.0,A,3316.167681,N,11726.254031,W,22.9,257.4,070810,,,A*4B
$GPRMC,151652.0,A,3316.172073,N,11726.276757,W,24.3,297.0,070810,,,A*4D
$GPRMC,151655.0,A,3316.187075,N,11726.300369,W,32.5,309.1,070810,,,A*49
$GPRMC,151658.0,A,3316.206636,N,11726.328749,W,40.5,309.8,070810,,,A*4F
$GPRMC,151701.0,A,3316.229901,N,11726.362333,W,45.8,309.9,070810,,,A*4A
$GPRMC,151704.0,A,3316.255952,N,11726.398860,W,49.6,310.9,070810,,,A*40
$GPRMC,151707.0,A,3316.284055,N,11726.437514,W,51.9,311.0,070810,,,A*43
$GPRMC,151710.0,A,3316.313111,N,11726.477274,W,53.1,311.4,070810,,,A*40
$GPRMC,151713.0,A,3316.344042,N,11726.517211,W,54.4,314.8,070810,,,A*49
$GPRMC,151716.0,A,3316.378829,N,11726.554467,W,55.6,321.2,070810,,,A*49
$GPRMC,151719.0,A,3316.417536,N,11726.588066,W,56.1,326.5,070810,,,A*4B
$GPRMC,151722.0,A,3316.457480,N,11726.618799,W,56.2,327.1,070810,,,A*40
$GPRMC,151725.0,A,3316.497803,N,11726.649658,W,57.2,327.7,070810,,,A*43
$GPRMC,151728.0,A,3316.538934,N,11726.680894,W,58.5,327.4,070810,,,A*4F
$GPRMC,151731.0,A,3316.581086,N,11726.712668,W,59.9,327.7,070810,,,A*4C
$GPRMC,151734.0,A,3316.623871,N,11726.745031,W,60.5,327.5,070810,,,A*4E
$GPRMC,151737.0,A,3316.666624,N,11726.777253,W,60.0,327.4,070810,,,A*41
$GPRMC,151740.0,A,3316.709088,N,11726.809434,W,60.0,327.6,070810,,,A*4A
$GPRMC,151743.0,A,3316.751672,N,11726.841671,W,60.0,327.1,070810,,,A*4F
$GPRMC,151746.0,A,3316.794136,N,11726.873742,W,60.1,327.5,070810,,,A*41
$GPRMC,151749.0,A,3316.836486,N,11726.905667,W,59.3,327.6,070810,,,A*4A
$GPRMC,151752.0,A,3316.878019,N,11726.937119,W,58.4,327.5,070810,,,A*42
$GPRMC,151755.0,A,3316.919095,N,11726.968068,W,57.9,327.5,070810,,,A*48
$GPRMC,151758.0,A,3316.959972,N,11726.998620,W,57.5,327.8,070810,,,A*45
$GPRMC,151801.0,A,3317.000572,N,11727.029313,W,57.4,327.5,070810,,,A*45
$GPRMC,151804.0,A,3317.041084,N,11727.060127,W,57.5,327.2,070810,,,A*47
$GPRMC,151807.0,A,3317.081989,N,11727.091212,W,58.5,327.4,070810,,,A*4E
$GPRMC,151810.0,A,3317.123748,N,11727.122699,W,59.3,327.5,070810,,,A*4A
$GPRMC,151813.0,A,3317.165897,N,11727.154494,W,59.8,327.5,070810,,,A*43
$GPRMC,151816.0,A,3317.208087,N,11727.186600,W,59.9,327.5,070810,,,A*46
$GPRMC,151819.0,A,3317.250382,N,11727.218610,W,59.8,327.6,070810,,,A*45
$GPRMC,151822.0,A,3317.292684,N,11727.250590,W,59.8,327.4,070810,,,A*45
$GPRMC,151825.0,A,3317.334876,N,11727.282792,W,59.9,327.5,070810,,,A*43
$GPRMC,151828.0,A,3317.377084,N,11727.314933,W,59.8,327.4,070810,,,A*47
$GPRMC,151831.0,A,3317.419276,N,11727.346974,W,59.8,327.5,070810,,,A*4A
$GPRMC,151834.0,A,3317.461385,N,11727.379025,W,59.8,327.5,070810,,,A*4C
$GPRMC,151837.0,A,3317.503526,N,11727.411121,W,59.9,327.3,070810,,,A*4E
$GPRMC,151840.0,A,3317.545683,N,11727.443247,W,59.8,327.5,070810,,,A*43
$GPRMC,151843.0,A,3317.587920,N,11727.475167,W,59.8,327.4,070810,,,A*4D
$GPRMC,151846.0,A,3317.629551,N,11727.507514,W,59.4,325.5,070810,,,A*4E
$GPRMC,151849.0,A,3317.668957,N,11727.543613,W,59.7,319.3,070810,,,A*40
$GPRMC,151852.0,A,3317.704999,N,11727.585003,W,60.1,314.5,070810,,,A*49
$GPRMC,151855.0,A,3317.739785,N,11727.627776,W,59.7,314.5,070810,,,A*41
$GPRMC,151858.0,A,3317.774632,N,11727.670277,W,59.5,314.2,070810,,,A*4B
$GPRMC,151901.0,A,3317.809137,N,11727.712764,W,59.2,314.5,070810,,,A*43
$GPRMC,151904.0,A,3317.843730,N,11727.754933,W,59.2,314.4,070810,,,A*46
$GPRMC,151907.0,A,3317.878411,N,11727.797293,W,59.5,314.5,070810,,,A*45
$GPRMC,151910.0,A,3317.913333,N,11727.839614,W,59.6,314.4,070810,,,A*4A
$GPRMC,151913.0,A,3317.948175,N,11727.882034,W,59.6,314.5,070810,,,A*42
$GPRMC,151916.0,A,3317.982997,N,11727.924435,W,59.8,314.6,070810,,,A*40
$GPRMC,151919.0,A,3318.018012,N,11727.967163,W,60.0,314.2,070810,,,A*49
$GPRMC,151922.0,A,3318.053091,N,11728.009900,W,60.1,314.3,070810,,,A*46
$GPRMC,151925.0,A,3318.088144,N,11728.052874,W,60.1,314.3,070810,,,A*42
$GPRMC,151928.0,A,3318.123308,N,11728.095446,W,60.0,314.7,070810,,,A*46
$GPRMC,151931.0,A,3318.158406,N,11728.138018,W,59.8,314.3,070810,,,A*44
$GPRMC,151934.0,A,3318.193258,N,11728.180665,W,59.9,314.4,070810,,,A*42
$GPRMC,151937.0,A,3318.228366,N,11728.223141,W,59.8,314.4,070810,,,A*44
$GPRMC,151940.0,A,3318.263364,N,11728.265426,W,59.4,314.6,070810,,,A*41
$GPRMC,151943.0,A,3318.298088,N,11728.307731,W,59.5,314.5,070810,,,A*45
$GPRMC,151946.0,A,3318.333063,N,11728.349966,W,59.7,314.5,070810,,,A*41
$GPRMC,151949.0,A,3318.368056,N,11728.392467,W,59.6,314.2,070810,,,A*4A
$GPRMC,151952.0,A,3318.402835,N,11728.434953,W,59.7,314.4,070810,,,A*40
$GPRMC,151955.0,A,3318.437896,N,11728.477384,W,59.8,314.3,070810,,,A*47
$GPRMC,151958.0,A,3318.472931,N,11728.519971,W,59.8,314.7,070810,,,A*4A
$GPRMC,152001.0,A,3318.508185,N,11728.562251,W,59.7,314.2,070810,,,A*48
$GPRMC,152004.0,A,3318.542992,N,11728.604757,W,59.7,314.4,070810,,,A*4B
$GPRMC,152007.0,A,3318.577932,N,11728.647329,W,59.9,314.2,070810,,,A*46
$GPRMC,152010.0,A,3318.613025,N,11728.689991,W,59.8,314.6,070810,,,A*40
$GPRMC,152013.0,A,3318.647980,N,11728.732548,W,59.8,314.5,070810,,,A*4E
$GPRMC,152016.0,A,3318.683064,N,11728.774938,W,59.9,314.7,070810,,,A*4A
$GPRMC,152019.0,A,3318.719734,N,11728.815272,W,59.7,320.2,070810,,,A*44
$GPRMC,152022.0,A,3318.760168,N,11728.850049,W,59.5,327.8,070810,,,A*49
$GPRMC,152025.0,A,3318.803781,N,11728.878212,W,59.2,335.0,070810,,,A*4F
$GPRMC,152028.0,A,3318.849742,N,11728.899893,W,59.3,341.6,070810,,,A*4B
$GPRMC,152031.0,A,3318.897577,N,11728.915070,W,58.8,347.7,070810,,,A*49
$GPRMC,152034.0,A,3318.946581,N,11728.923167,W,59.5,354.8,070810,,,A*4B
$GPRMC,152037.0,A,3318.996339,N,11728.927347,W,59.8,355.3,070810,,,A*43
$GPRMC,152040.0,A,3319.046351,N,11728.931702,W,59.9,355.6,070810,,,A*4E
$GPRMC,152043.0,A,3319.096462,N,11728.935901,W,60.0,355.5,070810,,,A*4E
$GPRMC,152046.0,A,3319.146388,N,11728.940724,W,59.8,353.9,070810,,,A*47
$GPRMC,152049.0,A,3319.196026,N,11728.949621,W,60.3,347.7,070810,,,A*45
$GPRMC,152052.0,A,3319.244530,N,11728.965407,W,60.2,341.7,070810,,,A*4E
$GPRMC,152055.0,A,3319.291394,N,11728.987525,W,60.1,334.9,070810,,,A*4B
$GPRMC,152058.0,A,3319.335449,N,11729.016433,W,59.9,327.1,070810,,,A*40
$GPRMC,152101.0,A,3319.376102,N,11729.052009,W,59.9,320.5,070810,,,A*4E
$GPRMC,152104.0,A,3319.412845,N,11729.092579,W,59.8,314.3,070810,,,A*4A
$GPRMC,152107.0,A,3319.445997,N,11729.137464,W,60.1,310.9,070810,,,A*4B
$GPRMC,152110.0,A,3319.478606,N,11729.182892,W,59.7,310.7,070810,,,A*4D
$GPRMC,152113.0,A,3319.511210,N,11729.228009,W,59.8,310.9,070810,,,A*4B
$GPRMC,152116.0,A,3319.543696,N,11729.273105,W,59.4,310.8,070810,,,A*4D
$GPRMC,152119.0,A,3319.576242,N,11729.317875,W,59.3,311.1,070810,,,A*4B
$GPRMC,152122.0,A,3319.608961,N,11729.362558,W,59.7,311.2,070810,,,A*44
$GPRMC,152125.0,A,3319.641573,N,11729.407524,W,59.7,310.9,070810,,,A*44
$GPRMC,152128.0,A,3319.674159,N,11729.452651,W,59.7,310.7,070810,,,A*4C
$GPRMC,152131.0,A,3319.706627,N,11729.497868,W,59.8,311.0,070810,,,A*4A
$GPRMC,152134.0,A,3319.739312,N,11729.542888,W,59.8,311.2,070810,,,A*45
$GPRMC,152137.0,A,3319.771984,N,11729.587939,W,59.8,310.9,070810,,,A*47
$GPRMC,152140.0,A,3319.804547,N,11729.632960,W,59.7,311.1,070810,,,A*4E
$GPRMC,152143.0,A,3319.837330,N,11729.677795,W,59.8,311.1,070810,,,A*41
$GPRMC,152146.0,A,3319.869906,N,11729.722942,W,59.8,310.5,070810,,,A*40
$GPRMC,152149.0,A,3319.902507,N,11729.768124,W,59.8,311.0,070810,,,A*4C
$GPRMC,152152.0,A,3319.935398,N,11729.813109,W,59.9,310.9,070810,,,A*47
$GPRMC,152155.0,A,3319.968100,N,11729.858321,W,60.0,310.7,070810,,,A*41
$GPRMC,152158.0,A,3320.000817,N,11729.903634,W,60.0,310.8,070810,,,A*4F
$GPRMC,152201.0,A,3320.033534,N,11729.948931,W,59.9,310.5,070810,,,A*47
$GPRMC,152204.0,A,3320.066387,N,11729.994088,W,59.8,310.9,070810,,,A*4B
$GPRMC,152207.0,A,3320.099481,N,11730.039199,W,59.9,310.8,070810,,,A*4E
$GPRMC,152210.0,A,3320.132047,N,11730.084150,W,59.8,311.0,070810,,,A*4D
$GPRMC,152213.0,A,3320.164820,N,11730.129130,W,59.7,310.9,070810,,,A*43
$GPRMC,152216.0,A,3320.197451,N,11730.174408,W,59.8,310.7,070810,,,A*47
$GPRMC,152219.0,A,3320.230206,N,11730.219383,W,59.9,311.0,070810,,,A*49
$GPRMC,152222.0,A,3320.262913,N,11730.264424,W,59.8,310.9,070810,,,A*40
$GPRMC,152225.0,A,3320.295708,N,11730.309345,W,59.8,311.1,070810,,,A*48
$GPRMC,152228.0,A,3320.328664,N,11730.354320,W,59.8,310.9,070810,,,A*4B
$GPRMC,152231.0,A,3320.361459,N,11730.399392,W,59.8,311.2,070810,,,A*40
$GPRMC,152234.0,A,3320.394430,N,11730.444498,W,59.8,310.7,070810,,,A*4E
$GPRMC,152237.0,A,3320.426966,N,11730.489624,W,59.5,310.4,070810,,,A*47
$GPRMC,152240.0,A,3320.459550,N,11730.534796,W,59.9,310.8,070810,,,A*49
$GPRMC,152243.0,A,3320.492225,N,11730.580063,W,59.8,310.6,070810,,,A*45
$GPRMC,152246.0,A,3320.524841,N,11730.625125,W,59.6,311.0,070810,,,A*42
$GPRMC,152249.0,A,3320.557694,N,11730.669974,W,59.7,311.2,070810,,,A*48
$GPRMC,152252.0,A,3320.590781,N,11730.714844,W,60.0,311.4,070810,,,A*4E
$GPRMC,152255.0,A,3320.624066,N,11730.759554,W,59.7,311.4,070810,,,A*43
$GPRMC,152258.0,A,3320.657035,N,11730.804268,W,59.8,311.1,070810,,,A*49
$GPRMC,152301.0,A,3320.689923,N,11730.848947,W,59.8,311.3,070810,,,A*45
$GPRMC,152304.0,A,3320.722894,N,11730.893545,W,59.5,311.2,070810,,,A*49
$GPRMC,152307.0,A,3320.755254,N,11730.938319,W,59.6,310.8,070810,,,A*4B
$GPRMC,152310.0,A,3320.787707,N,11730.983154,W,59.6,311.1,070810,,,A*42
$GPRMC,152313.0,A,3320.820424,N,11731.028029,W,59.6,311.1,070810,,,A*43
$GPRMC,152316.0,A,3320.852930,N,11731.073156,W,59.9,310.2,070810,,,A*41
$GPRMC,152319.0,A,3320.884842,N,11731.119167,W,60.1,309.2,070810,,,A*44
$GPRMC,152322.0,A,3320.916463,N,11731.165662,W,60.1,309.3,070810,,,A*41
$GPRMC,152325.0,A,3320.948438,N,11731.211402,W,59.7,309.5,070810,,,A*4D
$GPRMC,152328.0,A,3320.980255,N,11731.257293,W,59.7,309.6,070810,,,A*46
$GPRMC,152331.0,A,3321.012034,N,11731.303083,W,59.7,309.5,070810,,,A*48
$GPRMC,152334.0,A,3321.043776,N,11731.349220,W,60.2,309.2,070810,,,A*45
$GPRMC,152337.0,A,3321.075409,N,11731.395660,W,59.9,309.2,070810,,,A*48
$GPRMC,152340.0,A,3321.107424,N,11731.441555,W,59.8,309.7,070810,,,A*4C
$GPRMC,152343.0,A,3321.139201,N,11731.487637,W,59.7,309.4,070810,,,A*42
$GPRMC,152346.0,A,3321.171159,N,11731.533398,W,59.8,310.1,070810,,,A*49
$GPRMC,152349.0,A,3321.202837,N,11731.579002,W,59.5,309.4,070810,,,A*4E
$GPRMC,152352.0,A,3321.234564,N,11731.624868,W,59.6,309.2,070810,,,A*40
$GPRMC,152355.0,A,3321.265762,N,11731.671126,W,59.8,308.7,070810,,,A*4E
$GPRMC,152358.0,A,3321.296902,N,11731.717867,W,60.1,308.2,070810,,,A*4C
$GPRMC,152401.0,A,3321.328239,N,11731.764190,W,59.7,309.0,070810,,,A*4A
$GPRMC,152404.0,A,3321.359779,N,11731.810569,W,60.1,309.0,070810,,,A*4A
$GPRMC,152407.0,A,3321.391327,N,11731.856761,W,59.7,308.9,070810,,,A*4E
$GPRMC,152410.0,A,3321.422716,N,11731.903195,W,60.0,308.6,070810,,,A*4F
$GPRMC,152413.0,A,3321.453917,N,11731.949745,W,59.5,308.8,070810,,,A*41
$GPRMC,152416.0,A,3321.485367,N,11731.995968,W,59.6,308.9,070810,,,A*40
$GPRMC,152419.0,A,3321.516887,N,11732.042578,W,60.5,309.0,070810,,,A*4D
$GPRMC,152422.0,A,3321.548729,N,11732.089299,W,60.5,309.2,070810,,,A*48
$GPRMC,152425.0,A,3321.580496,N,11732.136910,W,60.8,308.6,070810,,,A*4B
$GPRMC,152428.0,A,3321.612114,N,11732.184053,W,60.7,308.8,070810,,,A*47
$GPRMC,152431.0,A,3321.643594,N,11732.230764,W,60.1,309.0,070810,,,A*47
$GPRMC,152434.0,A,3321.675215,N,11732.276368,W,59.7,309.3,070810,,,A*4C
$GPRMC,152437.0,A,3321.706762,N,11732.321464,W,59.3,309.5,070810,,,A*45
$GPRMC,152440.0,A,3321.738433,N,11732.366621,W,59.9,309.8,070810,,,A*48
$GPRMC,152443.0,A,3321.770323,N,11732.412592,W,60.2,309.3,070810,,,A*44
$GPRMC,152446.0,A,3321.801785,N,11732.458357,W,59.3,309.3,070810,,,A*4A
$GPRMC,152449.0,A,3321.833248,N,11732.504203,W,59.8,309.1,070810,,,A*41
$GPRMC,152452.0,A,3321.864949,N,11732.549883,W,60.0,309.3,070810,,,A*48
$GPRMC,152455.0,A,3321.896625,N,11732.596156,W,60.0,309.1,070810,,,A*46
$GPRMC,152458.0,A,3321.928394,N,11732.642278,W,60.1,309.2,070810,,,A*47
$GPRMC,152501.0,A,3321.960289,N,11732.688803,W,60.5,309.5,070810,,,A*48
$GPRMC,152504.0,A,3321.992309,N,11732.735332,W,60.1,309.4,070810,,,A*42
$GPRMC,152507.0,A,3322.023960,N,11732.781399,W,59.9,308.7,070810,,,A*4A
$GPRMC,152510.0,A,3322.054583,N,11732.828004,W,59.8,307.8,070810,,,A*47
$GPRMC,152513.0,A,3322.085142,N,11732.875902,W,60.6,307.3,070810,,,A*49
$GPRMC,152516.0,A,3322.112559,N,11732.926314,W,59.8,303.3,070810,,,A*47
$GPRMC,152519.0,A,3322.139844,N,11732.976108,W,59.8,303.2,070810,,,A*4B
$GPRMC,152522.0,A,3322.167424,N,11733.025901,W,59.9,303.1,070810,,,A*4F
$GPRMC,152525.0,A,3322.194607,N,11733.075906,W,59.8,303.0,070810,,,A*45
$GPRMC,152528.0,A,3322.221440,N,11733.125679,W,59.8,302.7,070810,,,A*41
$GPRMC,152531.0,A,3322.249228,N,11733.175634,W,60.5,304.2,070810,,,A*47
$GPRMC,152534.0,A,3322.276896,N,11733.224663,W,59.7,303.0,070810,,,A*49
$GPRMC,152537.0,A,3322.304496,N,11733.275130,W,60.7,302.9,070810,,,A*45
$GPRMC,152540.0,A,3322.331769,N,11733.324999,W,59.8,303.5,070810,,,A*46
$GPRMC,152543.0,A,3322.358029,N,11733.374798,W,59.4,302.8,070810,,,A*43
$GPRMC,152546.0,A,3322.384537,N,11733.424667,W,59.5,303.0,070810,,,A*46
$GPRMC,152549.0,A,3322.410910,N,11733.474440,W,59.7,303.0,070810,,,A*4A
$GPRMC,152552.0,A,3322.438105,N,11733.524390,W,59.8,303.2,070810,,,A*45
$GPRMC,152555.0,A,3322.464973,N,11733.574249,W,59.7,302.7,070810,,,A*49
$GPRMC,152558.0,A,3322.492274,N,11733.624520,W,59.7,303.0,070810,,,A*49
$GPRMC,152601.0,A,3322.520787,N,11733.673469,W,59.7,307.1,070810,,,A*4C
$GPRMC,152604.0,A,3322.553001,N,11733.718484,W,59.6,312.9,070810,,,A*46
$GPRMC,152607.0,A,3322.588386,N,11733.759522,W,59.6,317.3,070810,,,A*48
$GPRMC,152610.0,A,3322.624794,N,11733.799710,W,59.8,316.6,070810,,,A*49
$GPRMC,152613.0,A,3322.661253,N,11733.840351,W,60.0,316.1,070810,,,A*4A
$GPRMC,152616.0,A,3322.695610,N,11733.884109,W,60.3,309.9,070810,,,A*45
$GPRMC,152619.0,A,3322.726056,N,11733.932248,W,60.7,304.4,070810,,,A*49
$GPRMC,152622.0,A,3322.752404,N,11733.983575,W,60.4,299.0,070810,,,A*40
$GPRMC,152625.0,A,3322.774592,N,11734.036799,W,59.9,294.8,070810,,,A*4F
$GPRMC,152628.0,A,3322.795473,N,11734.090767,W,59.5,294.9,070810,,,A*43
$GPRMC,152631.0,A,3322.816483,N,11734.144533,W,59.6,294.8,070810,,,A*49
$GPRMC,152634.0,A,3322.837291,N,11734.198516,W,59.7,294.9,070810,,,A*4C
$GPRMC,152637.0,A,3322.858303,N,11734.252569,W,59.8,295.0,070810,,,A*46
$GPRMC,152640.0,A,3322.879337,N,11734.306788,W,59.8,294.9,070810,,,A*47
$GPRMC,152643.0,A,3322.900341,N,11734.360656,W,59.7,294.9,070810,,,A*47
$GPRMC,152646.0,A,3322.921132,N,11734.414407,W,59.4,294.6,070810,,,A*49
$GPRMC,152649.0,A,3322.941869,N,11734.468445,W,59.6,294.7,070810,,,A*49
$GPRMC,152652.0,A,3322.962670,N,11734.522428,W,59.6,294.9,070810,,,A*4E
$GPRMC,152655.0,A,3322.983455,N,11734.576426,W,59.7,294.9,070810,,,A*4D
$GPRMC,152658.0,A,3323.004309,N,11734.630509,W,59.6,294.6,070810,,,A*4A
$GPRMC,152701.0,A,3323.024873,N,11734.684487,W,59.7,294.7,070810,,,A*4B
$GPRMC,152704.0,A,3323.045940,N,11734.738299,W,59.7,295.1,070810,,,A*40
$GPRMC,152707.0,A,3323.066894,N,11734.792241,W,59.7,294.6,070810,,,A*49
$GPRMC,152710.0,A,3323.087958,N,11734.846119,W,59.7,295.3,070810,,,A*4D
$GPRMC,152713.0,A,3323.109053,N,11734.899910,W,59.7,294.8,070810,,,A*42
$GPRMC,152716.0,A,3323.129957,N,11734.953918,W,59.8,295.2,070810,,,A*43
$GPRMC,152719.0,A,3323.151356,N,11735.007655,W,59.8,295.8,070810,,,A*4D
$GPRMC,152722.0,A,3323.174827,N,11735.060466,W,59.6,300.1,070810,,,A*46
$GPRMC,152725.0,A,3323.201652,N,11735.110802,W,59.7,305.0,070810,,,A*41
$GPRMC,152728.0,A,3323.231797,N,11735.158106,W,59.9,309.2,070810,,,A*46
$GPRMC,152731.0,A,3323.264866,N,11735.202800,W,59.8,313.7,070810,,,A*43
$GPRMC,152734.0,A,3323.300759,N,11735.243587,W,59.7,318.2,070810,,,A*40
$GPRMC,152737.0,A,3323.339383,N,11735.281421,W,59.7,322.2,070810,,,A*40
$GPRMC,152740.0,A,3323.380234,N,11735.315659,W,59.6,326.4,070810,,,A*4D
$GPRMC,152743.0,A,3323.422112,N,11735.347705,W,59.5,327.1,070810,,,A*4E
$GPRMC,152746.0,A,3323.463997,N,11735.379343,W,59.4,327.2,070810,,,A*42
$GPRMC,152749.0,A,3323.505895,N,11735.411007,W,59.3,327.1,070810,,,A*41
$GPRMC,152752.0,A,3323.547592,N,11735.443249,W,59.5,327.0,070810,,,A*4F
$GPRMC,152755.0,A,3323.589500,N,11735.475556,W,59.6,326.7,070810,,,A*48
$GPRMC,152758.0,A,3323.631377,N,11735.507848,W,59.6,327.1,070810,,,A*42
$GPRMC,152801.0,A,3323.673612,N,11735.539230,W,59.6,328.6,070810,,,A*41
$GPRMC,152804.0,A,3323.716671,N,11735.569576,W,59.8,330.2,070810,,,A*40
$GPRMC,152807.0,A,3323.760028,N,11735.597885,W,58.1,332.2,070810,,,A*42
$GPRMC,152810.0,A,3323.802526,N,11735.623463,W,56.1,333.6,070810,,,A*47
$GPRMC,152813.0,A,3323.844414,N,11735.647895,W,56.0,333.7,070810,,,A*41
$GPRMC,152816.0,A,3323.886807,N,11735.671547,W,55.9,336.2,070810,,,A*49
$GPRMC,152819.0,A,3323.929593,N,11735.692870,W,55.5,337.5,070810,,,A*4C
$GPRMC,152822.0,A,3323.972356,N,11735.713786,W,55.0,337.1,070810,,,A*4A
$GPRMC,152825.0,A,3324.014585,N,11735.734698,W,55.0,337.3,070810,,,A*42
$GPRMC,152828.0,A,3324.057237,N,11735.755820,W,55.4,337.2,070810,,,A*49
$GPRMC,152831.0,A,3324.099880,N,11735.777113,W,55.4,337.1,070810,,,A*4F
$GPRMC,152834.0,A,3324.142791,N,11735.798296,W,55.7,337.1,070810,,,A*4E
$GPRMC,152837.0,A,3324.185805,N,11735.819921,W,55.7,337.1,070810,,,A*45
$GPRMC,152840.0,A,3324.228857,N,11735.841260,W,55.6,337.0,070810,,,A*45
$GPRMC,152843.0,A,3324.271519,N,11735.862775,W,55.4,337.1,070810,,,A*4E
$GPRMC,152846.0,A,3324.314131,N,11735.883988,W,55.1,337.3,070810,,,A*43
$GPRMC,152849.0,A,3324.356504,N,11735.904612,W,55.0,337.4,070810,,,A*4C
$GPRMC,152852.0,A,3324.398947,N,11735.925473,W,55.1,337.5,070810,,,A*49
$GPRMC,152855.0,A,3324.441665,N,11735.946002,W,55.3,338.1,070810,,,A*4C
$GPRMC,152858.0,A,3324.484682,N,11735.966667,W,55.5,338.0,070810,,,A*41
$GPRMC,152901.0,A,3324.527568,N,11735.987412,W,55.4,337.2,070810,,,A*40
$GPRMC,152904.0,A,3324.570310,N,11736.008846,W,55.5,337.4,070810,,,A*49
$GPRMC,152907.0,A,3324.613088,N,11736.030331,W,55.5,337.3,070810,,,A*49
$GPRMC,152910.0,A,3324.655864,N,11736.051614,W,55.4,337.2,070810,,,A*42
$GPRMC,152913.0,A,3324.698468,N,11736.073320,W,55.6,336.9,070810,,,A*4A
$GPRMC,152916.0,A,3324.741374,N,11736.094699,W,55.4,337.4,070810,,,A*40
$GPRMC,152919.0,A,3324.783958,N,11736.115851,W,55.0,337.2,070810,,,A*45
$GPRMC,152922.0,A,3324.826427,N,11736.137331,W,55.0,337.4,070810,,,A*43
$GPRMC,152925.0,A,3324.868971,N,11736.158352,W,54.8,337.5,070810,,,A*44
$GPRMC,152928.0,A,3324.911369,N,11736.179339,W,54.9,337.1,070810,,,A*4E
$GPRMC,152931.0,A,3324.953690,N,11736.200819,W,54.9,337.2,070810,,,A*44
$GPRMC,152934.0,A,3324.996050,N,11736.221881,W,54.9,337.4,070810,,,A*46
$GPRMC,152937.0,A,3325.038491,N,11736.243129,W,55.0,337.4,070810,,,A*47
$GPRMC,152940.0,A,3325.080934,N,11736.264528,W,54.6,336.7,070810,,,A*43
$GPRMC,152943.0,A,3325.122493,N,11736.287305,W,55.2,333.2,070810,,,A*48
$GPRMC,152946.0,A,3325.162313,N,11736.315805,W,55.8,325.3,070810,,,A*4B
$GPRMC,152949.0,A,3325.199846,N,11736.348705,W,55.5,323.9,070810,,,A*4D
$GPRMC,152952.0,A,3325.237464,N,11736.381209,W,55.3,324.7,070810,,,A*4F
$GPRMC,152955.0,A,3325.275894,N,11736.411977,W,55.3,328.2,070810,,,A*48
$GPRMC,152958.0,A,3325.316112,N,11736.439094,W,55.3,333.4,070810,,,A*44
$GPRMC,153001.0,A,3325.357952,N,11736.460835,W,54.5,338.4,070810,,,A*4A
$GPRMC,153004.0,A,3325.400353,N,11736.481188,W,54.6,338.0,070810,,,A*46
$GPRMC,153007.0,A,3325.442874,N,11736.502094,W,55.0,336.7,070810,,,A*45
$GPRMC,153010.0,A,3325.484483,N,11736.525606,W,54.9,332.8,070810,,,A*46
$GPRMC,153013.0,A,3325.524671,N,11736.552084,W,55.0,330.2,070810,,,A*4D
$GPRMC,153016.0,A,3325.564567,N,11736.579246,W,54.8,330.4,070810,,,A*42
$GPRMC,153019.0,A,3325.604126,N,11736.606152,W,54.4,330.5,070810,,,A*49
$GPRMC,153022.0,A,3325.643605,N,11736.632912,W,54.3,330.1,070810,,,A*4C
$GPRMC,153025.0,A,3325.682103,N,11736.661387,W,54.3,326.7,070810,,,A*46
$GPRMC,153028.0,A,3325.719603,N,11736.692437,W,54.7,324.8,070810,,,A*46
$GPRMC,153031.0,A,3325.755996,N,11736.725423,W,54.7,321.2,070810,,,A*42
$GPRMC,153034.0,A,3325.790415,N,11736.761306,W,54.6,316.6,070810,,,A*49
$GPRMC,153037.0,A,3325.822768,N,11736.800358,W,55.2,313.7,070810,,,A*47
$GPRMC,153040.0,A,3325.854932,N,11736.840229,W,55.5,314.2,070810,,,A*41
$GPRMC,153043.0,A,3325.888315,N,11736.878395,W,55.1,318.9,070810,,,A*42
$GPRMC,153046.0,A,3325.924314,N,11736.912608,W,55.4,324.0,070810,,,A*4E
$GPRMC,153049.0,A,3325.963187,N,11736.943251,W,55.6,329.0,070810,,,A*49
$GPRMC,153052.0,A,3326.003571,N,11736.970654,W,55.6,330.6,070810,,,A*4D
$GPRMC,153055.0,A,3326.044121,N,11736.998410,W,56.0,329.8,070810,,,A*4F
$GPRMC,153058.0,A,3326.084698,N,11737.026659,W,56.4,329.9,070810,,,A*4C
$GPRMC,153101.0,A,3326.125894,N,11737.055466,W,57.7,328.8,070810,,,A*41
$GPRMC,153104.0,A,3326.166377,N,11737.087170,W,58.1,323.9,070810,,,A*4B
$GPRMC,153107.0,A,3326.204243,N,11737.123747,W,58.4,318.3,070810,,,A*43
$GPRMC,153110.0,A,3326.239118,N,11737.164578,W,58.6,313.0,070810,,,A*41
$GPRMC,153113.0,A,3326.270553,N,11737.209177,W,58.3,307.8,070810,,,A*4F
$GPRMC,153116.0,A,3326.298316,N,11737.256445,W,57.3,303.4,070810,,,A*42
$GPRMC,153119.0,A,3326.324038,N,11737.303423,W,55.5,303.1,070810,,,A*44
$GPRMC,153122.0,A,3326.349395,N,11737.349977,W,55.8,303.3,070810,,,A*4E
$GPRMC,153125.0,A,3326.375048,N,11737.396759,W,56.3,303.5,070810,,,A*4B
$GPRMC,153128.0,A,3326.401137,N,11737.443761,W,56.5,303.7,070810,,,A*4B
$GPRMC,153131.0,A,3326.427341,N,11737.490939,W,56.6,303.7,070810,,,A*4A
$GPRMC,153134.0,A,3326.453802,N,11737.538077,W,56.7,304.6,070810,,,A*47
$GPRMC,153137.0,A,3326.482280,N,11737.582988,W,56.3,309.8,070810,,,A*47
$GPRMC,153140.0,A,3326.513787,N,11737.624377,W,56.3,314.3,070810,,,A*4E
$GPRMC,153143.0,A,3326.546990,N,11737.664233,W,56.4,315.3,070810,,,A*46
$GPRMC,153146.0,A,3326.580308,N,11737.704135,W,56.5,314.7,070810,,,A*44
$GPRMC,153149.0,A,3326.613704,N,11737.744147,W,56.8,315.1,070810,,,A*41
$GPRMC,153152.0,A,3326.647286,N,11737.784214,W,57.1,314.6,070810,,,A*42
$GPRMC,153155.0,A,3326.680845,N,11737.824894,W,57.2,314.8,070810,,,A*41
$GPRMC,153158.0,A,3326.714183,N,11737.865490,W,56.6,314.3,070810,,,A*40
$GPRMC,153201.0,A,3326.745563,N,11737.908303,W,57.1,309.0,070810,,,A*4F
$GPRMC,153204.0,A,3326.773530,N,11737.954003,W,56.9,303.8,070810,,,A*48
$GPRMC,153207.0,A,3326.798625,N,11738.002121,W,57.0,301.2,070810,,,A*4D
$GPRMC,153210.0,A,3326.823188,N,11738.050366,W,56.2,301.3,070810,,,A*40
$GPRMC,153213.0,A,3326.847164,N,11738.097876,W,55.5,301.0,070810,,,A*45
$GPRMC,153216.0,A,3326.871098,N,11738.145623,W,56.0,301.2,070810,,,A*43
$GPRMC,153219.0,A,3326.895635,N,11738.193440,W,56.2,301.7,070810,,,A*4C
$GPRMC,153222.0,A,3326.921024,N,11738.240744,W,56.1,304.1,070810,,,A*46
$GPRMC,153225.0,A,3326.949437,N,11738.285348,W,56.2,309.6,070810,,,A*41
$GPRMC,153228.0,A,3326.979971,N,11738.328452,W,57.0,310.5,070810,,,A*42
$GPRMC,153231.0,A,3327.011066,N,11738.371969,W,57.6,310.4,070810,,,A*4D
$GPRMC,153234.0,A,3327.042297,N,11738.415617,W,57.4,310.6,070810,,,A*41
$GPRMC,153237.0,A,3327.073272,N,11738.458878,W,56.7,310.2,070810,,,A*43
$GPRMC,153240.0,A,3327.103467,N,11738.502783,W,57.2,308.7,070810,,,A*4A
$GPRMC,153243.0,A,3327.132626,N,11738.547969,W,57.1,306.7,070810,,,A*4A
$GPRMC,153246.0,A,3327.159961,N,11738.594157,W,56.9,304.2,070810,,,A*4B
$GPRMC,153249.0,A,3327.185643,N,11738.641602,W,56.6,302.0,070810,,,A*4D
$GPRMC,153252.0,A,3327.209682,N,11738.689620,W,55.8,300.1,070810,,,A*47
$GPRMC,153255.0,A,3327.231939,N,11738.738332,W,56.0,297.3,070810,,,A*4F
$GPRMC,153258.0,A,3327.253292,N,11738.788156,W,56.2,297.5,070810,,,A*43
$GPRMC,153301.0,A,3327.274998,N,11738.837512,W,56.2,298.0,070810,,,A*4F
$GPRMC,153304.0,A,3327.296591,N,11738.887170,W,56.2,297.3,070810,,,A*44
$GPRMC,153307.0,A,3327.317947,N,11738.937250,W,56.2,297.1,070810,,,A*41
$GPRMC,153310.0,A,3327.339379,N,11738.987184,W,56.2,297.5,070810,,,A*49
$GPRMC,153313.0,A,3327.361009,N,11739.037245,W,56.3,297.7,070810,,,A*4D
$GPRMC,153316.0,A,3327.383358,N,11739.086792,W,56.6,299.0,070810,,,A*4A
$GPRMC,153319.0,A,3327.407506,N,11739.135323,W,56.6,301.8,070810,,,A*4C
$GPRMC,153322.0,A,3327.433152,N,11739.182979,W,56.8,303.7,070810,,,A*4C
$GPRMC,153325.0,A,3327.460096,N,11739.229619,W,56.7,305.6,070810,,,A*47
$GPRMC,153328.0,A,3327.487972,N,11739.275294,W,56.5,306.0,070810,,,A*4F
$GPRMC,153331.0,A,3327.515424,N,11739.321200,W,56.5,305.6,070810,,,A*4B
$GPRMC,153334.0,A,3327.543102,N,11739.366859,W,56.3,306.1,070810,,,A*4B
$GPRMC,153337.0,A,3327.569537,N,11739.413208,W,56.4,303.2,070810,,,A*48
$GPRMC,153340.0,A,3327.593944,N,11739.461443,W,56.6,299.1,070810,,,A*4A
$GPRMC,153343.0,A,3327.615536,N,11739.512212,W,57.3,295.9,070810,,,A*4A
$GPRMC,153346.0,A,3327.636707,N,11739.563589,W,57.5,296.4,070810,,,A*45
$GPRMC,153349.0,A,3327.658674,N,11739.614721,W,57.3,298.4,070810,,,A*4C
$GPRMC,153352.0,A,3327.684121,N,11739.662568,W,56.3,306.7,070810,,,A*4A
$GPRMC,153355.0,A,3327.713522,N,11739.705854,W,56.0,309.8,070810,,,A*44
$GPRMC,153358.0,A,3327.743455,N,11739.749456,W,56.4,309.3,070810,,,A*44
$GPRMC,153401.0,A,3327.773436,N,11739.792898,W,56.5,309.3,070810,,,A*40
$GPRMC,153404.0,A,3327.803531,N,11739.836476,W,56.5,309.6,070810,,,A*43
$GPRMC,153407.0,A,3327.833658,N,11739.880109,W,56.5,309.2,070810,,,A*4B
$GPRMC,153410.0,A,3327.863513,N,11739.923887,W,56.7,309.2,070810,,,A*41
$GPRMC,153413.0,A,3327.893532,N,11739.967847,W,56.8,309.2,070810,,,A*4D
$GPRMC,153416.0,A,3327.923772,N,11740.011822,W,57.2,309.4,070810,,,A*4C
$GPRMC,153419.0,A,3327.954186,N,11740.056028,W,57.6,309.1,070810,,,A*4E
$GPRMC,153422.0,A,3327.984049,N,11740.100400,W,56.7,307.8,070810,,,A*42
$GPRMC,153425.0,A,3328.011858,N,11740.146422,W,57.5,303.1,070810,,,A*4B
$GPRMC,153428.0,A,3328.034914,N,11740.196165,W,57.0,296.9,070810,,,A*43
$GPRMC,153431.0,A,3328.056642,N,11740.246829,W,57.5,298.0,070810,,,A*4E
$GPRMC,153434.0,A,3328.079950,N,11740.296693,W,56.8,301.1,070810,,,A*44
$GPRMC,153437.0,A,3328.107271,N,11740.342397,W,56.5,309.7,070810,,,A*4D
$GPRMC,153440.0,A,3328.140405,N,11740.382570,W,56.9,318.1,070810,,,A*42
$GPRMC,153443.0,A,3328.177837,N,11740.417065,W,56.6,326.2,070810,,,A*43
$GPRMC,153446.0,A,3328.219566,N,11740.443956,W,56.8,335.4,070810,,,A*46
$GPRMC,153449.0,A,3328.264278,N,11740.463117,W,56.7,343.4,070810,,,A*4A
$GPRMC,153452.0,A,3328.310750,N,11740.474729,W,56.4,351.2,070810,,,A*46
$GPRMC,153455.0,A,3328.357662,N,11740.480477,W,56.7,356.2,070810,,,A*45
$GPRMC,153458.0,A,3328.405152,N,11740.480593,W,56.8,1.9,070810,,,A*42
$GPRMC,153501.0,A,3328.452589,N,11740.475614,W,56.8,6.4,070810,,,A*43
$GPRMC,153504.0,A,3328.499574,N,11740.466270,W,57.0,11.7,070810,,,A*7B
$GPRMC,153507.0,A,3328.545478,N,11740.451233,W,56.8,17.2,070810,,,A*7C
$GPRMC,153510.0,A,3328.590011,N,11740.431624,W,56.7,21.9,070810,,,A*7C
$GPRMC,153513.0,A,3328.632610,N,11740.406946,W,56.8,27.7,070810,,,A*7B
$GPRMC,153516.0,A,3328.672976,N,11740.377471,W,56.6,33.4,070810,,,A*75
$GPRMC,153519.0,A,3328.711482,N,11740.344741,W,56.5,35.9,070810,,,A*70
$GPRMC,153522.0,A,3328.749688,N,11740.311644,W,56.6,35.6,070810,,,A*75
$GPRMC,153525.0,A,3328.787877,N,11740.278165,W,56.7,36.1,070810,,,A*71
$GPRMC,153528.0,A,3328.825993,N,11740.244701,W,56.5,35.8,070810,,,A*73
$GPRMC,153531.0,A,3328.864323,N,11740.211509,W,56.5,35.8,070810,,,A*75
$GPRMC,153534.0,A,3328.902718,N,11740.178040,W,56.6,35.8,070810,,,A*7A
$GPRMC,153537.0,A,3328.941012,N,11740.144586,W,56.6,35.8,070810,,,A*73
$GPRMC,153540.0,A,3328.979409,N,11740.111203,W,56.7,36.0,070810,,,A*76
$GPRMC,153543.0,A,3329.017744,N,11740.077829,W,56.8,35.9,070810,,,A*79
$GPRMC,153546.0,A,3329.056152,N,11740.044325,W,56.8,35.7,070810,,,A*71
$GPRMC,153549.0,A,3329.094612,N,11740.011012,W,56.6,35.5,070810,,,A*78
$GPRMC,153552.0,A,3329.133658,N,11739.978448,W,56.6,34.0,070810,,,A*77
$GPRMC,153555.0,A,3329.173469,N,11739.947343,W,56.6,32.5,070810,,,A*77
$GPRMC,153558.0,A,3329.213556,N,11739.917138,W,56.7,32.2,070810,,,A*7F
$GPRMC,153601.0,A,3329.253701,N,11739.887064,W,56.7,32.3,070810,,,A*75
$GPRMC,153604.0,A,3329.293676,N,11739.856653,W,56.6,32.4,070810,,,A*75
$GPRMC,153607.0,A,3329.333690,N,11739.826136,W,56.5,32.5,070810,,,A*74
$GPRMC,153610.0,A,3329.373654,N,11739.795946,W,56.6,32.2,070810,,,A*72
$GPRMC,153613.0,A,3329.413814,N,11739.765469,W,56.7,32.5,070810,,,A*73
$GPRMC,153616.0,A,3329.454000,N,11739.735139,W,56.7,31.9,070810,,,A*72
$GPRMC,153619.0,A,3329.494318,N,11739.704858,W,56.9,32.5,070810,,,A*76
$GPRMC,153622.0,A,3329.534554,N,11739.674452,W,56.8,32.3,070810,,,A*7C
$GPRMC,153625.0,A,3329.574794,N,11739.644337,W,56.7,31.2,070810,,,A*7B
$GPRMC,153628.0,A,3329.616297,N,11739.616662,W,56.9,27.8,070810,,,A*76
$GPRMC,153631.0,A,3329.658960,N,11739.591622,W,56.7,25.3,070810,,,A*78
$GPRMC,153634.0,A,3329.702336,N,11739.568704,W,56.6,22.6,070810,,,A*7A
$GPRMC,153637.0,A,3329.746364,N,11739.548653,W,56.5,19.7,070810,,,A*75
$GPRMC,153640.0,A,3329.791181,N,11739.531403,W,56.5,16.3,070810,,,A*74
$GPRMC,153643.0,A,3329.836873,N,11739.517085,W,56.6,13.4,070810,,,A*7E
$GPRMC,153646.0,A,3329.883109,N,11739.505261,W,56.6,10.7,070810,,,A*7A
$GPRMC,153649.0,A,3329.929872,N,11739.496506,W,56.7,7.0,070810,,,A*4C
$GPRMC,153652.0,A,3329.976847,N,11739.491145,W,56.6,4.8,070810,,,A*44
$GPRMC,153655.0,A,3330.023799,N,11739.488389,W,56.4,1.6,070810,,,A*4D
$GPRMC,153658.0,A,3330.070882,N,11739.488509,W,56.4,358.6,070810,,,A*42
$GPRMC,153701.0,A,3330.118002,N,11739.491436,W,56.5,355.8,070810,,,A*47
$GPRMC,153704.0,A,3330.164889,N,11739.497190,W,56.5,352.8,070810,,,A*4A
$GPRMC,153707.0,A,3330.211439,N,11739.506167,W,56.5,349.8,070810,,,A*44
$GPRMC,153710.0,A,3330.257687,N,11739.517658,W,56.5,347.5,070810,,,A*4F
$GPRMC,153713.0,A,3330.303479,N,11739.532162,W,56.4,344.2,070810,,,A*43
$GPRMC,153716.0,A,3330.348666,N,11739.549724,W,56.4,341.1,070810,,,A*4B
$GPRMC,153719.0,A,3330.393491,N,11739.568956,W,56.5,340.3,070810,,,A*42
$GPRMC,153722.0,A,3330.437976,N,11739.588162,W,56.4,340.4,070810,,,A*40
$GPRMC,153725.0,A,3330.482296,N,11739.607750,W,56.4,340.2,070810,,,A*49
$GPRMC,153728.0,A,3330.526821,N,11739.627369,W,56.4,340.6,070810,,,A*45
$GPRMC,153731.0,A,3330.571520,N,11739.646203,W,56.4,341.0,070810,,,A*4E
$GPRMC,153734.0,A,3330.616031,N,11739.664881,W,56.4,340.6,070810,,,A*4B
$GPRMC,153737.0,A,3330.660674,N,11739.684083,W,56.5,340.4,070810,,,A*49
$GPRMC,153740.0,A,3330.705232,N,11739.703344,W,56.4,340.6,070810,,,A*48
$GPRMC,153743.0,A,3330.749841,N,11739.722354,W,56.5,340.6,070810,,,A*4E
$GPRMC,153746.0,A,3330.794417,N,11739.741521,W,56.6,340.5,070810,,,A*45
$GPRMC,153749.0,A,3330.839025,N,11739.760792,W,56.7,340.4,070810,,,A*4E
$GPRMC,153752.0,A,3330.883568,N,11739.779963,W,56.7,340.6,070810,,,A*43
$GPRMC,153755.0,A,3330.928303,N,11739.799149,W,56.7,340.4,070810,,,A*43
$GPRMC,153758.0,A,3330.973150,N,11739.818275,W,56.8,340.3,070810,,,A*46
$GPRMC,153801.0,A,3331.017743,N,11739.837617,W,56.9,340.3,070810,,,A*47
$GPRMC,153804.0,A,3331.062437,N,11739.856793,W,56.8,340.2,070810,,,A*4A
$GPRMC,153807.0,A,3331.107061,N,11739.876040,W,56.7,340.2,070810,,,A*48
$GPRMC,153810.0,A,3331.151606,N,11739.895593,W,56.6,340.2,070810,,,A*4D
$GPRMC,153813.0,A,3331.196328,N,11739.914714,W,56.6,340.2,070810,,,A*49
$GPRMC,153816.0,A,3331.241007,N,11739.933719,W,56.7,340.9,070810,,,A*49
$GPRMC,153819.0,A,3331.285709,N,11739.952408,W,56.7,340.6,070810,,,A*4C
$GPRMC,153822.0,A,3331.330284,N,11739.971579,W,56.7,339.8,070810,,,A*4D
$GPRMC,153825.0,A,3331.374953,N,11739.990931,W,56.8,340.4,070810,,,A*49
$GPRMC,153828.0,A,3331.419547,N,11740.010026,W,56.7,340.2,070810,,,A*48
$GPRMC,153831.0,A,3331.464049,N,11740.029102,W,56.6,340.1,070810,,,A*4E
$GPRMC,153834.0,A,3331.507901,N,11740.050104,W,56.8,336.0,070810,,,A*4C
$GPRMC,153837.0,A,3331.550053,N,11740.075958,W,56.8,330.4,070810,,,A*47
$GPRMC,153840.0,A,3331.590014,N,11740.106797,W,56.8,324.8,070810,,,A*49
$GPRMC,153843.0,A,3331.627200,N,11740.141835,W,56.8,319.6,070810,,,A*46
$GPRMC,153846.0,A,3331.661642,N,11740.180710,W,56.5,314.3,070810,,,A*43
$GPRMC,153849.0,A,3331.692782,N,11740.223061,W,56.3,309.3,070810,,,A*4C
$GPRMC,153852.0,A,3331.722474,N,11740.266764,W,56.1,309.5,070810,,,A*41
$GPRMC,153855.0,A,3331.752348,N,11740.310156,W,56.4,309.4,070810,,,A*4A
$GPRMC,153858.0,A,3331.782995,N,11740.353170,W,56.6,312.6,070810,,,A*49
$GPRMC,153901.0,A,3331.816874,N,11740.392352,W,56.6,320.1,070810,,,A*41
$GPRMC,153904.0,A,3331.855005,N,11740.425388,W,56.5,327.3,070810,,,A*47
$GPRMC,153907.0,A,3331.896531,N,11740.451831,W,56.4,336.3,070810,,,A*42
$GPRMC,153910.0,A,3331.941114,N,11740.470721,W,56.6,343.9,070810,,,A*4B
$GPRMC,153913.0,A,3331.987535,N,11740.482142,W,56.8,352.0,070810,,,A*4C
$GPRMC,153916.0,A,3332.035086,N,11740.486100,W,57.1,358.8,070810,,,A*4F
$GPRMC,153919.0,A,3332.082913,N,11740.485632,W,57.2,0.7,070810,,,A*4E
$GPRMC,153922.0,A,3332.130780,N,11740.483616,W,57.2,2.8,070810,,,A*47
$GPRMC,153925.0,A,3332.178472,N,11740.479703,W,56.9,4.3,070810,,,A*45
$GPRMC,153928.0,A,3332.225763,N,11740.474106,W,56.6,6.2,070810,,,A*42
$GPRMC,153931.0,A,3332.272622,N,11740.467014,W,56.4,7.5,070810,,,A*48
$GPRMC,153934.0,A,3332.319207,N,11740.458661,W,56.4,9.5,070810,,,A*44
$GPRMC,153937.0,A,3332.365546,N,11740.448392,W,56.4,10.4,070810,,,A*7F
$GPRMC,153940.0,A,3332.411927,N,11740.437881,W,56.4,10.5,070810,,,A*70
$GPRMC,153943.0,A,3332.458406,N,11740.427450,W,56.5,10.1,070810,,,A*74
$GPRMC,153946.0,A,3332.505024,N,11740.418342,W,56.8,8.1,070810,,,A*40
$GPRMC,153949.0,A,3332.552044,N,11740.412297,W,56.7,5.2,070810,,,A*49
$GPRMC,153952.0,A,3332.599056,N,11740.406584,W,56.7,6.8,070810,,,A*4E
$GPRMC,153955.0,A,3332.645898,N,11740.398115,W,56.5,9.6,070810,,,A*4E
$GPRMC,153958.0,A,3332.692485,N,11740.388198,W,56.5,9.7,070810,,,A*4C
$GPRMC,154001.0,A,3332.739299,N,11740.379241,W,56.8,8.4,070810,,,A*43
$GPRMC,154004.0,A,3332.786324,N,11740.371672,W,56.7,6.8,070810,,,A*44
$GPRMC,154007.0,A,3332.833412,N,11740.365511,W,56.5,5.5,070810,,,A*4B
$GPRMC,154010.0,A,3332.880543,N,11740.361071,W,56.6,3.6,070810,,,A*41
$GPRMC,154013.0,A,3332.927907,N,11740.358269,W,56.6,2.0,070810,,,A*44
$GPRMC,154016.0,A,3332.975209,N,11740.357233,W,56.7,0.5,070810,,,A*45
$GPRMC,154019.0,A,3333.022362,N,11740.357445,W,56.7,359.3,070810,,,A*42
$GPRMC,154022.0,A,3333.069772,N,11740.358405,W,56.8,359.0,070810,,,A*47
$GPRMC,154025.0,A,3333.117048,N,11740.359366,W,56.6,358.9,070810,,,A*43
$GPRMC,154028.0,A,3333.164377,N,11740.360512,W,56.7,358.9,070810,,,A*4B
$GPRMC,154031.0,A,3333.211691,N,11740.361694,W,56.6,358.8,070810,,,A*43
$GPRMC,154034.0,A,3333.258907,N,11740.362871,W,56.8,358.8,070810,,,A*43
$GPRMC,154037.0,A,3333.306365,N,11740.364078,W,56.7,358.8,070810,,,A*4C
$GPRMC,154040.0,A,3333.353659,N,11740.365320,W,56.7,359.0,070810,,,A*40
$GPRMC,154043.0,A,3333.400978,N,11740.366336,W,56.6,359.0,070810,,,A*4B
$GPRMC,154046.0,A,3333.448199,N,11740.367397,W,56.7,359.0,070810,,,A*4E
$GPRMC,154049.0,A,3333.495529,N,11740.368584,W,56.6,358.9,070810,,,A*4C
$GPRMC,154052.0,A,3333.542820,N,11740.369514,W,56.7,359.5,070810,,,A*4D
$GPRMC,154055.0,A,3333.590341,N,11740.368715,W,56.8,2.1,070810,,,A*4D
$GPRMC,154058.0,A,3333.637589,N,11740.365828,W,56.6,3.2,070810,,,A*4C
$GPRMC,154101.0,A,3333.684745,N,11740.361629,W,56.7,4.9,070810,,,A*4D
$GPRMC,154104.0,A,3333.731813,N,11740.356112,W,56.7,6.1,070810,,,A*4A
$GPRMC,154107.0,A,3333.778916,N,11740.349936,W,56.7,6.2,070810,,,A*43
$GPRMC,154110.0,A,3333.826192,N,11740.343700,W,56.8,6.3,070810,,,A*4A
$GPRMC,154113.0,A,3333.873164,N,11740.337242,W,56.7,6.4,070810,,,A*48
$GPRMC,154116.0,A,3333.920252,N,11740.331016,W,56.6,6.2,070810,,,A*4E
$GPRMC,154119.0,A,3333.967202,N,11740.325077,W,56.7,6.0,070810,,,A*46
$GPRMC,154122.0,A,3334.014247,N,11740.318851,W,56.6,6.2,070810,,,A*44
$GPRMC,154125.0,A,3334.061169,N,11740.312720,W,56.5,6.0,070810,,,A*4C
$GPRMC,154128.0,A,3334.108179,N,11740.307676,W,56.6,4.7,070810,,,A*4E
$GPRMC,154131.0,A,3334.155304,N,11740.303809,W,56.6,3.2,070810,,,A*46
$GPRMC,154134.0,A,3334.201686,N,11740.301631,W,54.6,1.6,070810,,,A*4D
$GPRMC,154137.0,A,3334.246098,N,11740.300510,W,52.4,0.9,070810,,,A*4F
$GPRMC,154140.0,A,3334.288644,N,11740.299650,W,50.2,1.0,070810,,,A*40
$GPRMC,154143.0,A,3334.330137,N,11740.298845,W,49.8,0.9,070810,,,A*43
$GPRMC,154146.0,A,3334.371809,N,11740.298377,W,50.1,0.8,070810,,,A*4D
$GPRMC,154149.0,A,3334.413641,N,11740.297799,W,50.1,0.7,070810,,,A*47
$GPRMC,154152.0,A,3334.455383,N,11740.297180,W,50.2,1.2,070810,,,A*4D
$GPRMC,154155.0,A,3334.497286,N,11740.296436,W,50.1,0.6,070810,,,A*4F
$GPRMC,154158.0,A,3334.539131,N,11740.295817,W,50.0,0.6,070810,,,A*45
$GPRMC,154201.0,A,3334.580988,N,11740.295330,W,50.2,0.5,070810,,,A*4D
$GPRMC,154204.0,A,3334.622904,N,11740.295028,W,50.1,0.4,070810,,,A*4F
$GPRMC,154207.0,A,3334.664776,N,11740.294515,W,50.7,0.8,070810,,,A*45
$GPRMC,154210.0,A,3334.707999,N,11740.293947,W,52.8,0.7,070810,,,A*46
