NMEA Sentence Code,UTC Time,Status,Latitude,Latitude Direction,Longitude,Longitude Direction,Speed (knots),Track Angle (degrees true),Date,MagneticVariation,Magnetic Variation Direction,[FAA Mode]-Optional,Checksum
$GPRMC,200802.9,A,3243.331162,N,11709.833097,W,4.7,305.6,240410,,,A*77
$GPRMC,200805.9,A,3243.345047,N,11709.831137,W,10.5,353.7,240410,,,A*49
$GPRMC,200808.9,A,3243.355871,N,11709.830840,W,12.3,16.7,240410,,,A*76
$GPRMC,200811.9,A,3243.362586,N,11709.816448,W,17.6,57.9,240410,,,A*74
$GPRMC,200814.9,A,3243.364762,N,11709.795131,W,23.6,83.6,240410,,,A*71
$GPRMC,200817.2,A,3243.362489,N,11709.768777,W,31.0,90.1,240410,,,A*7F
$GPRMC,200820.9,A,3243.350989,N,11709.720869,W,38.3,97.9,240410,,,A*75
$GPRMC,200823.2,A,3243.349594,N,11709.690049,W,39.8,90.2,240410,,,A*73
$GPRMC,200826.9,A,3243.349727,N,11709.640947,W,41.1,88.7,240410,,,A*77
$GPRMC,200830.2,A,3243.357352,N,11709.594265,W,44.2,79.6,240410,,,A*7A
$GPRMC,200833.9,A,3243.376675,N,11709.543975,W,44.6,71.2,240410,,,A*79
$GPRMC,200836.9,A,3243.393908,N,11709.500308,W,47.1,66.9,240410,,,A*7C
$GPRMC,200839.9,A,3243.409994,N,11709.455978,W,48.6,66.4,240410,,,A*7B
$GPRMC,200842.9,A,3243.426206,N,11709.409026,W,50.7,70.6,240410,,,A*7C
$GPRMC,200845.9,A,3243.434747,N,11709.360976,W,49.7,81.5,240410,,,A*79
$GPRMC,200848.9,A,3243.440255,N,11709.311913,W,50.0,82.5,240410,,,A*78
$GPRMC,200851.9,A,3243.445473,N,11709.262935,W,50.4,82.0,240410,,,A*77
$GPRMC,200854.9,A,3243.448138,N,11709.212495,W,49.5,83.9,240410,,,A*74
$GPRMC,200857.9,A,3243.450535,N,11709.162581,W,52.2,89.0,240410,,,A*79
$GPRMC,200900.9,A,3243.445170,N,11709.111183,W,50.8,99.3,240410,,,A*73
$GPRMC,200903.9,A,3243.426866,N,11709.062097,W,51.8,109.2,240410,,,A*42
$GPRMC,200906.9,A,3243.400800,N,11709.016424,W,55.7,125.9,240410,,,A*42
$GPRMC,200909.9,A,3243.359394,N,11708.980672,W,58.6,143.4,240410,,,A*47
$GPRMC,200912.9,A,3243.312649,N,11708.956889,W,60.0,156.4,240410,,,A*4F
$GPRMC,200915.9,A,3243.264983,N,11708.935815,W,60.6,161.1,240410,,,A*46
$GPRMC,200918.9,A,3243.216256,N,11708.921512,W,60.5,165.1,240410,,,A*45
$GPRMC,200921.9,A,3243.168418,N,11708.907070,W,57.0,166.0,240410,,,A*4F
$GPRMC,200924.9,A,3243.123043,N,11708.896985,W,54.0,169.7,240410,,,A*4E
$GPRMC,200927.9,A,3243.081619,N,11708.893919,W,51.8,176.2,240410,,,A*4B
$GPRMC,200930.9,A,3243.040504,N,11708.896471,W,49.8,182.2,240410,,,A*4B
$GPRMC,200933.2,A,3243.010258,N,11708.899523,W,47.3,184.6,240410,,,A*46
$GPRMC,200936.2,A,3242.970960,N,11708.903074,W,46.9,185.0,240410,,,A*44
$GPRMC,200939.2,A,3242.931803,N,11708.903879,W,47.1,176.5,240410,,,A*4F
$GPRMC,200942.2,A,3242.893033,N,11708.894342,W,48.1,161.1,240410,,,A*40
$GPRMC,200945.2,A,3242.856993,N,11708.872132,W,48.2,145.1,240410,,,A*45
$GPRMC,200948.9,A,3242.821391,N,11708.832105,W,47.8,131.5,240410,,,A*49
$GPRMC,200951.9,A,3242.799340,N,11708.792467,W,47.7,123.2,240410,,,A*4E
$GPRMC,200954.9,A,3242.788150,N,11708.742734,W,50.9,107.6,240410,,,A*4A
$GPRMC,200957.9,A,3242.788696,N,11708.693570,W,50.7,96.9,240410,,,A*73
$GPRMC,201000.9,A,3242.786116,N,11708.641892,W,51.6,92.9,240410,,,A*72
$GPRMC,201003.9,A,3242.782605,N,11708.590606,W,53.4,92.8,240410,,,A*7D
$GPRMC,201006.9,A,3242.783390,N,11708.536967,W,55.9,91.3,240410,,,A*77
$GPRMC,201009.9,A,3242.782568,N,11708.479044,W,58.3,89.8,240410,,,A*7F
$GPRMC,201012.9,A,3242.782290,N,11708.421686,W,58.5,89.8,240410,,,A*76
$GPRMC,201015.9,A,3242.785933,N,11708.365718,W,56.3,88.5,240410,,,A*71
$GPRMC,201018.9,A,3242.787240,N,11708.309435,W,57.5,87.6,240410,,,A*7C
$GPRMC,201021.9,A,3242.786865,N,11708.251495,W,58.5,89.6,240410,,,A*7D
$GPRMC,201024.9,A,3242.787309,N,11708.192912,W,60.5,89.2,240410,,,A*79
$GPRMC,201027.9,A,3242.788272,N,11708.132807,W,60.0,89.7,240410,,,A*77
$GPRMC,201030.9,A,3242.790706,N,11708.071452,W,62.1,88.0,240410,,,A*71
$GPRMC,201033.9,A,3242.793537,N,11708.009457,W,64.0,87.4,240410,,,A*77
$GPRMC,201036.9,A,3242.795729,N,11707.944158,W,66.2,87.4,240410,,,A*7C
$GPRMC,201039.9,A,3242.802232,N,11707.880184,W,65.3,83.1,240410,,,A*76
$GPRMC,201042.9,A,3242.811997,N,11707.816228,W,66.0,80.9,240410,,,A*7D
$GPRMC,201045.9,A,3242.826929,N,11707.751844,W,67.1,74.3,240410,,,A*76
$GPRMC,201048.9,A,3242.843722,N,11707.688088,W,68.6,72.5,240410,,,A*78
$GPRMC,201051.9,A,3242.864890,N,11707.621544,W,71.6,70.4,240410,,,A*7E
$GPRMC,201054.9,A,3242.885466,N,11707.554899,W,71.4,70.4,240410,,,A*7F
$GPRMC,201057.9,A,3242.904562,N,11707.484432,W,74.6,70.7,240410,,,A*74
$GPRMC,201100.9,A,3242.924951,N,11707.415897,W,74.9,71.9,240410,,,A*72
$GPRMC,201103.9,A,3242.940873,N,11707.343193,W,74.7,76.0,240410,,,A*7B
$GPRMC,201106.9,A,3242.953285,N,11707.270328,W,74.6,78.7,240410,,,A*74
$GPRMC,201109.9,A,3242.966050,N,11707.201400,W,72.3,78.3,240410,,,A*7B
$GPRMC,201112.9,A,3242.982215,N,11707.132678,W,69.1,74.6,240410,,,A*77
$GPRMC,201115.9,A,3242.994503,N,11707.076109,W,54.1,73.5,240410,,,A*7D
$GPRMC,201118.9,A,3243.009514,N,11707.037680,W,39.7,62.0,240410,,,A*71
$GPRMC,201121.9,A,3243.028762,N,11707.013842,W,33.9,44.1,240410,,,A*7C
$GPRMC,201124.9,A,3243.053632,N,11707.008526,W,32.0,8.1,240410,,,A*44
$GPRMC,201127.9,A,3243.079735,N,11707.012504,W,30.9,350.3,240410,,,A*45
$GPRMC,201130.9,A,3243.113352,N,11707.028989,W,41.2,333.6,240410,,,A*46
$GPRMC,201133.9,A,3243.143741,N,11707.049616,W,40.9,336.2,240410,,,A*43
$GPRMC,201136.9,A,3243.182622,N,11707.050430,W,43.3,1.0,240410,,,A*4D
$GPRMC,201139.9,A,3243.227388,N,11707.035200,W,52.1,15.6,240410,,,A*7C
$GPRMC,201142.9,A,3243.271010,N,11707.012776,W,57.3,23.9,240410,,,A*7D
$GPRMC,201145.9,A,3243.314735,N,11706.984250,W,58.7,30.3,240410,,,A*7D
$GPRMC,201148.9,A,3243.359366,N,11706.949474,W,63.0,32.2,240410,,,A*76
$GPRMC,201151.9,A,3243.408856,N,11706.916453,W,66.6,31.8,240410,,,A*70
$GPRMC,201154.9,A,3243.458244,N,11706.881920,W,67.8,30.7,240410,,,A*7E
$GPRMC,201157.9,A,3243.509471,N,11706.848201,W,70.1,30.6,240410,,,A*7B
$GPRMC,201200.9,A,3243.561653,N,11706.809040,W,75.3,31.2,240410,,,A*76
$GPRMC,201203.9,A,3243.614351,N,11706.771729,W,73.1,31.7,240410,,,A*7A
$GPRMC,201206.9,A,3243.671160,N,11706.737565,W,75.1,24.7,240410,,,A*76
$GPRMC,201209.9,A,3243.731915,N,11706.711338,W,75.7,19.2,240410,,,A*71
$GPRMC,201212.9,A,3243.797383,N,11706.695094,W,78.3,10.6,240410,,,A*7E
$GPRMC,201215.9,A,3243.862074,N,11706.691960,W,78.2,3.3,240410,,,A*47
$GPRMC,201219.2,A,3243.936925,N,11706.693734,W,81.6,356.8,240410,,,A*4A
$GPRMC,201222.9,A,3244.012607,N,11706.708274,W,73.7,349.7,240410,,,A*41
$GPRMC,201225.9,A,3244.070206,N,11706.728614,W,74.7,343.4,240410,,,A*49
$GPRMC,201228.9,A,3244.131176,N,11706.750167,W,75.8,343.0,240410,,,A*42
$GPRMC,201231.9,A,3244.191386,N,11706.768748,W,72.4,343.8,240410,,,A*4E
$GPRMC,201234.9,A,3244.243219,N,11706.788605,W,65.6,344.3,240410,,,A*4E
$GPRMC,201237.9,A,3244.293228,N,11706.799892,W,59.3,352.1,240410,,,A*4D
$GPRMC,201240.9,A,3244.340247,N,11706.800609,W,56.6,358.6,240410,,,A*4F
$GPRMC,201243.2,A,3244.377335,N,11706.799341,W,57.5,2.0,240410,,,A*49
$GPRMC,201246.9,A,3244.439517,N,11706.780443,W,62.7,17.9,240410,,,A*78
$GPRMC,201249.9,A,3244.488819,N,11706.753402,W,66.3,25.5,240410,,,A*78
$GPRMC,201252.9,A,3244.533393,N,11706.719494,W,65.8,33.8,240410,,,A*79
$GPRMC,201255.9,A,3244.580042,N,11706.676593,W,70.3,37.4,240410,,,A*70
$GPRMC,201258.9,A,3244.620453,N,11706.632394,W,68.7,37.9,240410,,,A*71
$GPRMC,201301.9,A,3244.665271,N,11706.590179,W,67.5,36.5,240410,,,A*71
$GPRMC,201304.9,A,3244.714439,N,11706.555291,W,65.5,28.7,240410,,,A*7A
$GPRMC,201307.9,A,3244.771207,N,11706.534199,W,69.1,17.2,240410,,,A*7C
$GPRMC,201310.9,A,3244.827686,N,11706.520258,W,69.7,13.1,240410,,,A*71
$GPRMC,201313.9,A,3244.891462,N,11706.521938,W,73.2,1.9,240410,,,A*4E
$GPRMC,201316.9,A,3244.958525,N,11706.524788,W,75.2,0.8,240410,,,A*4B
$GPRMC,201319.2,A,3245.006819,N,11706.524593,W,74.5,0.4,240410,,,A*4C
$GPRMC,201322.9,A,3245.075311,N,11706.522785,W,66.7,359.8,240410,,,A*49
$GPRMC,201325.2,A,3245.117831,N,11706.521577,W,66.5,1.1,240410,,,A*40
$GPRMC,201331.2,A,3245.235692,N,11706.522140,W,71.3,0.6,240410,,,A*44
$GPRMC,201332.0,A,3245.248120,N,11706.520880,W,71.4,0.6,240410,,,A*41
$GPRMC,201336.2,A,3245.330764,N,11706.517544,W,67.9,1.2,240410,,,A*41
$GPRMC,201339.9,A,3245.410355,N,11706.521439,W,73.8,358.7,240410,,,A*46
$GPRMC,201342.2,A,3245.457910,N,11706.522831,W,72.6,359.0,240410,,,A*47
$GPRMC,201345.9,A,3245.535081,N,11706.523243,W,76.1,0.8,240410,,,A*45
$GPRMC,201348.9,A,3245.600080,N,11706.525499,W,75.5,359.0,240410,,,A*4B
$GPRMC,201351.9,A,3245.662614,N,11706.529641,W,75.3,356.6,240410,,,A*48
$GPRMC,201354.9,A,3245.724539,N,11706.534134,W,74.7,355.4,240410,,,A*4F
$GPRMC,201357.9,A,3245.783184,N,11706.541009,W,71.3,354.0,240410,,,A*4A
$GPRMC,201400.9,A,3245.843795,N,11706.549684,W,72.9,351.7,240410,,,A*4A
$GPRMC,201403.9,A,3245.901990,N,11706.567584,W,71.5,344.9,240410,,,A*4F
$GPRMC,201406.9,A,3245.955132,N,11706.591998,W,70.4,339.0,240410,,,A*40
$GPRMC,201409.9,A,3246.007048,N,11706.628961,W,72.9,330.6,240410,,,A*49
$GPRMC,201412.9,A,3246.060552,N,11706.664878,W,72.2,331.0,240410,,,A*41
$GPRMC,201415.9,A,3246.115997,N,11706.697208,W,72.8,334.1,240410,,,A*4F
$GPRMC,201418.9,A,3246.172536,N,11706.721562,W,71.5,341.6,240410,,,A*48
$GPRMC,201421.9,A,3246.228147,N,11706.737365,W,70.9,347.3,240410,,,A*44
$GPRMC,201424.9,A,3246.286942,N,11706.746559,W,70.7,353.9,240410,,,A*46
$GPRMC,201428.2,A,3246.353011,N,11706.744777,W,71.5,3.4,240410,,,A*43
$GPRMC,201431.9,A,3246.428218,N,11706.729631,W,74.1,11.2,240410,,,A*7C
$GPRMC,201434.9,A,3246.489458,N,11706.700138,W,73.6,17.4,240410,,,A*75
$GPRMC,201437.9,A,3246.542911,N,11706.674095,W,71.2,18.5,240410,,,A*7C
$GPRMC,201440.9,A,3246.602265,N,11706.651911,W,69.9,16.3,240410,,,A*7B
$GPRMC,201443.9,A,3246.652315,N,11706.624284,W,67.1,24.7,240410,,,A*7D
$GPRMC,201446.9,A,3246.685462,N,11706.583060,W,63.5,37.8,240410,,,A*7E
$GPRMC,201449.9,A,3246.706046,N,11706.524059,W,65.5,56.4,240410,,,A*73
$GPRMC,201452.9,A,3246.712203,N,11706.454507,W,68.9,75.3,240410,,,A*70
$GPRMC,201455.9,A,3246.704912,N,11706.377158,W,73.8,85.8,240410,,,A*7C
$GPRMC,201458.9,A,3246.710338,N,11706.303915,W,74.7,85.3,240410,,,A*77
$GPRMC,201501.9,A,3246.714281,N,11706.230816,W,72.9,84.8,240410,,,A*7C
$GPRMC,201504.9,A,3246.722333,N,11706.160427,W,70.7,82.2,240410,,,A*7C
$GPRMC,201507.9,A,3246.732390,N,11706.095453,W,66.6,80.3,240410,,,A*7A
$GPRMC,201510.9,A,3246.744819,N,11706.033734,W,64.2,78.3,240410,,,A*78
$GPRMC,201513.9,A,3246.761304,N,11705.975980,W,63.6,72.1,240410,,,A*79
$GPRMC,201516.9,A,3246.773925,N,11705.911763,W,65.5,76.3,240410,,,A*74
$GPRMC,201519.9,A,3246.784434,N,11705.848992,W,64.1,78.6,240410,,,A*7D
$GPRMC,201522.9,A,3246.793319,N,11705.788660,W,62.2,79.2,240410,,,A*7A
$GPRMC,201525.9,A,3246.804546,N,11705.726705,W,62.6,78.1,240410,,,A*70
$GPRMC,201528.9,A,3246.814901,N,11705.663830,W,64.6,78.7,240410,,,A*7A
$GPRMC,201531.9,A,3246.825416,N,11705.599131,W,67.1,79.9,240410,,,A*7E
$GPRMC,201534.9,A,3246.831971,N,11705.531991,W,67.6,82.8,240410,,,A*70
$GPRMC,201537.9,A,3246.837574,N,11705.464165,W,69.0,86.1,240410,,,A*7B
$GPRMC,201540.9,A,3246.838630,N,11705.394857,W,70.7,87.0,240410,,,A*78
$GPRMC,201543.9,A,3246.841870,N,11705.324944,W,71.6,87.7,240410,,,A*70
$GPRMC,201546.9,A,3246.841715,N,11705.253250,W,72.1,89.0,240410,,,A*7B
$GPRMC,201549.9,A,3246.842906,N,11705.180975,W,72.6,91.0,240410,,,A*74
$GPRMC,201552.9,A,3246.841114,N,11705.112075,W,69.7,93.5,240410,,,A*78
$GPRMC,201555.9,A,3246.832350,N,11705.042303,W,69.6,96.4,240410,,,A*7A
$GPRMC,201558.9,A,3246.817238,N,11704.972071,W,70.4,98.9,240410,,,A*7B
$GPRMC,201601.9,A,3246.808935,N,11704.904706,W,69.5,99.9,240410,,,A*72
$GPRMC,201604.9,A,3246.801572,N,11704.838927,W,68.5,99.9,240410,,,A*73
$GPRMC,201607.9,A,3246.793663,N,11704.774101,W,67.4,99.4,240410,,,A*7F
$GPRMC,201610.9,A,3246.787745,N,11704.708029,W,69.5,94.2,240410,,,A*7D
$GPRMC,201613.9,A,3246.779454,N,11704.642408,W,67.9,97.0,240410,,,A*77
$GPRMC,201616.9,A,3246.767365,N,11704.572349,W,68.3,98.1,240410,,,A*71
$GPRMC,201619.9,A,3246.761067,N,11704.503581,W,70.7,97.2,240410,,,A*7C
$GPRMC,201622.9,A,3246.757466,N,11704.433840,W,71.5,95.1,240410,,,A*74
$GPRMC,201625.9,A,3246.754197,N,11704.362506,W,71.5,92.5,240410,,,A*74
$GPRMC,201628.9,A,3246.755408,N,11704.292264,W,70.6,89.6,240410,,,A*7D
$GPRMC,201631.9,A,3246.760422,N,11704.224506,W,70.1,87.7,240410,,,A*7D
$GPRMC,201634.9,A,3246.760194,N,11704.155237,W,68.3,88.6,240410,,,A*75
$GPRMC,201637.9,A,3246.762312,N,11704.087362,W,67.2,88.7,240410,,,A*78
$GPRMC,201640.9,A,3246.765975,N,11704.021870,W,65.6,87.5,240410,,,A*7B
$GPRMC,201643.9,A,3246.767907,N,11703.959978,W,62.4,87.8,240410,,,A*7F
$GPRMC,201646.9,A,3246.768644,N,11703.897700,W,62.3,88.1,240410,,,A*7E
$GPRMC,201649.9,A,3246.765162,N,11703.837451,W,61.5,94.4,240410,,,A*7F
$GPRMC,201652.9,A,3246.753858,N,11703.778617,W,60.4,103.3,240410,,,A*4C
$GPRMC,201655.9,A,3246.741387,N,11703.719945,W,58.9,106.9,240410,,,A*47
$GPRMC,201658.9,A,3246.725676,N,11703.667227,W,57.0,109.3,240410,,,A*47
$GPRMC,201701.9,A,3246.707148,N,11703.614230,W,57.9,109.9,240410,,,A*41
$GPRMC,201704.9,A,3246.689246,N,11703.560526,W,59.5,108.8,240410,,,A*4C
$GPRMC,201707.9,A,3246.675875,N,11703.501515,W,61.5,104.8,240410,,,A*46
$GPRMC,201710.9,A,3246.667373,N,11703.441691,W,62.6,101.2,240410,,,A*4B
$GPRMC,201713.9,A,3246.657347,N,11703.379342,W,64.3,100.5,240410,,,A*4E
$GPRMC,201716.9,A,3246.644191,N,11703.314368,W,66.7,101.6,240410,,,A*47
$GPRMC,201719.9,A,3246.628920,N,11703.250480,W,66.9,103.8,240410,,,A*42
$GPRMC,201722.9,A,3246.621033,N,11703.186418,W,65.6,101.5,240410,,,A*42
$GPRMC,201725.9,A,3246.604289,N,11703.119555,W,71.9,103.1,240410,,,A*43
$GPRMC,201728.9,A,3246.586870,N,11703.056870,W,66.9,109.8,240410,,,A*4E
$GPRMC,201731.9,A,3246.565327,N,11702.995443,W,66.8,112.5,240410,,,A*4F
$GPRMC,201734.9,A,3246.541901,N,11702.935631,W,66.3,115.7,240410,,,A*41
$GPRMC,201737.9,A,3246.515013,N,11702.878527,W,64.5,119.4,240410,,,A*4E
$GPRMC,201740.9,A,3246.485653,N,11702.823182,W,66.0,120.5,240410,,,A*4D
$GPRMC,201743.9,A,3246.455603,N,11702.767968,W,64.9,121.7,240410,,,A*4D
$GPRMC,201746.9,A,3246.426469,N,11702.716407,W,63.8,122.5,240410,,,A*47
$GPRMC,201749.9,A,3246.398962,N,11702.660266,W,66.6,121.6,240410,,,A*46
$GPRMC,201752.9,A,3246.377090,N,11702.602567,W,64.2,113.0,240410,,,A*4A
$GPRMC,201755.9,A,3246.362028,N,11702.543108,W,63.2,106.5,240410,,,A*47
$GPRMC,201758.9,A,3246.355675,N,11702.482029,W,62.7,96.1,240410,,,A*76
$GPRMC,201801.9,A,3246.359007,N,11702.421641,W,63.2,87.9,240410,,,A*77
$GPRMC,201804.9,A,3246.368373,N,11702.359945,W,62.6,77.9,240410,,,A*79
$GPRMC,201807.9,A,3246.383279,N,11702.296693,W,64.9,74.5,240410,,,A*74
$GPRMC,201810.9,A,3246.399477,N,11702.233783,W,66.4,73.3,240410,,,A*70
$GPRMC,201813.9,A,3246.414522,N,11702.170105,W,66.3,74.1,240410,,,A*7E
$GPRMC,201816.9,A,3246.427524,N,11702.107896,W,65.4,74.7,240410,,,A*7C
$GPRMC,201819.9,A,3246.440648,N,11702.046055,W,65.7,78.0,240410,,,A*70
$GPRMC,201822.9,A,3246.443974,N,11701.976925,W,69.8,88.9,240410,,,A*79
$GPRMC,201825.9,A,3246.437233,N,11701.908827,W,67.7,98.6,240410,,,A*70
$GPRMC,201828.9,A,3246.419861,N,11701.849097,W,63.8,109.6,240410,,,A*49
$GPRMC,201831.9,A,3246.398138,N,11701.792852,W,61.3,115.3,240410,,,A*43
$GPRMC,201834.2,A,3246.378656,N,11701.750072,W,62.1,116.8,240410,,,A*41
$GPRMC,201837.2,A,3246.354251,N,11701.694360,W,62.9,116.8,240410,,,A*4E
$GPRMC,201840.2,A,3246.329998,N,11701.641258,W,61.5,118.4,240410,,,A*45
$GPRMC,201843.9,A,3246.297657,N,11701.574429,W,63.3,119.5,240410,,,A*44
$GPRMC,201846.9,A,3246.273518,N,11701.515049,W,65.4,113.8,240410,,,A*40
$GPRMC,201849.9,A,3246.261038,N,11701.457980,W,62.4,105.0,240410,,,A*48
$GPRMC,201852.9,A,3246.252950,N,11701.391869,W,65.4,99.7,240410,,,A*7A
$GPRMC,201855.9,A,3246.256064,N,11701.329030,W,64.8,90.5,240410,,,A*76
$GPRMC,201858.9,A,3246.264137,N,11701.266062,W,65.6,82.1,240410,,,A*78
$GPRMC,201901.9,A,3246.272961,N,11701.199947,W,67.1,79.8,240410,,,A*7C
$GPRMC,201904.9,A,3246.290166,N,11701.137800,W,65.6,71.8,240410,,,A*71
$GPRMC,201907.9,A,3246.322982,N,11701.080141,W,67.7,60.2,240410,,,A*70
$GPRMC,201910.9,A,3246.352198,N,11701.021762,W,68.7,59.4,240410,,,A*7D
$GPRMC,201913.9,A,3246.379946,N,11700.964192,W,65.9,60.3,240410,,,A*72
$GPRMC,201916.9,A,3246.408874,N,11700.908072,W,67.4,58.9,240410,,,A*7D
$GPRMC,201919.9,A,3246.431640,N,11700.845671,W,68.7,65.5,240410,,,A*72
$GPRMC,201922.9,A,3246.452604,N,11700.779318,W,70.7,67.0,240410,,,A*7B
$GPRMC,201925.9,A,3246.476123,N,11700.715191,W,70.8,66.8,240410,,,A*77
$GPRMC,201928.9,A,3246.502233,N,11700.648813,W,73.0,66.2,240410,,,A*71
$GPRMC,201931.9,A,3246.523955,N,11700.579832,W,74.6,67.3,240410,,,A*72
$GPRMC,201934.9,A,3246.548264,N,11700.511853,W,75.2,66.9,240410,,,A*74
$GPRMC,201937.9,A,3246.570996,N,11700.443586,W,74.2,67.7,240410,,,A*77
$GPRMC,201940.9,A,3246.594927,N,11700.373319,W,75.7,67.4,240410,,,A*74
$GPRMC,201943.9,A,3246.621392,N,11700.306153,W,74.8,66.4,240410,,,A*7F
$GPRMC,201946.9,A,3246.648648,N,11700.243124,W,71.0,63.0,240410,,,A*7B
$GPRMC,201949.2,A,3246.672891,N,11700.190722,W,74.9,57.6,240410,,,A*7C
$GPRMC,201952.9,A,3246.713802,N,11700.114267,W,73.0,58.8,240410,,,A*76
$GPRMC,201955.9,A,3246.741465,N,11700.047818,W,74.1,64.9,240410,,,A*76
$GPRMC,201958.9,A,3246.757478,N,11659.979376,W,70.1,73.9,240410,,,A*78
$GPRMC,202001.9,A,3246.761460,N,11659.912209,W,65.5,85.5,240410,,,A*73
$GPRMC,202004.9,A,3246.759235,N,11659.850219,W,61.6,91.2,240410,,,A*78
$GPRMC,202007.2,A,3246.758357,N,11659.805162,W,59.1,90.6,240410,,,A*72
$GPRMC,202010.9,A,3246.754095,N,11659.731571,W,60.1,93.0,240410,,,A*7F
$GPRMC,202013.9,A,3246.754261,N,11659.670902,W,62.6,92.6,240410,,,A*7B
$GPRMC,202016.9,A,3246.750819,N,11659.610057,W,63.6,93.4,240410,,,A*72
$GPRMC,202019.9,A,3246.748347,N,11659.546275,W,64.6,92.6,240410,,,A*72
$GPRMC,202022.9,A,3246.746007,N,11659.482896,W,63.7,92.2,240410,,,A*7F
$GPRMC,202025.9,A,3246.744497,N,11659.420506,W,61.6,91.6,240410,,,A*7F
$GPRMC,202028.9,A,3246.740532,N,11659.359488,W,61.6,93.0,240410,,,A*72
$GPRMC,202031.9,A,3246.739940,N,11659.298665,W,64.0,92.4,240410,,,A*76
$GPRMC,202034.9,A,3246.737822,N,11659.234971,W,64.6,92.9,240410,,,A*7F
$GPRMC,202037.9,A,3246.738809,N,11659.174929,W,62.1,90.1,240410,,,A*7B
$GPRMC,202040.9,A,3246.741557,N,11659.113199,W,62.1,86.2,240410,,,A*75
$GPRMC,202043.9,A,3246.760353,N,11659.054732,W,61.6,72.1,240410,,,A*7E
$GPRMC,202046.9,A,3246.783803,N,11659.000842,W,59.9,63.5,240410,,,A*71
$GPRMC,202049.9,A,3246.818463,N,11658.957944,W,57.9,48.6,240410,,,A*70
$GPRMC,202052.9,A,3246.854609,N,11658.921296,W,56.4,37.8,240410,,,A*73
$GPRMC,202055.9,A,3246.896748,N,11658.893053,W,56.8,29.4,240410,,,A*72
$GPRMC,202058.9,A,3246.945117,N,11658.869039,W,61.5,24.6,240410,,,A*73
$GPRMC,202101.9,A,3246.992108,N,11658.846083,W,58.9,25.6,240410,,,A*71
$GPRMC,202104.9,A,3247.036247,N,11658.819732,W,59.9,26.4,240410,,,A*7D
$GPRMC,202107.9,A,3247.079503,N,11658.788980,W,62.9,30.4,240410,,,A*7D
$GPRMC,202110.9,A,3247.123695,N,11658.753583,W,64.5,33.0,240410,,,A*7D
$GPRMC,202113.9,A,3247.172640,N,11658.718538,W,66.6,30.7,240410,,,A*78
$GPRMC,202116.9,A,3247.221986,N,11658.687837,W,64.6,27.2,240410,,,A*79
$GPRMC,202119.9,A,3247.278258,N,11658.671062,W,65.5,14.7,240410,,,A*74
$GPRMC,202122.9,A,3247.330371,N,11658.665031,W,64.9,6.7,240410,,,A*46
$GPRMC,202125.9,A,3247.385157,N,11658.663896,W,66.5,1.2,240410,,,A*46
$GPRMC,202128.9,A,3247.438889,N,11658.661965,W,65.9,1.3,240410,,,A*41
$GPRMC,202131.9,A,3247.495648,N,11658.661365,W,66.9,2.9,240410,,,A*4D
$GPRMC,202134.9,A,3247.554965,N,11658.651624,W,69.3,7.0,240410,,,A*4E
$GPRMC,202137.9,A,3247.611863,N,11658.641387,W,69.4,8.0,240410,,,A*4D
$GPRMC,202140.9,A,3247.668623,N,11658.630430,W,68.3,8.6,240410,,,A*44
$GPRMC,202143.9,A,3247.723315,N,11658.621627,W,65.5,7.9,240410,,,A*46
$GPRMC,202146.9,A,3247.777793,N,11658.615880,W,65.5,6.3,240410,,,A*47
$GPRMC,202149.9,A,3247.832928,N,11658.608429,W,66.1,7.6,240410,,,A*48
$GPRMC,202152.9,A,3247.888405,N,11658.595598,W,67.2,12.4,240410,,,A*79
$GPRMC,202155.9,A,3247.943139,N,11658.574014,W,69.5,20.5,240410,,,A*75
$GPRMC,202158.9,A,3247.993028,N,11658.543801,W,68.2,29.2,240410,,,A*74
$GPRMC,202201.9,A,3248.040173,N,11658.504740,W,68.1,37.2,240410,,,A*79
$GPRMC,202204.2,A,3248.073903,N,11658.468670,W,74.3,42.3,240410,,,A*7D
$GPRMC,202207.2,A,3248.107903,N,11658.415715,W,72.6,54.8,240410,,,A*7B
$GPRMC,202210.2,A,3248.139701,N,11658.354881,W,73.7,61.1,240410,,,A*73
$GPRMC,202213.2,A,3248.162233,N,11658.286751,W,73.0,70.3,240410,,,A*73
$GPRMC,202216.2,A,3248.174864,N,11658.215329,W,73.5,81.6,240410,,,A*76
$GPRMC,202219.9,A,3248.182595,N,11658.126899,W,74.1,85.6,240410,,,A*7C
$GPRMC,202222.9,A,3248.184185,N,11658.051951,W,75.2,88.1,240410,,,A*7B
$GPRMC,202225.9,A,3248.182612,N,11657.975298,W,76.6,91.0,240410,,,A*73
$GPRMC,202228.9,A,3248.185494,N,11657.901616,W,75.4,89.1,240410,,,A*7D
$GPRMC,202231.9,A,3248.183332,N,11657.828365,W,73.3,89.7,240410,,,A*74
$GPRMC,202234.9,A,3248.180881,N,11657.756697,W,72.0,91.5,240410,,,A*76
$GPRMC,202237.9,A,3248.180983,N,11657.685280,W,72.5,90.8,240410,,,A*72
$GPRMC,202240.9,A,3248.181209,N,11657.614308,W,73.2,89.9,240410,,,A*7C
$GPRMC,202243.9,A,3248.182889,N,11657.541690,W,73.9,90.0,240410,,,A*73
$GPRMC,202246.9,A,3248.184193,N,11657.468759,W,74.2,90.1,240410,,,A*71
$GPRMC,202249.9,A,3248.186776,N,11657.395750,W,74.9,87.7,240410,,,A*76
$GPRMC,202252.9,A,3248.184474,N,11657.318367,W,77.5,89.7,240410,,,A*7B
$GPRMC,202255.9,A,3248.182187,N,11657.240733,W,77.2,89.9,240410,,,A*73
$GPRMC,202258.9,A,3248.181390,N,11657.169005,W,71.1,90.4,240410,,,A*73
$GPRMC,202301.9,A,3248.180291,N,11657.101775,W,67.0,92.1,240410,,,A*70
$GPRMC,202304.9,A,3248.177847,N,11657.039573,W,63.3,91.8,240410,,,A*7F
$GPRMC,202307.9,A,3248.177629,N,11656.976879,W,63.0,91.1,240410,,,A*74
$GPRMC,202310.9,A,3248.175627,N,11656.915824,W,62.6,92.7,240410,,,A*71
$GPRMC,202313.9,A,3248.176573,N,11656.854894,W,63.5,90.8,240410,,,A*73
$GPRMC,202316.9,A,3248.179994,N,11656.793905,W,62.2,88.6,240410,,,A*70
$GPRMC,202319.9,A,3248.181885,N,11656.733075,W,60.8,88.4,240410,,,A*77
$GPRMC,202322.9,A,3248.180510,N,11656.672754,W,58.2,90.7,240410,,,A*74
$GPRMC,202325.9,A,3248.181091,N,11656.619892,W,54.9,90.2,240410,,,A*74
$GPRMC,202328.9,A,3248.180199,N,11656.567154,W,51.3,89.7,240410,,,A*7A
$GPRMC,202331.9,A,3248.179723,N,11656.519805,W,48.9,89.8,240410,,,A*7A
$GPRMC,202334.9,A,3248.180862,N,11656.469331,W,50.6,87.5,240410,,,A*7C
$GPRMC,202337.9,A,3248.182425,N,11656.417868,W,52.3,87.7,240410,,,A*79
$GPRMC,202340.9,A,3248.179428,N,11656.366583,W,52.4,92.2,240410,,,A*7F
$GPRMC,202343.9,A,3248.176637,N,11656.316788,W,49.0,94.4,240410,,,A*7F
$GPRMC,202346.9,A,3248.170592,N,11656.270369,W,43.9,95.1,240410,,,A*7D
$GPRMC,202349.9,A,3248.167302,N,11656.231097,W,37.9,96.7,240410,,,A*7A
$GPRMC,202352.9,A,3248.164357,N,11656.195506,W,33.8,95.8,240410,,,A*7A
$GPRMC,202355.9,A,3248.163912,N,11656.173203,W,18.9,91.3,240410,,,A*7C
$GPRMC,202358.9,A,3248.164720,N,11656.166480,W,6.2,73.0,240410,,,A*4B
$GPRMC,202407.9,A,3248.161268,N,11656.163246,W,5.2,103.3,240410,,,A*75
$GPRMC,202413.9,A,3248.159565,N,11656.152423,W,8.7,116.8,240410,,,A*71
$GPRMC,202416.9,A,3248.144704,N,11656.150262,W,16.4,169.0,240410,,,A*40
$GPRMC,202419.9,A,3248.123992,N,11656.149394,W,27.0,178.4,240410,,,A*4D
$GPRMC,202422.9,A,3248.095955,N,11656.148970,W,34.7,179.3,240410,,,A*40
$GPRMC,202425.9,A,3248.065882,N,11656.150365,W,37.7,181.9,240410,,,A*4A
$GPRMC,202428.9,A,3248.034829,N,11656.150855,W,35.6,183.5,240410,,,A*47
$GPRMC,202431.9,A,3248.001869,N,11656.150569,W,38.7,178.8,240410,,,A*4A
$GPRMC,202434.9,A,3247.968151,N,11656.149277,W,39.8,178.7,240410,,,A*45
$GPRMC,202437.9,A,3247.935204,N,11656.148451,W,38.2,178.8,240410,,,A*4A
$GPRMC,202440.9,A,3247.904254,N,11656.147908,W,38.0,180.2,240410,,,A*4C
$GPRMC,202443.9,A,3247.872766,N,11656.147590,W,37.4,178.5,240410,,,A*4D
$GPRMC,202446.9,A,3247.843749,N,11656.148517,W,36.2,181.5,240410,,,A*46
$GPRMC,202449.9,A,3247.814820,N,11656.150863,W,31.6,181.3,240410,,,A*49
$GPRMC,202452.9,A,3247.795887,N,11656.150511,W,21.8,178.2,240410,,,A*48
$GPRMC,202455.9,A,3247.778360,N,11656.146791,W,21.8,175.8,240410,,,A*44
$GPRMC,202458.9,A,3247.763435,N,11656.145166,W,17.1,178.5,240410,,,A*45
$GPRMC,202501.9,A,3247.756976,N,11656.145007,W,6.6,184.4,240410,,,A*77
$GPRMC,202546.9,A,3247.749309,N,11656.144244,W,5.7,186.9,240410,,,A*71
$GPRMC,202549.9,A,3247.741970,N,11656.139028,W,8.0,132.0,240410,,,A*7C
$GPRMC,202552.9,A,3247.738705,N,11656.127833,W,11.5,97.6,240410,,,A*7C
$GPRMC,202555.9,A,3247.746333,N,11656.115598,W,15.0,57.8,240410,,,A*7D
$GPRMC,202558.9,A,3247.760517,N,11656.098795,W,23.0,49.0,240410,,,A*7D
$GPRMC,202601.9,A,3247.772645,N,11656.080864,W,20.3,48.4,240410,,,A*78
$GPRMC,202604.9,A,3247.783824,N,11656.064175,W,18.9,54.4,240410,,,A*75
$GPRMC,202607.9,A,3247.790668,N,11656.046208,W,18.2,78.5,240410,,,A*7F
$GPRMC,202610.9,A,3247.790309,N,11656.025831,W,21.1,89.4,240410,,,A*78
$GPRMC,202613.9,A,3247.790871,N,11656.003303,W,22.1,90.3,240410,,,A*7D
$GPRMC,202616.9,A,3247.790097,N,11655.981155,W,23.1,90.1,240410,,,A*7A
$GPRMC,202619.9,A,3247.791358,N,11655.954853,W,25.9,87.5,240410,,,A*7F
$GPRMC,202622.9,A,3247.789390,N,11655.929741,W,24.3,89.7,240410,,,A*7B
$GPRMC,202625.9,A,3247.787341,N,11655.906048,W,23.6,91.4,240410,,,A*75
$GPRMC,202628.9,A,3247.788413,N,11655.878496,W,27.8,89.0,240410,,,A*7F
$GPRMC,202631.9,A,3247.788897,N,11655.851249,W,28.1,90.1,240410,,,A*77
$GPRMC,202634.9,A,3247.788163,N,11655.822585,W,28.4,90.8,240410,,,A*7F
$GPRMC,202637.9,A,3247.787952,N,11655.794145,W,29.0,88.3,240410,,,A*74
$GPRMC,202640.9,A,3247.788126,N,11655.761894,W,30.7,90.8,240410,,,A*72
$GPRMC,202643.9,A,3247.788697,N,11655.735706,W,27.9,89.5,240410,,,A*74
$GPRMC,202646.9,A,3247.790228,N,11655.704284,W,32.2,89.5,240410,,,A*7A
$GPRMC,202649.9,A,3247.791330,N,11655.673351,W,31.2,89.7,240410,,,A*75
$GPRMC,202652.9,A,3247.791508,N,11655.645906,W,28.6,90.1,240410,,,A*7D
$GPRMC,202655.9,A,3247.790292,N,11655.624142,W,16.7,92.2,240410,,,A*7D
$GPRMC,202658.9,A,3247.790144,N,11655.617425,W,8.3,96.9,240410,,,A*48
$GPRMC,202701.9,A,3247.773963,N,11655.617956,W,14.9,168.5,240410,,,A*47
$GPRMC,202704.9,A,3247.753090,N,11655.618253,W,25.8,178.0,240410,,,A*43
$GPRMC,202707.9,A,3247.726700,N,11655.619060,W,31.3,180.4,240410,,,A*42
$GPRMC,202710.9,A,3247.700525,N,11655.618103,W,31.3,179.1,240410,,,A*43
$GPRMC,202713.9,A,3247.674414,N,11655.618938,W,30.2,180.2,240410,,,A*44
$GPRMC,202716.9,A,3247.650692,N,11655.617572,W,29.6,178.9,240410,,,A*46
$GPRMC,202719.9,A,3247.626894,N,11655.618402,W,28.3,180.8,240410,,,A*4B
$GPRMC,202722.9,A,3247.604387,N,11655.618012,W,25.5,180.2,240410,,,A*4E
$GPRMC,202725.9,A,3247.585000,N,11655.616672,W,20.9,177.8,240410,,,A*4A
$GPRMC,202728.9,A,3247.576318,N,11655.617075,W,9.7,178.6,240410,,,A*75
$GPRMC,202731.9,A,3247.571070,N,11655.615626,W,5.8,179.7,240410,,,A*76
$GPRMC,202734.9,A,3247.566040,N,11655.615809,W,8.6,153.7,240410,,,A*7E
$GPRMC,202737.9,A,3247.562166,N,11655.603446,W,14.8,109.8,240410,,,A*4F
$GPRMC,202740.9,A,3247.562187,N,11655.577908,W,25.1,93.0,240410,,,A*76
$GPRMC,202743.9,A,3247.563941,N,11655.545894,W,32.9,89.2,240410,,,A*74
$GPRMC,202746.9,A,3247.566349,N,11655.510479,W,34.1,87.6,240410,,,A*7D
$GPRMC,202749.9,A,3247.564177,N,11655.483304,W,22.9,96.5,240410,,,A*75
$GPRMC,202752.9,A,3247.548044,N,11655.469444,W,19.7,139.7,240410,,,A*47
$GPRMC,202755.9,A,3247.530379,N,11655.471310,W,18.4,165.7,240410,,,A*46
$GPRMC,202758.9,A,3247.523074,N,11655.462119,W,13.7,129.7,240410,,,A*4E
$GPRMC,202801.9,A,3247.523973,N,11655.439104,W,20.9,92.1,240410,,,A*78
$GPRMC,202804.9,A,3247.526352,N,11655.417270,W,16.2,89.3,240410,,,A*7B
$GPRMC,202807.9,A,3247.519781,N,11655.411608,W,8.2,148.0,240410,,,A*73
$GPRMC,202834.9,A,3247.515814,N,11655.414801,W,4.8,175.5,240410,,,A*73
$GPRMC,203001.9,A,3247.524202,N,11655.403926,W,6.3,63.7,240410,,,A*4C
$GPRMC,203004.9,A,3247.525712,N,11655.381679,W,20.5,87.7,240410,,,A*7C
$GPRMC,203007.9,A,3247.525541,N,11655.352920,W,27.1,88.4,240410,,,A*79
$GPRMC,203010.9,A,3247.526953,N,11655.323977,W,26.5,87.3,240410,,,A*7A
$GPRMC,203013.9,A,3247.526583,N,11655.303614,W,17.2,90.5,240410,,,A*75
$GPRMC,203017.2,A,3247.530868,N,11655.291307,W,10.9,61.4,240410,,,A*7B
$GPRMC,203020.2,A,3247.546603,N,11655.291559,W,16.5,1.3,240410,,,A*4B
$GPRMC,203023.9,A,3247.559393,N,11655.290545,W,7.5,18.2,240410,,,A*44
$GPRMC,203026.2,A,3247.564984,N,11655.284954,W,9.9,46.5,240410,,,A*4F
$GPRMC,203029.9,A,3247.567253,N,11655.262853,W,16.2,88.5,240410,,,A*70
$GPRMC,203032.9,A,3247.561693,N,11655.249725,W,13.8,121.4,240410,,,A*4F
$GPRMC,203035.9,A,3247.540252,N,11655.237932,W,26.1,153.6,240410,,,A*4B
$GPRMC,203038.9,A,3247.511917,N,11655.224147,W,33.7,155.5,240410,,,A*47
$GPRMC,203041.2,A,3247.488875,N,11655.204255,W,41.9,144.8,240410,,,A*42
$GPRMC,203044.9,A,3247.451566,N,11655.167307,W,46.1,138.6,240410,,,A*4D
$GPRMC,203047.9,A,3247.425778,N,11655.134515,W,48.5,137.0,240410,,,A*40
$GPRMC,203050.9,A,3247.391005,N,11655.105681,W,50.0,150.6,240410,,,A*44
$GPRMC,203053.9,A,3247.352039,N,11655.088202,W,51.1,162.7,240410,,,A*4C
$GPRMC,203056.9,A,3247.311176,N,11655.077083,W,46.0,168.3,240410,,,A*46
$GPRMC,203059.9,A,3247.280157,N,11655.071788,W,34.3,171.6,240410,,,A*42
$GPRMC,203103.2,A,3247.260176,N,11655.068231,W,22.7,164.5,240410,,,A*41
$GPRMC,203212.9,A,3247.259583,N,11655.053458,W,9.5,109.0,240410,,,A*79
$GPRMC,203215.2,A,3247.255202,N,11655.034843,W,18.6,110.3,240410,,,A*48
$GPRMC,203218.9,A,3247.252782,N,11654.988624,W,34.5,101.2,240410,,,A*48
$GPRMC,203221.9,A,3247.241404,N,11654.945025,W,41.2,108.2,240410,,,A*47
$GPRMC,203224.9,A,3247.226860,N,11654.905420,W,41.5,118.2,240410,,,A*4E
$GPRMC,203227.9,A,3247.207373,N,11654.867860,W,44.2,125.4,240410,,,A*40
$GPRMC,203230.9,A,3247.178355,N,11654.828102,W,50.4,124.5,240410,,,A*4C
$GPRMC,203233.9,A,3247.162411,N,11654.781277,W,51.4,108.1,240410,,,A*45
$GPRMC,203236.9,A,3247.160662,N,11654.727325,W,53.8,94.8,240410,,,A*7D
$GPRMC,203239.9,A,3247.168123,N,11654.677587,W,49.2,84.3,240410,,,A*79
$GPRMC,203242.9,A,3247.174766,N,11654.633510,W,42.5,80.0,240410,,,A*7A
$GPRMC,203245.0,A,3247.178889,N,11654.608554,W,36.9,78.1,240410,,,A*77
$GPRMC,203248.9,A,3247.185657,N,11654.558809,W,38.9,79.0,240410,,,A*71
$GPRMC,203251.9,A,3247.196183,N,11654.518972,W,41.5,72.9,240410,,,A*7C
$GPRMC,203254.9,A,3247.208312,N,11654.481340,W,42.6,68.0,240410,,,A*7F
$GPRMC,203257.9,A,3247.224317,N,11654.443043,W,43.2,65.4,240410,,,A*75
$GPRMC,203300.9,A,3247.235205,N,11654.406166,W,37.1,67.9,240410,,,A*7C
$GPRMC,203303.9,A,3247.243041,N,11654.380423,W,24.1,74.9,240410,,,A*71
$GPRMC,203306.9,A,3247.234840,N,11654.369068,W,15.0,131.8,240410,,,A*43
$GPRMC,203309.2,A,3247.217662,N,11654.368458,W,23.3,173.6,240410,,,A*40
$GPRMC,203312.0,A,3247.189975,N,11654.369655,W,33.6,180.7,240410,,,A*42
$GPRMC,203315.9,A,3247.148276,N,11654.370874,W,40.9,178.9,240410,,,A*4E
$GPRMC,203318.9,A,3247.107972,N,11654.372038,W,45.8,180.6,240410,,,A*49
$GPRMC,203321.9,A,3247.064433,N,11654.372765,W,50.5,180.3,240410,,,A*4C
$GPRMC,203324.9,A,3247.019711,N,11654.372711,W,53.0,179.9,240410,,,A*49
$GPRMC,203327.9,A,3246.976571,N,11654.374034,W,52.5,181.9,240410,,,A*4A
$GPRMC,203330.9,A,3246.928901,N,11654.375283,W,54.1,181.3,240410,,,A*4B
$GPRMC,203333.9,A,3246.887053,N,11654.375935,W,48.1,182.1,240410,,,A*48
$GPRMC,203336.9,A,3246.855326,N,11654.377777,W,34.8,181.6,240410,,,A*4F
$GPRMC,203339.9,A,3246.833602,N,11654.377561,W,23.5,177.5,240410,,,A*47
$GPRMC,203342.9,A,3246.824160,N,11654.375897,W,9.4,176.2,240410,,,A*77
$GPRMC,203345.9,A,3246.815154,N,11654.375319,W,14.5,181.6,240410,,,A*49
$GPRMC,203348.9,A,3246.796006,N,11654.375672,W,24.9,180.8,240410,,,A*4E
$GPRMC,203351.9,A,3246.770424,N,11654.376530,W,33.0,181.9,240410,,,A*43
$GPRMC,203354.9,A,3246.736881,N,11654.377508,W,40.8,182.4,240410,,,A*4F
$GPRMC,203357.9,A,3246.701312,N,11654.378513,W,42.8,182.0,240410,,,A*4A
$GPRMC,203400.9,A,3246.663748,N,11654.379137,W,43.9,182.0,240410,,,A*42
$GPRMC,203403.9,A,3246.626860,N,11654.376519,W,43.0,181.7,240410,,,A*4F
$GPRMC,203406.9,A,3246.592871,N,11654.391961,W,45.0,204.7,240410,,,A*44
$GPRMC,203409.9,A,3246.563688,N,11654.419413,W,46.7,218.6,240410,,,A*4A
$GPRMC,203412.9,A,3246.532329,N,11654.444388,W,44.1,207.3,240410,,,A*48
$GPRMC,203415.9,A,3246.491679,N,11654.450112,W,47.7,182.9,240410,,,A*42
$GPRMC,203418.9,A,3246.452840,N,11654.438561,W,48.8,165.8,240410,,,A*42
$GPRMC,203421.2,A,3246.423296,N,11654.426303,W,49.8,164.9,240410,,,A*48
$GPRMC,203424.0,A,3246.385333,N,11654.414713,W,48.0,170.3,240410,,,A*48
$GPRMC,203427.9,A,3246.336132,N,11654.421301,W,45.7,193.6,240410,,,A*4A
$GPRMC,203430.9,A,3246.307145,N,11654.459997,W,51.2,221.5,240410,,,A*4D
$GPRMC,203433.2,A,3246.282612,N,11654.489833,W,52.0,222.6,240410,,,A*4F
$GPRMC,203436.2,A,3246.251436,N,11654.523710,W,49.5,222.2,240410,,,A*44
$GPRMC,203439.2,A,3246.221192,N,11654.555735,W,48.9,221.9,240410,,,A*44
$GPRMC,203442.2,A,3246.190550,N,11654.587933,W,49.8,222.2,240410,,,A*44
$GPRMC,203445.2,A,3246.157862,N,11654.619646,W,48.3,214.2,240410,,,A*42
$GPRMC,203448.9,A,3246.114817,N,11654.650772,W,48.1,210.6,240410,,,A*48
$GPRMC,203451.9,A,3246.085065,N,11654.676221,W,43.4,216.3,240410,,,A*4E
$GPRMC,203454.2,A,3246.067512,N,11654.698848,W,41.1,224.3,240410,,,A*4A
$GPRMC,203457.0,A,3246.062897,N,11654.732095,W,36.7,242.9,240410,,,A*4B
$GPRMC,203500.2,A,3246.049084,N,11654.768516,W,39.3,243.5,240410,,,A*4E
$GPRMC,203503.9,A,3246.025119,N,11654.807638,W,38.1,223.5,240410,,,A*45
$GPRMC,203506.9,A,3246.001747,N,11654.836515,W,40.8,231.4,240410,,,A*41
$GPRMC,203509.9,A,3245.990656,N,11654.870198,W,35.7,241.5,240410,,,A*45
$GPRMC,203512.9,A,3245.967922,N,11654.897915,W,37.0,228.2,240410,,,A*42
