NMEA Sentence Code,UTC Time,Status,Latitude,Latitude Direction,Longitude,Longitude Direction,Speed (knots),Track Angle (degrees true),Date,MagneticVariation,Magnetic Variation Direction,[FAA Mode]-Optional,Checksum
$GPRMC,173122.8,A,3318.3075,N,11728.3277,W,69.50,314.80,280410,,*22
$GPRMC,173125.8,A,3318.3473,N,11728.3762,W,67.90,314.50,280410,,*29
$GPRMC,173128.8,A,3318.3872,N,11728.4238,W,67.30,314.90,280410,,*22
$GPRMC,173131.8,A,3318.4280,N,11728.4715,W,67.90,314.70,280410,,*24
$GPRMC,173134.8,A,3318.4689,N,11728.5204,W,68.50,314.40,280410,,*28
$GPRMC,173137.8,A,3318.5083,N,11728.5688,W,68.00,314.40,280410,,*23
$GPRMC,173140.8,A,3318.5467,N,11728.6152,W,64.60,314.40,280410,,*24
$GPRMC,173143.8,A,3318.5840,N,11728.6610,W,64.40,314.40,280410,,*2D
$GPRMC,173146.8,A,3318.6204,N,11728.7058,W,63.20,314.80,280410,,*27
$GPRMC,173149.8,A,3318.6577,N,11728.7498,W,62.30,314.80,280410,,*23
$GPRMC,173152.8,A,3318.6950,N,11728.7933,W,61.60,316.20,280410,,*22
$GPRMC,173155.8,A,3318.7345,N,11728.8329,W,62.70,322.90,280410,,*2A
$GPRMC,173158.8,A,3318.7782,N,11728.8663,W,62.70,330.20,280410,,*2B
$GPRMC,173201.8,A,3318.8273,N,11728.8919,W,61.50,338.10,280410,,*28
$GPRMC,173204.8,A,3318.8755,N,11728.9100,W,61.50,346.10,280410,,*24
$GPRMC,173207.8,A,3318.9256,N,11728.9213,W,61.50,351.70,280410,,*21
$GPRMC,173210.8,A,3318.9768,N,11728.9266,W,61.20,355.60,280410,,*2F
$GPRMC,173213.8,A,3319.0273,N,11728.9316,W,61.60,355.00,280410,,*2F
$GPRMC,173216.8,A,3319.0802,N,11728.9345,W,63.70,355.70,280410,,*24
$GPRMC,173219.8,A,3319.1334,N,11728.9399,W,64.10,355.00,280410,,*23
$GPRMC,173222.8,A,3319.1869,N,11728.9484,W,64.80,350.70,280410,,*28
$GPRMC,173225.8,A,3319.2405,N,11728.9648,W,66.60,343.10,280410,,*20
$GPRMC,173228.8,A,3319.2931,N,11728.9843,W,65.50,343.40,280410,,*27
$GPRMC,173231.8,A,3319.3461,N,11729.0123,W,66.20,338.60,280410,,*2B
$GPRMC,173234.8,A,3319.3920,N,11729.0699,W,71.20,321.00,280410,,*28
$GPRMC,173237.8,A,3319.4358,N,11729.1166,W,70.50,318.20,280410,,*21
$GPRMC,173240.8,A,3319.4665,N,11729.1687,W,66.90,311.90,280410,,*2B
$GPRMC,173243.8,A,3319.5010,N,11729.2224,W,66.80,310.60,280410,,*2C
$GPRMC,173246.8,A,3319.5381,N,11729.2730,W,67.50,310.80,280410,,*20
$GPRMC,173249.8,A,3319.5753,N,11729.3234,W,67.70,311.10,280410,,*2E
$GPRMC,173252.8,A,3319.6136,N,11729.3743,W,69.30,311.40,280410,,*28
$GPRMC,173255.8,A,3319.6516,N,11729.4271,W,70.00,311.10,280410,,*24
$GPRMC,173258.8,A,3319.6900,N,11729.4803,W,69.00,311.30,280410,,*27
$GPRMC,173301.8,A,3319.7273,N,11729.5305,W,67.50,311.70,280410,,*27
$GPRMC,173304.8,A,3319.7641,N,11729.5830,W,68.30,311.10,280410,,*25
$GPRMC,173307.8,A,3319.8021,N,11729.6341,W,68.50,311.10,280410,,*21
$GPRMC,173310.8,A,3319.8395,N,11729.6858,W,68.40,311.00,280410,,*28
$GPRMC,173313.8,A,3319.8775,N,11729.7364,W,68.20,311.10,280410,,*23
$GPRMC,173316.8,A,3319.9147,N,11729.7880,W,68.10,310.80,280410,,*2A
$GPRMC,173319.8,A,3319.9498,N,11729.8383,W,65.80,311.00,280410,,*28
$GPRMC,173322.8,A,3319.9847,N,11729.8873,W,64.30,310.60,280410,,*27
$GPRMC,173325.8,A,3320.0213,N,11729.9366,W,66.80,311.00,280410,,*28
$GPRMC,173328.8,A,3320.0595,N,11729.9879,W,69.30,311.30,280410,,*2E
$GPRMC,173331.8,A,3320.0986,N,11730.0402,W,69.50,310.80,280410,,*25
$GPRMC,173334.8,A,3320.1359,N,11730.0922,W,68.60,311.10,280410,,*2C
$GPRMC,173337.8,A,3320.1733,N,11730.1440,W,69.20,311.30,280410,,*28
$GPRMC,173340.8,A,3320.2120,N,11730.1952,W,68.40,311.50,280410,,*20
$GPRMC,173343.8,A,3320.2482,N,11730.2456,W,66.20,311.10,280410,,*28
$GPRMC,173346.8,A,3320.2848,N,11730.2943,W,65.30,311.10,280410,,*2C
$GPRMC,173349.8,A,3320.3208,N,11730.3444,W,65.90,310.80,280410,,*25
$GPRMC,173352.8,A,3320.3549,N,11730.3932,W,64.30,310.70,280410,,*25
$GPRMC,173355.8,A,3320.3908,N,11730.4418,W,65.90,311.30,280410,,*27
$GPRMC,173358.8,A,3320.4264,N,11730.4913,W,66.70,310.70,280410,,*22
$GPRMC,173401.8,A,3320.4624,N,11730.5412,W,65.60,310.60,280410,,*27
$GPRMC,173404.8,A,3320.4976,N,11730.5903,W,64.30,310.70,280410,,*22
$GPRMC,173407.8,A,3320.5324,N,11730.6374,W,61.80,311.20,280410,,*2E
$GPRMC,173410.8,A,3320.5656,N,11730.6828,W,61.40,311.20,280410,,*26
$GPRMC,173413.8,A,3320.6006,N,11730.7298,W,63.40,310.90,280410,,*2D
$GPRMC,173416.8,A,3320.6344,N,11730.7787,W,64.90,310.80,280410,,*2D
$GPRMC,173419.8,A,3320.6698,N,11730.8275,W,64.40,310.50,280410,,*21
$GPRMC,173422.8,A,3320.7050,N,11730.8759,W,63.80,311.30,280410,,*2D
$GPRMC,173425.8,A,3320.7389,N,11730.9223,W,61.00,311.50,280410,,*28
$GPRMC,173428.8,A,3320.7718,N,11730.9666,W,59.40,311.70,280410,,*21
$GPRMC,173431.8,A,3320.8050,N,11731.0109,W,59.00,311.80,280410,,*20
$GPRMC,173434.8,A,3320.8381,N,11731.0545,W,58.20,311.60,280410,,*2B
$GPRMC,173437.8,A,3320.8700,N,11731.0983,W,59.20,311.10,280410,,*25
$GPRMC,173440.8,A,3320.9008,N,11731.1428,W,58.00,310.40,280410,,*21
$GPRMC,173443.8,A,3320.9305,N,11731.1867,W,56.00,309.70,280410,,*2E
$GPRMC,173446.8,A,3320.9601,N,11731.2293,W,55.50,309.90,280410,,*20
$GPRMC,173449.8,A,3320.9908,N,11731.2726,W,56.40,309.80,280410,,*21
$GPRMC,173452.8,A,3321.0214,N,11731.3159,W,56.80,309.00,280410,,*2E
$GPRMC,173455.8,A,3321.0513,N,11731.3586,W,57.70,309.30,280410,,*22
$GPRMC,173458.8,A,3321.0822,N,11731.4038,W,59.10,309.00,280410,,*2C
$GPRMC,173501.8,A,3321.1126,N,11731.4501,W,59.70,308.80,280410,,*2D
$GPRMC,173504.8,A,3321.1434,N,11731.4964,W,58.90,308.90,280410,,*2F
$GPRMC,173507.8,A,3321.1740,N,11731.5423,W,57.90,308.80,280410,,*2D
$GPRMC,173510.8,A,3321.2044,N,11731.5873,W,57.10,308.90,280410,,*2B
$GPRMC,173513.8,A,3321.2343,N,11731.6295,W,54.70,308.90,280410,,*28
$GPRMC,173516.8,A,3321.2635,N,11731.6735,W,59.10,307.60,280410,,*2D
$GPRMC,173519.8,A,3321.2964,N,11731.7237,W,66.30,308.10,280410,,*29
$GPRMC,173522.8,A,3321.3317,N,11731.7769,W,68.80,308.80,280410,,*2C
$GPRMC,173525.8,A,3321.3688,N,11731.8295,W,68.00,309.10,280410,,*21
$GPRMC,173528.8,A,3321.4056,N,11731.8819,W,67.90,309.20,280410,,*25
$GPRMC,173531.8,A,3321.4407,N,11731.9332,W,65.50,309.00,280410,,*22
$GPRMC,173534.8,A,3321.4728,N,11731.9836,W,63.70,308.80,280410,,*2B
$GPRMC,173537.8,A,3321.5078,N,11732.0337,W,64.50,308.60,280410,,*20
$GPRMC,173540.8,A,3321.5429,N,11732.0837,W,66.90,309.00,280410,,*22
$GPRMC,173543.8,A,3321.5795,N,11732.1359,W,68.60,309.10,280410,,*27
$GPRMC,173546.8,A,3321.6159,N,11732.1894,W,70.30,309.10,280410,,*21
$GPRMC,173549.8,A,3321.6524,N,11732.2436,W,69.70,309.00,280410,,*2A
$GPRMC,173552.8,A,3321.6896,N,11732.2974,W,69.00,309.70,280410,,*2F
$GPRMC,173555.8,A,3321.7255,N,11732.3487,W,66.40,309.80,280410,,*28
$GPRMC,173558.8,A,3321.7597,N,11732.3985,W,62.80,309.30,280410,,*20
$GPRMC,173601.8,A,3321.7915,N,11732.4442,W,59.50,309.90,280410,,*27
$GPRMC,173604.8,A,3321.8219,N,11732.4891,W,57.20,309.20,280410,,*2A
$GPRMC,173607.8,A,3321.8522,N,11732.5326,W,56.40,309.00,280410,,*25
$GPRMC,173610.8,A,3321.8829,N,11732.5763,W,57.80,309.00,280410,,*2D
$GPRMC,173613.8,A,3321.9123,N,11732.6211,W,58.50,309.00,280410,,*2D
$GPRMC,173616.8,A,3321.9442,N,11732.6675,W,60.20,309.40,280410,,*24
$GPRMC,173619.8,A,3321.9760,N,11732.7152,W,62.40,309.10,280410,,*2A
$GPRMC,173622.8,A,3322.0094,N,11732.7647,W,64.40,308.70,280410,,*26
$GPRMC,173625.8,A,3322.0433,N,11732.8159,W,66.30,308.10,280410,,*2C
$GPRMC,173628.8,A,3322.0758,N,11732.8715,W,68.80,304.10,280410,,*28
$GPRMC,173631.8,A,3322.1071,N,11732.9295,W,68.40,303.00,280410,,*2B
$GPRMC,173634.8,A,3322.1389,N,11732.9862,W,68.20,302.90,280410,,*26
$GPRMC,173637.8,A,3322.1685,N,11733.0431,W,66.30,302.50,280410,,*2D
$GPRMC,173640.8,A,3322.1971,N,11733.0977,W,64.60,302.70,280410,,*23
$GPRMC,173643.8,A,3322.2244,N,11733.1523,W,64.50,302.00,280410,,*26
$GPRMC,173646.8,A,3322.2529,N,11733.2075,W,64.70,302.30,280410,,*2B
$GPRMC,173649.8,A,3322.2822,N,11733.2617,W,64.60,302.20,280410,,*20
$GPRMC,173652.8,A,3322.3125,N,11733.3163,W,65.40,302.60,280410,,*27
$GPRMC,173655.8,A,3322.3423,N,11733.3717,W,66.70,302.30,280410,,*23
$GPRMC,173658.8,A,3322.3755,N,11733.4299,W,68.20,302.70,280410,,*27
$GPRMC,173701.8,A,3322.4056,N,11733.4864,W,67.90,303.00,280410,,*23
$GPRMC,173704.8,A,3322.4368,N,11733.5438,W,68.30,303.40,280410,,*2D
$GPRMC,173707.8,A,3322.4682,N,11733.6011,W,68.30,303.30,280410,,*24
$GPRMC,173710.8,A,3322.4998,N,11733.6573,W,68.30,303.90,280410,,*2D
$GPRMC,173713.8,A,3322.5376,N,11733.7123,W,68.30,310.40,280410,,*2A
$GPRMC,173716.8,A,3322.5793,N,11733.7607,W,67.40,315.80,280410,,*20
$GPRMC,173719.8,A,3322.6218,N,11733.8056,W,66.60,316.90,280410,,*26
$GPRMC,173722.8,A,3322.6611,N,11733.8507,W,65.10,314.90,280410,,*24
$GPRMC,173725.8,A,3322.6966,N,11733.8987,W,65.50,309.50,280410,,*2C
$GPRMC,173728.8,A,3322.7279,N,11733.9522,W,65.30,303.10,280410,,*2F
$GPRMC,173731.8,A,3322.7547,N,11734.0097,W,66.20,297.20,280410,,*25
$GPRMC,173734.8,A,3322.7772,N,11734.0684,W,65.80,294.50,280410,,*2D
$GPRMC,173737.8,A,3322.7984,N,11734.1275,W,64.80,294.60,280410,,*20
$GPRMC,173740.8,A,3322.8206,N,11734.1864,W,65.50,294.30,280410,,*2D
$GPRMC,173743.8,A,3322.8427,N,11734.2460,W,65.80,294.50,280410,,*2B
$GPRMC,173746.8,A,3322.8652,N,11734.3052,W,66.10,294.70,280410,,*22
$GPRMC,173749.8,A,3322.8906,N,11734.3668,W,67.50,295.60,280410,,*29
$GPRMC,173752.8,A,3322.9153,N,11734.4288,W,68.30,294.60,280410,,*2F
$GPRMC,173755.8,A,3322.9394,N,11734.4910,W,69.20,294.80,280410,,*25
$GPRMC,173758.8,A,3322.9640,N,11734.5557,W,70.90,294.70,280410,,*26
$GPRMC,173801.8,A,3322.9894,N,11734.6203,W,70.60,294.70,280410,,*28
$GPRMC,173804.8,A,3323.0126,N,11734.6816,W,68.40,294.40,280410,,*23
$GPRMC,173807.8,A,3323.0360,N,11734.7409,W,66.10,294.60,280410,,*2A
$GPRMC,173810.8,A,3323.0587,N,11734.7989,W,65.00,294.10,280410,,*23
$GPRMC,173813.8,A,3323.0820,N,11734.8581,W,64.60,295.10,280410,,*2D
$GPRMC,173816.8,A,3323.1049,N,11734.9146,W,62.30,295.10,280410,,*23
$GPRMC,173819.8,A,3323.1273,N,11734.9690,W,62.20,296.10,280410,,*29
$GPRMC,173822.8,A,3323.1512,N,11735.0237,W,62.70,295.70,280410,,*20
$GPRMC,173825.8,A,3323.1742,N,11735.0771,W,63.00,299.30,280410,,*29
$GPRMC,173828.8,A,3323.2031,N,11735.1317,W,63.90,302.30,280410,,*2B
$GPRMC,173831.8,A,3323.2353,N,11735.1820,W,65.10,305.80,280410,,*29
$GPRMC,173834.8,A,3323.2759,N,11735.2300,W,67.20,312.70,280410,,*20
$GPRMC,173837.8,A,3323.3186,N,11735.2740,W,67.90,316.70,280410,,*29
$GPRMC,173840.8,A,3323.3604,N,11735.3185,W,68.40,318.20,280410,,*23
$GPRMC,173843.8,A,3323.4029,N,11735.3628,W,69.20,318.80,280410,,*23
$GPRMC,173846.8,A,3323.4482,N,11735.3949,W,67.70,322.80,280410,,*29
$GPRMC,173849.8,A,3323.4918,N,11735.4148,W,64.10,327.20,280410,,*2C
$GPRMC,173852.8,A,3323.5286,N,11735.4457,W,60.40,326.60,280410,,*24
$GPRMC,173855.8,A,3323.5694,N,11735.4765,W,58.40,326.10,280410,,*2A
$GPRMC,173858.8,A,3323.6090,N,11735.5091,W,59.00,326.70,280410,,*28
$GPRMC,173901.8,A,3323.6556,N,11735.5367,W,58.30,328.10,280410,,*2A
$GPRMC,173904.8,A,3323.6989,N,11735.5676,W,59.40,328.80,280410,,*2B
$GPRMC,173907.8,A,3323.7410,N,11735.5986,W,59.00,328.40,280410,,*2C
$GPRMC,173910.8,A,3323.7831,N,11735.6286,W,58.90,328.70,280410,,*26
$GPRMC,173913.8,A,3323.8310,N,11735.6635,W,60.70,328.90,280410,,*25
$GPRMC,173916.8,A,3323.8731,N,11735.6772,W,60.30,335.10,280410,,*25
$GPRMC,173919.8,A,3323.9199,N,11735.6961,W,58.80,336.70,280410,,*26
$GPRMC,173922.8,A,3323.9639,N,11735.7182,W,56.90,337.60,280410,,*28
$GPRMC,173925.8,A,3324.0068,N,11735.7356,W,56.10,338.80,280410,,*21
$GPRMC,173928.8,A,3324.0449,N,11735.7544,W,52.10,338.20,280410,,*20
$GPRMC,173931.8,A,3324.0841,N,11735.7726,W,50.80,338.10,280410,,*22
$GPRMC,173934.8,A,3324.1265,N,11735.7910,W,52.20,337.90,280410,,*2E
$GPRMC,173937.8,A,3324.1685,N,11735.8078,W,53.10,338.80,280410,,*23
$GPRMC,173940.8,A,3324.2053,N,11735.8290,W,53.20,337.90,280410,,*24
$GPRMC,173943.8,A,3324.2442,N,11735.8500,W,52.80,337.20,280410,,*2D
$GPRMC,173946.8,A,3324.2885,N,11735.8709,W,54.60,337.50,280410,,*2B
$GPRMC,173949.8,A,3324.3304,N,11735.8908,W,54.80,338.30,280410,,*2F
$GPRMC,173952.8,A,3324.3741,N,11735.9150,W,55.70,337.20,280410,,*24
$GPRMC,173955.8,A,3324.4220,N,11735.9366,W,58.00,338.30,280410,,*25
$GPRMC,173958.8,A,3324.4700,N,11735.9589,W,59.30,338.60,280410,,*2F
$GPRMC,174001.8,A,3324.5169,N,11735.9784,W,59.20,338.40,280410,,*29
$GPRMC,174004.8,A,3324.5633,N,11735.9975,W,59.10,338.50,280410,,*26
$GPRMC,174007.8,A,3324.6055,N,11736.0230,W,56.80,337.40,280410,,*28
$GPRMC,174010.8,A,3324.6484,N,11736.0453,W,56.80,337.80,280410,,*29
$GPRMC,174013.8,A,3324.6928,N,11736.0683,W,57.90,337.80,280410,,*2E
$GPRMC,174016.8,A,3324.7346,N,11736.0932,W,57.60,335.90,280410,,*21
$GPRMC,174019.8,A,3324.7786,N,11736.1154,W,57.40,336.20,280410,,*25
$GPRMC,174022.8,A,3324.8198,N,11736.1470,W,57.00,333.00,280410,,*2B
$GPRMC,174025.8,A,3324.8528,N,11736.1867,W,55.80,327.20,280410,,*24
$GPRMC,174030.8,A,3324.9088,N,11736.2181,W,50.20,327.60,280410,,*27
$GPRMC,174033.8,A,3324.9435,N,11736.2438,W,50.00,329.10,280410,,*2A
$GPRMC,174036.8,A,3324.9717,N,11736.2567,W,48.10,330.50,280410,,*23
$GPRMC,174039.8,A,3325.0042,N,11736.2784,W,46.80,329.80,280410,,*2E
$GPRMC,174042.8,A,3325.0949,N,11736.2853,W,54.20,334.90,280410,,*21
$GPRMC,174045.8,A,3325.1435,N,11736.3061,W,54.50,334.20,280410,,*25
$GPRMC,174048.8,A,3325.1860,N,11736.3366,W,53.50,328.90,280410,,*21
$GPRMC,174051.8,A,3325.2254,N,11736.3743,W,55.90,325.20,280410,,*28
$GPRMC,174054.8,A,3325.2642,N,11736.4069,W,55.40,325.40,280410,,*2D
$GPRMC,174057.8,A,3325.3020,N,11736.4375,W,55.30,325.50,280410,,*25
$GPRMC,174100.8,A,3325.3420,N,11736.4638,W,55.40,328.00,280410,,*21
$GPRMC,174103.8,A,3325.3926,N,11736.4815,W,57.20,335.30,280410,,*23
$GPRMC,174106.8,A,3325.4373,N,11736.5026,W,57.10,336.80,280410,,*29
$GPRMC,174109.8,A,3325.4851,N,11736.5285,W,57.70,335.20,280410,,*29
$GPRMC,174112.8,A,3325.5284,N,11736.5528,W,57.40,334.70,280410,,*27
$GPRMC,174115.8,A,3325.5740,N,11736.5831,W,59.00,333.50,280410,,*27
$GPRMC,174118.8,A,3325.6186,N,11736.6122,W,59.20,333.10,280410,,*2B
$GPRMC,174121.8,A,3325.6600,N,11736.6404,W,59.50,331.50,280410,,*28
$GPRMC,174124.8,A,3325.6965,N,11736.6729,W,56.40,328.80,280410,,*26
$GPRMC,174127.8,A,3325.7392,N,11736.7070,W,57.20,327.40,280410,,*28
$GPRMC,174130.8,A,3325.7754,N,11736.7405,W,58.50,324.70,280410,,*2E
$GPRMC,174133.8,A,3325.8066,N,11736.7740,W,55.90,321.20,280410,,*27
$GPRMC,174136.8,A,3325.8448,N,11736.8089,W,55.00,321.50,280410,,*29
$GPRMC,174139.8,A,3325.8779,N,11736.8551,W,54.90,316.70,280410,,*29
$GPRMC,174142.8,A,3325.8948,N,11736.8947,W,53.70,319.00,280410,,*23
$GPRMC,174145.8,A,3325.9361,N,11736.9308,W,56.30,323.20,280410,,*2E
$GPRMC,174148.8,A,3325.9780,N,11736.9630,W,59.80,327.70,280410,,*23
$GPRMC,174151.8,A,3326.0221,N,11736.9911,W,60.50,330.60,280410,,*23
$GPRMC,174154.8,A,3326.0670,N,11737.0218,W,60.80,330.40,280410,,*23
$GPRMC,174157.8,A,3326.1116,N,11737.0512,W,61.80,330.70,280410,,*29
$GPRMC,174200.8,A,3326.1576,N,11737.0821,W,64.40,330.80,280410,,*21
$GPRMC,174203.8,A,3326.1983,N,11737.1202,W,62.60,321.60,280410,,*24
$GPRMC,174206.8,A,3326.2330,N,11737.1651,W,62.90,315.10,280410,,*2D
$GPRMC,174209.8,A,3326.2655,N,11737.2139,W,62.60,307.30,280410,,*20
$GPRMC,174212.8,A,3326.2939,N,11737.2636,W,61.30,305.00,280410,,*20
$GPRMC,174215.8,A,3326.3232,N,11737.3138,W,60.90,304.80,280410,,*2C
$GPRMC,174218.8,A,3326.3494,N,11737.3617,W,57.60,304.30,280410,,*21
$GPRMC,174221.8,A,3326.3729,N,11737.4062,W,56.40,304.40,280410,,*29
$GPRMC,174224.8,A,3326.4028,N,11737.4534,W,54.00,305.20,280410,,*2A
$GPRMC,174227.8,A,3326.4279,N,11737.4957,W,51.50,304.80,280410,,*2D
$GPRMC,174230.8,A,3326.4531,N,11737.5353,W,47.60,307.10,280410,,*21
$GPRMC,174233.8,A,3326.4769,N,11737.5718,W,46.90,308.60,280410,,*20
$GPRMC,174236.8,A,3326.5037,N,11737.6085,W,49.10,312.20,280410,,*20
$GPRMC,174242.8,A,3326.5637,N,11737.6797,W,52.20,315.30,280410,,*2E
$GPRMC,174245.8,A,3326.5944,N,11737.7166,W,51.20,315.10,280410,,*2A
$GPRMC,174248.8,A,3326.6243,N,11737.7519,W,49.60,315.00,280410,,*28
$GPRMC,174251.8,A,3326.6536,N,11737.7866,W,49.80,314.60,280410,,*29
$GPRMC,174254.8,A,3326.6829,N,11737.8223,W,51.50,314.20,280410,,*2B
$GPRMC,174257.8,A,3326.7139,N,11737.8600,W,53.50,313.30,280410,,*20
$GPRMC,174300.8,A,3326.7434,N,11737.9017,W,53.60,308.80,280410,,*28
$GPRMC,174303.8,A,3326.7708,N,11737.9448,W,54.60,304.70,280410,,*2D
$GPRMC,174306.8,A,3326.7956,N,11737.9917,W,55.20,300.90,280410,,*25
$GPRMC,174309.8,A,3326.8196,N,11738.0383,W,54.40,301.60,280410,,*29
$GPRMC,174312.8,A,3326.8431,N,11738.0852,W,55.20,301.40,280410,,*29
$GPRMC,174315.8,A,3326.8674,N,11738.1325,W,56.20,301.50,280410,,*25
$GPRMC,174318.8,A,3326.8927,N,11738.1797,W,55.70,301.70,280410,,*28
$GPRMC,174321.8,A,3326.9175,N,11738.2272,W,55.70,303.50,280410,,*21
$GPRMC,174324.8,A,3326.9450,N,11738.2712,W,55.60,308.00,280410,,*2A
$GPRMC,174327.8,A,3326.9740,N,11738.3128,W,54.00,310.30,280410,,*28
$GPRMC,174330.8,A,3327.0023,N,11738.3528,W,51.70,309.60,280410,,*2F
$GPRMC,174333.8,A,3327.0298,N,11738.3915,W,49.50,310.10,280410,,*28
$GPRMC,174336.8,A,3327.0544,N,11738.4259,W,44.70,310.60,280410,,*27
$GPRMC,174339.8,A,3327.0799,N,11738.4619,W,47.50,308.00,280410,,*24
$GPRMC,174342.8,A,3327.1048,N,11738.5002,W,51.20,308.60,280410,,*29
$GPRMC,174345.8,A,3327.1304,N,11738.5409,W,51.60,305.70,280410,,*22
$GPRMC,174348.8,A,3327.1554,N,11738.5827,W,51.80,304.70,280410,,*23
$GPRMC,174351.8,A,3327.1789,N,11738.6249,W,51.40,302.30,280410,,*26
$GPRMC,174354.8,A,3327.2008,N,11738.6677,W,48.90,301.10,280410,,*23
$GPRMC,174357.8,A,3327.2201,N,11738.7100,W,48.20,296.20,280410,,*2A
$GPRMC,174400.8,A,3327.2388,N,11738.7512,W,47.90,296.40,280410,,*2A
$GPRMC,174403.8,A,3327.2572,N,11738.7942,W,47.80,297.00,280410,,*27
$GPRMC,174406.8,A,3327.2742,N,11738.8353,W,45.10,296.30,280410,,*2F
$GPRMC,174409.8,A,3327.2902,N,11738.8755,W,44.70,295.80,280410,,*27
$GPRMC,174412.8,A,3327.3066,N,11738.9148,W,44.90,296.10,280410,,*28
$GPRMC,174415.8,A,3327.3248,N,11738.9558,W,47.10,297.50,280410,,*2A
$GPRMC,174418.8,A,3327.3435,N,11738.9983,W,48.90,297.60,280410,,*25
$GPRMC,174421.8,A,3327.3625,N,11739.0422,W,49.30,297.40,280410,,*2B
$GPRMC,174424.8,A,3327.3836,N,11739.0853,W,50.00,298.60,280410,,*2E
$GPRMC,174427.8,A,3327.4040,N,11739.1288,W,48.50,301.20,280410,,*27
$GPRMC,174430.8,A,3327.4255,N,11739.1680,W,47.00,302.60,280410,,*26
$GPRMC,174433.8,A,3327.4473,N,11739.2072,W,48.30,304.60,280410,,*25
$GPRMC,174436.8,A,3327.4723,N,11739.2481,W,53.10,305.00,280410,,*21
$GPRMC,174439.8,A,3327.4995,N,11739.2931,W,56.30,306.00,280410,,*2F
$GPRMC,174442.8,A,3327.5283,N,11739.3394,W,57.80,306.70,280410,,*27
$GPRMC,174446.8,A,3327.5651,N,11739.4007,W,53.90,304.40,280410,,*22
$GPRMC,174449.8,A,3327.5884,N,11739.4458,W,51.10,299.80,280410,,*26
$GPRMC,174452.8,A,3327.6088,N,11739.4874,W,45.40,299.40,280410,,*25
$GPRMC,174455.8,A,3327.6252,N,11739.5250,W,42.90,296.80,280410,,*23
$GPRMC,174458.8,A,3327.6422,N,11739.5630,W,43.60,298.30,280410,,*26
$GPRMC,174501.8,A,3327.6578,N,11739.5994,W,40.00,297.50,280410,,*28
$GPRMC,174504.8,A,3327.6736,N,11739.6318,W,40.10,300.90,280410,,*2A
$GPRMC,174507.8,A,3327.6947,N,11739.6671,W,44.00,305.30,280410,,*21
$GPRMC,174510.8,A,3327.7206,N,11739.7039,W,48.30,308.90,280410,,*2B
$GPRMC,174513.8,A,3327.7462,N,11739.7414,W,47.80,308.80,280410,,*22
$GPRMC,174516.8,A,3327.7725,N,11739.7762,W,45.70,311.10,280410,,*29
$GPRMC,174519.8,A,3327.7988,N,11739.8102,W,46.50,312.60,280410,,*25
$GPRMC,174522.8,A,3327.8242,N,11739.8443,W,45.30,310.90,280410,,*27
$GPRMC,174525.8,A,3327.8475,N,11739.8762,W,41.60,311.10,280410,,*2A
$GPRMC,174528.8,A,3327.8709,N,11739.9063,W,40.80,312.70,280410,,*22
$GPRMC,174531.8,A,3327.8936,N,11739.9369,W,41.60,311.60,280410,,*2C
$GPRMC,174534.8,A,3327.9170,N,11739.9667,W,42.60,313.80,280410,,*26
$GPRMC,174537.8,A,3327.9414,N,11739.9969,W,40.80,314.70,280410,,*27
$GPRMC,174540.8,A,3327.9646,N,11740.0265,W,40.60,311.60,280410,,*28
$GPRMC,174543.8,A,3327.9823,N,11740.0626,W,42.60,296.60,280410,,*29
$GPRMC,174546.8,A,3327.9958,N,11740.1052,W,45.70,289.20,280410,,*29
$GPRMC,174549.8,A,3328.0050,N,11740.1494,W,45.30,284.10,280410,,*25
$GPRMC,174552.8,A,3327.9858,N,11740.1921,W,41.10,260.40,280410,,*23
$GPRMC,174555.8,A,3327.9739,N,11740.2271,W,37.00,249.70,280410,,*29
$GPRMC,174600.8,A,3327.9503,N,11740.2829,W,37.00,242.50,280410,,*2F
$GPRMC,174603.8,A,3327.9183,N,11740.3005,W,32.50,220.70,280410,,*21
$GPRMC,174606.8,A,3327.8915,N,11740.3149,W,31.20,211.60,280410,,*2C
$GPRMC,174609.8,A,3327.8712,N,11740.3313,W,28.90,218.60,280410,,*2D
$GPRMC,174612.8,A,3327.8521,N,11740.3527,W,33.20,224.60,280410,,*2A
$GPRMC,174615.8,A,3327.8322,N,11740.3834,W,39.10,234.20,280410,,*2B
$GPRMC,174618.8,A,3327.8174,N,11740.4172,W,37.70,243.40,280410,,*25
$GPRMC,174621.8,A,3327.8058,N,11740.4533,W,39.70,250.70,280410,,*2E
$GPRMC,174624.8,A,3327.7989,N,11740.4957,W,44.90,260.40,280410,,*2B
$GPRMC,174627.8,A,3327.7980,N,11740.5425,W,47.20,268.20,280410,,*2E
$GPRMC,174630.8,A,3327.8063,N,11740.5924,W,50.50,280.40,280410,,*2E
$GPRMC,174633.8,A,3327.8208,N,11740.6408,W,51.40,288.60,280410,,*28
$GPRMC,174636.8,A,3327.8369,N,11740.6891,W,51.50,290.50,280410,,*2C
$GPRMC,174639.8,A,3327.8516,N,11740.7350,W,48.00,290.20,280410,,*20
$GPRMC,174642.8,A,3327.8643,N,11740.7768,W,43.10,286.60,280410,,*29
$GPRMC,174645.8,A,3327.8690,N,11740.8178,W,40.80,275.10,280410,,*29
$GPRMC,174649.8,A,3327.8687,N,11740.8715,W,41.90,264.90,280410,,*26
$GPRMC,174652.8,A,3327.8644,N,11740.9127,W,42.20,261.50,280410,,*24
$GPRMC,174655.8,A,3327.8594,N,11740.9548,W,43.30,262.60,280410,,*20
$GPRMC,174658.8,A,3327.8562,N,11740.9979,W,43.90,266.50,280410,,*27
$GPRMC,174701.8,A,3327.8571,N,11741.0411,W,41.60,275.30,280410,,*2A
$GPRMC,174704.8,A,3327.8618,N,11741.0763,W,32.00,282.50,280410,,*29
$GPRMC,174707.8,A,3327.8687,N,11741.1076,W,33.10,285.90,280410,,*25
$GPRMC,174710.8,A,3327.8777,N,11741.1402,W,34.70,288.00,280410,,*2F
$GPRMC,174713.8,A,3327.8876,N,11741.1724,W,32.70,290.00,280410,,*2A
$GPRMC,174716.8,A,3327.8958,N,11741.2000,W,29.10,288.70,280410,,*22
$GPRMC,174719.8,A,3327.9024,N,11741.2267,W,27.20,287.60,280410,,*2E
$GPRMC,174722.8,A,3327.9097,N,11741.2534,W,30.10,286.70,280410,,*2A
$GPRMC,174725.8,A,3327.9179,N,11741.2838,W,33.30,288.20,280410,,*27
$GPRMC,174728.8,A,3327.9265,N,11741.3166,W,34.50,287.60,280410,,*2D
$GPRMC,174731.8,A,3327.9353,N,11741.3503,W,35.60,286.20,280410,,*21
$GPRMC,174734.8,A,3327.9445,N,11741.3842,W,35.80,288.20,280410,,*2C
$GPRMC,174737.8,A,3327.9542,N,11741.4181,W,35.90,287.20,280410,,*26
$GPRMC,174740.8,A,3327.9624,N,11741.4530,W,36.10,284.50,280410,,*24
$GPRMC,174743.8,A,3327.9695,N,11741.4877,W,36.20,282.30,280410,,*20
$GPRMC,174746.8,A,3327.9750,N,11741.5228,W,35.50,281.30,280410,,*2B
$GPRMC,174749.8,A,3327.9799,N,11741.5516,W,25.10,283.20,280410,,*2D
$GPRMC,174752.8,A,3327.9839,N,11741.5679,W,14.20,288.60,280410,,*26
$GPRMC,174807.8,A,3327.9869,N,11741.5853,W,13.80,288.50,280410,,*24
$GPRMC,174810.8,A,3327.9938,N,11741.6031,W,21.40,294.50,280410,,*28
$GPRMC,174813.8,A,3328.0006,N,11741.6244,W,24.60,292.70,280410,,*2A
$GPRMC,174816.8,A,3328.0081,N,11741.6453,W,22.00,290.80,280410,,*2D
$GPRMC,174819.8,A,3328.0149,N,11741.6670,W,23.80,294.20,280410,,*23
$GPRMC,174822.8,A,3328.0241,N,11741.6902,W,26.90,294.20,280410,,*2E
$GPRMC,174825.8,A,3328.0338,N,11741.7149,W,27.80,296.30,280410,,*23
$GPRMC,174828.8,A,3328.0435,N,11741.7414,W,30.40,292.20,280410,,*26
$GPRMC,174831.8,A,3328.0497,N,11741.7733,W,34.20,276.90,280410,,*23
$GPRMC,174834.8,A,3328.0502,N,11741.8081,W,34.90,264.70,280410,,*2C
$GPRMC,174837.8,A,3328.0447,N,11741.8424,W,35.40,258.00,280410,,*20
$GPRMC,174840.8,A,3328.0380,N,11741.8773,W,35.80,256.70,280410,,*28
$GPRMC,174843.8,A,3328.0312,N,11741.9125,W,36.60,257.30,280410,,*2C
$GPRMC,174846.8,A,3328.0246,N,11741.9467,W,33.30,257.00,280410,,*29
$GPRMC,174849.8,A,3328.0183,N,11741.9758,W,27.70,254.40,280410,,*25
$GPRMC,174852.8,A,3328.0143,N,11741.9981,W,23.00,254.70,280410,,*29
$GPRMC,174855.8,A,3328.0126,N,11742.0053,W,6.60,255.30,280410,,*15
$GPRMC,174919.8,A,3328.0100,N,11742.0114,W,6.20,251.30,280410,,*1A
$GPRMC,174922.8,A,3328.0061,N,11742.0321,W,17.30,258.20,280410,,*29
$GPRMC,174925.8,A,3327.9990,N,11742.0690,W,30.70,257.40,280410,,*28
$GPRMC,174928.8,A,3327.9950,N,11742.1004,W,31.40,258.80,280410,,*22
$GPRMC,174931.8,A,3327.9899,N,11742.1301,W,30.50,258.70,280410,,*27
$GPRMC,174934.8,A,3327.9834,N,11742.1616,W,30.90,257.50,280410,,*27
$GPRMC,174937.8,A,3327.9767,N,11742.1927,W,32.80,256.80,280410,,*2F
$GPRMC,174940.8,A,3327.9690,N,11742.2240,W,33.50,255.40,280410,,*2C
$GPRMC,174943.8,A,3327.9623,N,11742.2573,W,34.00,255.70,280410,,*21
$GPRMC,174946.8,A,3327.9554,N,11742.2940,W,35.90,257.00,280410,,*26
$GPRMC,174949.8,A,3327.9485,N,11742.3305,W,36.90,255.70,280410,,*28
$GPRMC,174952.8,A,3327.9409,N,11742.3669,W,38.00,258.10,280410,,*25
$GPRMC,174955.8,A,3327.9355,N,11742.4067,W,41.70,261.50,280410,,*24
$GPRMC,174958.8,A,3327.9308,N,11742.4472,W,40.30,266.20,280410,,*24
$GPRMC,175001.8,A,3327.9311,N,11742.4863,W,38.30,274.40,280410,,*2E
$GPRMC,175004.8,A,3327.9385,N,11742.5249,W,40.20,284.40,280410,,*24
$GPRMC,175007.8,A,3327.9518,N,11742.5646,W,44.00,291.60,280410,,*2E
$GPRMC,175010.8,A,3327.9741,N,11742.6010,W,45.10,309.10,280410,,*27
$GPRMC,175013.8,A,3328.0043,N,11742.6319,W,46.80,319.50,280410,,*22
$GPRMC,175016.8,A,3328.0409,N,11742.6544,W,47.90,330.80,280410,,*25
$GPRMC,175019.8,A,3328.0759,N,11742.6776,W,47.50,330.80,280410,,*23
$GPRMC,175022.8,A,3328.1097,N,11742.6999,W,46.00,331.10,280410,,*2C
$GPRMC,175025.8,A,3328.1421,N,11742.7216,W,44.10,330.90,280410,,*25
$GPRMC,175028.8,A,3328.1723,N,11742.7413,W,38.30,331.50,280410,,*2E
$GPRMC,175031.8,A,3328.1955,N,11742.7570,W,30.00,332.20,280410,,*22
$GPRMC,175034.8,A,3328.2145,N,11742.7702,W,24.30,331.20,280410,,*2F
$GPRMC,175037.8,A,3328.2320,N,11742.7822,W,25.30,330.40,280410,,*26
$GPRMC,175040.8,A,3328.2524,N,11742.7962,W,29.60,330.50,280410,,*29
$GPRMC,175043.8,A,3328.2778,N,11742.8128,W,36.40,331.20,280410,,*22
$GPRMC,175046.8,A,3328.3076,N,11742.8308,W,39.60,332.30,280410,,*20
$GPRMC,175049.8,A,3328.3384,N,11742.8503,W,43.10,332.70,280410,,*22
$GPRMC,175052.8,A,3328.3714,N,11742.8720,W,44.60,331.90,280410,,*2B
$GPRMC,175055.8,A,3328.4041,N,11742.8942,W,44.50,331.30,280410,,*2F
$GPRMC,175058.8,A,3328.4352,N,11742.9159,W,42.50,330.90,280410,,*2D
$GPRMC,175101.8,A,3328.4659,N,11742.9362,W,41.40,330.60,280410,,*29
$GPRMC,175104.8,A,3328.4939,N,11742.9559,W,37.80,329.20,280410,,*2A
$GPRMC,175107.8,A,3328.5192,N,11742.9711,W,32.60,330.20,280410,,*2C
$GPRMC,175110.8,A,3328.5385,N,11742.9818,W,26.30,335.00,280410,,*2F
$GPRMC,175113.8,A,3328.5543,N,11742.9911,W,22.20,336.50,280410,,*2B
$GPRMC,175116.8,A,3328.5637,N,11742.9967,W,16.70,336.90,280410,,*21
