NMEA Sentence Code,UTC Time,Status,Latitude,Latitude Direction,Longitude,Longitude Direction,Speed (knots),Track Angle (degrees true),Date,MagneticVariation,Magnetic Variation Direction,[FAA Mode]-Optional,Checksum
$GPRMC,183958.60,A,3342.848516,N,11709.143615,W,8.1,96.5,010110,,,A*7C
$GPRMC,184001.70,A,3342.848396,N,11709.133025,W,10.3,96.5,010110,,,A*48
$GPRMC,184004.80,A,3342.848299,N,11709.121071,W,11.7,87.6,010110,,,A*48
$GPRMC,184016.80,A,3342.847002,N,11709.103754,W,11.4,102.1,010110,,,A*7C
$GPRMC,184019.90,A,3342.846230,N,11709.094227,W,9.4,93.3,010110,,,A*7C
$GPRMC,184022.90,A,3342.846550,N,11709.085562,W,8.1,87.1,010110,,,A*70
$GPRMC,184053.00,A,3342.846084,N,11709.075341,W,6.3,74.9,010110,,,A*73
$GPRMC,184056.10,A,3342.851510,N,11709.067922,W,9.8,33.5,010110,,,A*7E
$GPRMC,184059.20,A,3342.866071,N,11709.062955,W,18.6,13.5,010110,,,A*4D
$GPRMC,184102.30,A,3342.888397,N,11709.061726,W,25.8,3.7,010110,,,A*72
$GPRMC,184105.40,A,3342.913202,N,11709.062323,W,30.8,2.4,010110,,,A*78
$GPRMC,184108.40,A,3342.938677,N,11709.061411,W,29.7,2.6,010110,,,A*7A
$GPRMC,184111.40,A,3342.963365,N,11709.061082,W,29.1,0.8,010110,,,A*7E
$GPRMC,184114.40,A,3342.988609,N,11709.059894,W,28.6,4.3,010110,,,A*7C
$GPRMC,184117.50,A,3343.013479,N,11709.056964,W,29.6,7.5,010110,,,A*74
$GPRMC,184120.60,A,3343.039050,N,11709.052108,W,29.1,10.2,010110,,,A*44
$GPRMC,184123.60,A,3343.064651,N,11709.046078,W,29.4,11.7,010110,,,A*4A
$GPRMC,184126.60,A,3343.091159,N,11709.040004,W,30.6,11.0,010110,,,A*4A
$GPRMC,184129.60,A,3343.115178,N,11709.032539,W,30.0,16.1,010110,,,A*45
$GPRMC,184132.60,A,3343.139542,N,11709.023528,W,31.3,17.3,010110,,,A*4D
$GPRMC,184135.80,A,3343.166307,N,11709.013571,W,31.7,16.4,010110,,,A*44
$GPRMC,184139.00,A,3343.192636,N,11709.003709,W,31.2,18.3,010110,,,A*4C
$GPRMC,184142.20,A,3343.217596,N,11708.997226,W,27.5,9.3,010110,,,A*78
$GPRMC,184145.30,A,3343.240005,N,11708.994800,W,24.8,5.8,010110,,,A*77
$GPRMC,184148.50,A,3343.261279,N,11708.991115,W,23.9,7.8,010110,,,A*7A
$GPRMC,184151.70,A,3343.277048,N,11708.988719,W,18.3,7.4,010110,,,A*7B
$GPRMC,184154.90,A,3343.285994,N,11708.989323,W,12.3,3.5,010110,,,A*76
$GPRMC,184157.10,A,3343.293592,N,11708.994288,W,16.2,330.0,010110,,,A*7F
$GPRMC,184200.20,A,3343.298789,N,11709.008854,W,18.3,282.0,010110,,,A*7F
$GPRMC,184203.30,A,3343.299503,N,11709.030887,W,24.2,270.7,010110,,,A*7D
$GPRMC,184206.40,A,3343.298770,N,11709.057356,W,28.1,268.1,010110,,,A*7E
$GPRMC,184209.40,A,3343.298602,N,11709.086939,W,29.8,270.9,010110,,,A*73
$GPRMC,184212.40,A,3343.298168,N,11709.118552,W,32.1,268.3,010110,,,A*75
$GPRMC,184215.40,A,3343.298143,N,11709.150686,W,32.0,268.3,010110,,,A*7C
$GPRMC,184218.50,A,3343.299242,N,11709.180256,W,28.0,269.3,010110,,,A*7D
$GPRMC,184221.50,A,3343.297691,N,11709.201491,W,17.6,266.3,010110,,,A*71
$GPRMC,184224.50,A,3343.296657,N,11709.215159,W,12.2,267.9,010110,,,A*71
$GPRMC,184227.60,A,3343.296296,N,11709.222791,W,6.0,263.8,010110,,,A*4C
$GPRMC,184233.60,A,3343.297262,N,11709.231764,W,9.0,276.6,010110,,,A*4E
$GPRMC,184236.70,A,3343.297193,N,11709.246397,W,17.7,269.8,010110,,,A*77
$GPRMC,184239.80,A,3343.296971,N,11709.269542,W,24.4,266.6,010110,,,A*73
$GPRMC,184242.80,A,3343.295350,N,11709.297838,W,30.0,264.2,010110,,,A*73
$GPRMC,184245.80,A,3343.293769,N,11709.329146,W,33.9,266.0,010110,,,A*72
$GPRMC,184248.00,A,3343.293097,N,11709.352956,W,33.2,267.5,010110,,,A*7B
$GPRMC,184251.00,A,3343.292468,N,11709.386987,W,34.5,267.8,010110,,,A*7E
$GPRMC,184254.00,A,3343.292140,N,11709.420677,W,33.1,269.4,010110,,,A*7E
$GPRMC,184257.00,A,3343.292433,N,11709.454630,W,33.7,272.4,010110,,,A*70
$GPRMC,184300.00,A,3343.292699,N,11709.488676,W,34.2,269.6,010110,,,A*78
$GPRMC,184303.20,A,3343.291099,N,11709.524528,W,33.3,266.5,010110,,,A*79
$GPRMC,184306.30,A,3343.290152,N,11709.558306,W,32.3,268.5,010110,,,A*74
$GPRMC,184309.40,A,3343.287454,N,11709.590839,W,32.2,263.3,010110,,,A*76
$GPRMC,184312.50,A,3343.284364,N,11709.623225,W,32.9,260.6,010110,,,A*7B
$GPRMC,184315.60,A,3343.277605,N,11709.656747,W,34.8,253.7,010110,,,A*74
$GPRMC,184318.60,A,3343.267484,N,11709.690511,W,35.4,249.3,010110,,,A*7A
$GPRMC,184321.60,A,3343.254089,N,11709.724700,W,37.4,241.2,010110,,,A*7E
$GPRMC,184324.70,A,3343.236864,N,11709.757369,W,36.6,236.3,010110,,,A*78
$GPRMC,184327.80,A,3343.216390,N,11709.791047,W,40.8,234.7,010110,,,A*7A
$GPRMC,184330.80,A,3343.195450,N,11709.826823,W,44.2,236.0,010110,,,A*7D
$GPRMC,184333.80,A,3343.174576,N,11709.863390,W,43.9,235.8,010110,,,A*71
$GPRMC,184336.90,A,3343.153651,N,11709.899702,W,44.0,235.1,010110,,,A*7B
$GPRMC,184339.90,A,3343.133255,N,11709.935770,W,43.0,236.1,010110,,,A*74
$GPRMC,184342.90,A,3343.112880,N,11709.970970,W,42.5,235.7,010110,,,A*77
$GPRMC,184345.90,A,3343.094686,N,11710.008386,W,43.7,241.4,010110,,,A*79
$GPRMC,184349.00,A,3343.079635,N,11710.049541,W,43.4,248.9,010110,,,A*78
$GPRMC,184352.00,A,3343.069544,N,11710.091702,W,43.1,257.1,010110,,,A*75
$GPRMC,184355.10,A,3343.063778,N,11710.135028,W,41.8,263.6,010110,,,A*7F
$GPRMC,184358.20,A,3343.062224,N,11710.177850,W,42.5,269.2,010110,,,A*7D
$GPRMC,184401.20,A,3343.062479,N,11710.221408,W,42.8,271.4,010110,,,A*7B
$GPRMC,184404.30,A,3343.063735,N,11710.265297,W,43.3,272.0,010110,,,A*78
$GPRMC,184407.00,A,3343.063855,N,11710.303767,W,42.1,270.3,010110,,,A*78
$GPRMC,184410.20,A,3343.064137,N,11710.348168,W,41.4,270.3,010110,,,A*76
$GPRMC,184413.80,A,3343.064719,N,11710.396373,W,40.5,271.6,010110,,,A*7A
$GPRMC,184416.00,A,3343.065281,N,11710.426203,W,39.3,272.5,010110,,,A*70
$GPRMC,184419.50,A,3343.066241,N,11710.470713,W,35.7,271.0,010110,,,A*7C
$GPRMC,184423.00,A,3343.066314,N,11710.506319,W,25.5,270.6,010110,,,A*7B
$GPRMC,184426.20,A,3343.065200,N,11710.528806,W,17.7,263.9,010110,,,A*7C
$GPRMC,184429.80,A,3343.063601,N,11710.546975,W,14.4,262.0,010110,,,A*7F
$GPRMC,184432.00,A,3343.062184,N,11710.559494,W,19.5,262.2,010110,,,A*74
$GPRMC,184435.50,A,3343.058099,N,11710.586551,W,27.2,258.2,010110,,,A*7B
$GPRMC,184439.00,A,3343.050167,N,11710.621043,W,33.6,252.1,010110,,,A*7A
$GPRMC,184442.20,A,3343.038502,N,11710.656667,W,37.9,246.3,010110,,,A*71
$GPRMC,184445.80,A,3343.021431,N,11710.697888,W,39.7,240.2,010110,,,A*70
$GPRMC,184448.00,A,3343.009124,N,11710.723758,W,40.4,238.8,010110,,,A*7A
$GPRMC,184451.50,A,3342.988705,N,11710.763849,W,39.5,238.3,010110,,,A*7C
$GPRMC,184455.00,A,3342.968263,N,11710.803308,W,39.5,238.3,010110,,,A*71
$GPRMC,184458.20,A,3342.950924,N,11710.840301,W,40.6,243.3,010110,,,A*72
$GPRMC,184501.80,A,3342.934910,N,11710.884571,W,41.3,249.9,010110,,,A*7D
$GPRMC,184519.70,A,3342.909861,N,11711.105000,W,29.2,270.4,010110,,,A*78
$GPRMC,184522.70,A,3342.910278,N,11711.136488,W,31.9,270.2,010110,,,A*7A
$GPRMC,184525.80,A,3342.910927,N,11711.171456,W,34.6,271.4,010110,,,A*7E
$GPRMC,184529.00,A,3342.910768,N,11711.206648,W,32.5,271.6,010110,,,A*76
$GPRMC,184532.10,A,3342.910691,N,11711.239005,W,29.9,269.6,010110,,,A*76
$GPRMC,184535.20,A,3342.911445,N,11711.269583,W,30.0,270.0,010110,,,A*79
$GPRMC,184538.20,A,3342.912190,N,11711.300198,W,28.5,269.8,010110,,,A*76
$GPRMC,184541.30,A,3342.912002,N,11711.327339,W,25.3,268.6,010110,,,A*7B
$GPRMC,184544.40,A,3342.911165,N,11711.350942,W,21.4,268.7,010110,,,A*7E
$GPRMC,184547.50,A,3342.910400,N,11711.369959,W,17.3,268.3,010110,,,A*7D
$GPRMC,184550.50,A,3342.910751,N,11711.385505,W,14.0,271.9,010110,,,A*79
$GPRMC,184553.60,A,3342.910940,N,11711.398466,W,13.4,271.9,010110,,,A*7C
$GPRMC,184556.70,A,3342.905203,N,11711.409271,W,12.0,215.6,010110,,,A*77
$GPRMC,184559.80,A,3342.891062,N,11711.405791,W,21.3,158.9,010110,,,A*7F
$GPRMC,184602.90,A,3342.870717,N,11711.396544,W,28.5,160.4,010110,,,A*77
$GPRMC,184606.00,A,3342.846060,N,11711.385456,W,32.5,161.5,010110,,,A*73
$GPRMC,184609.10,A,3342.817155,N,11711.370633,W,37.6,159.1,010110,,,A*7C
$GPRMC,184612.10,A,3342.786581,N,11711.356691,W,39.7,158.2,010110,,,A*7D
$GPRMC,184615.30,A,3342.751936,N,11711.341438,W,43.3,160.4,010110,,,A*71
$GPRMC,184618.30,A,3342.717584,N,11711.326894,W,42.6,160.7,010110,,,A*77
$GPRMC,184621.40,A,3342.682250,N,11711.310856,W,44.1,159.1,010110,,,A*7F
$GPRMC,184624.50,A,3342.645820,N,11711.292278,W,46.6,155.4,010110,,,A*7C
$GPRMC,184627.70,A,3342.607571,N,11711.270893,W,50.4,154.4,010110,,,A*75
$GPRMC,184630.70,A,3342.567272,N,11711.247749,W,52.6,153.3,010110,,,A*7E
$GPRMC,184633.90,A,3342.527635,N,11711.224196,W,51.3,152.1,010110,,,A*74
$GPRMC,184637.00,A,3342.489713,N,11711.198839,W,50.6,151.5,010110,,,A*72
$GPRMC,184640.10,A,3342.452467,N,11711.174138,W,48.6,150.9,010110,,,A*7B
$GPRMC,184643.20,A,3342.415708,N,11711.147434,W,49.9,148.7,010110,,,A*72
$GPRMC,184646.30,A,3342.380933,N,11711.120551,W,47.9,147.8,010110,,,A*76
$GPRMC,184649.40,A,3342.345223,N,11711.093821,W,50.9,148.4,010110,,,A*7B
$GPRMC,184652.50,A,3342.307502,N,11711.064853,W,53.2,147.9,010110,,,A*75
$GPRMC,184655.60,A,3342.268942,N,11711.035811,W,54.6,148.2,010110,,,A*74
$GPRMC,184658.60,A,3342.229856,N,11711.007421,W,54.3,149.5,010110,,,A*75
$GPRMC,184701.70,A,3342.189457,N,11710.980232,W,53.6,151.2,010110,,,A*72
$GPRMC,184704.80,A,3342.148504,N,11710.952827,W,55.1,151.3,010110,,,A*73
$GPRMC,184707.90,A,3342.107026,N,11710.924888,W,54.5,151.0,010110,,,A*7D
$GPRMC,184710.90,A,3342.067123,N,11710.898564,W,54.3,150.7,010110,,,A*71
$GPRMC,184714.00,A,3342.025693,N,11710.870943,W,55.4,150.8,010110,,,A*70
$GPRMC,184717.00,A,3341.984947,N,11710.843430,W,55.2,150.9,010110,,,A*7A
$GPRMC,184720.20,A,3341.942567,N,11710.815273,W,55.5,150.3,010110,,,A*77
$GPRMC,184723.30,A,3341.900117,N,11710.787111,W,55.7,150.9,010110,,,A*7B
$GPRMC,184726.40,A,3341.858456,N,11710.759597,W,56.9,151.7,010110,,,A*7E
$GPRMC,184729.40,A,3341.817138,N,11710.732126,W,56.5,151.1,010110,,,A*7E
$GPRMC,184732.50,A,3341.775118,N,11710.703869,W,56.8,149.9,010110,,,A*70
$GPRMC,184735.60,A,3341.732689,N,11710.676448,W,56.3,150.4,010110,,,A*7A
$GPRMC,184738.60,A,3341.691356,N,11710.648899,W,55.6,150.8,010110,,,A*7F
$GPRMC,184741.70,A,3341.650485,N,11710.621348,W,55.8,151.5,010110,,,A*7E
$GPRMC,184744.70,A,3341.609253,N,11710.593362,W,56.7,150.9,010110,,,A*79
$GPRMC,184747.80,A,3341.567224,N,11710.565155,W,55.4,150.4,010110,,,A*7C
$GPRMC,184750.90,A,3341.525886,N,11710.537982,W,55.6,151.1,010110,,,A*7C
$GPRMC,184753.90,A,3341.484548,N,11710.510516,W,55.9,150.8,010110,,,A*79
$GPRMC,184757.00,A,3341.443441,N,11710.483462,W,55.2,152.0,010110,,,A*7F
$GPRMC,184800.00,A,3341.402650,N,11710.456012,W,54.5,151.3,010110,,,A*78
$GPRMC,184803.10,A,3341.361870,N,11710.429117,W,54.1,150.6,010110,,,A*78
$GPRMC,184806.20,A,3341.320695,N,11710.401398,W,55.0,151.1,010110,,,A*77
$GPRMC,184809.30,A,3341.278201,N,11710.374389,W,56.8,152.9,010110,,,A*79
$GPRMC,184812.40,A,3341.233454,N,11710.347876,W,55.5,153.7,010110,,,A*77
$GPRMC,184815.50,A,3341.187562,N,11710.324844,W,57.6,158.7,010110,,,A*77
$GPRMC,184818.60,A,3341.140408,N,11710.305644,W,58.1,162.7,010110,,,A*73
$GPRMC,184821.70,A,3341.094088,N,11710.289491,W,56.1,164.0,010110,,,A*7C
$GPRMC,184824.70,A,3341.046888,N,11710.277302,W,57.0,168.1,010110,,,A*7F
$GPRMC,184827.80,A,3340.999407,N,11710.268551,W,55.4,172.7,010110,,,A*77
$GPRMC,184830.80,A,3340.951890,N,11710.263299,W,56.3,176.1,010110,,,A*79
$GPRMC,184833.90,A,3340.902438,N,11710.261202,W,56.8,178.0,010110,,,A*77
$GPRMC,184836.90,A,3340.853872,N,11710.261174,W,56.9,179.7,010110,,,A*70
$GPRMC,184840.00,A,3340.805795,N,11710.261418,W,57.3,180.3,010110,,,A*7B
$GPRMC,184843.00,A,3340.757764,N,11710.261514,W,57.3,180.5,010110,,,A*75
$GPRMC,184846.00,A,3340.709690,N,11710.261829,W,58.3,179.7,010110,,,A*79
$GPRMC,184849.10,A,3340.660261,N,11710.262081,W,56.8,180.0,010110,,,A*7E
$GPRMC,184852.20,A,3340.611698,N,11710.262264,W,56.2,179.8,010110,,,A*7E
$GPRMC,184855.30,A,3340.563590,N,11710.261988,W,55.1,180.1,010110,,,A*70
$GPRMC,184858.40,A,3340.517408,N,11710.262189,W,55.1,180.9,010110,,,A*7B
$GPRMC,184901.40,A,3340.470638,N,11710.262503,W,56.4,180.2,010110,,,A*7C
$GPRMC,184904.60,A,3340.420609,N,11710.263112,W,57.0,179.8,010110,,,A*70
$GPRMC,184907.70,A,3340.371261,N,11710.263323,W,57.5,179.9,010110,,,A*7F
$GPRMC,184910.90,A,3340.320555,N,11710.263431,W,57.3,180.3,010110,,,A*7D
$GPRMC,184913.90,A,3340.272146,N,11710.263730,W,56.6,179.8,010110,,,A*75
$GPRMC,184916.00,A,3340.238864,N,11710.264131,W,58.4,180.4,010110,,,A*78
$GPRMC,184919.10,A,3340.189927,N,11710.264683,W,56.6,180.4,010110,,,A*7B
$GPRMC,184922.10,A,3340.140709,N,11710.265191,W,57.4,180.3,010110,,,A*75
$GPRMC,184925.10,A,3340.092380,N,11710.265809,W,57.7,180.7,010110,,,A*76
$GPRMC,184928.20,A,3340.044161,N,11710.265586,W,58.3,179.5,010110,,,A*7B
$GPRMC,184931.20,A,3339.995574,N,11710.265454,W,57.1,179.5,010110,,,A*7B
$GPRMC,184934.30,A,3339.945023,N,11710.265772,W,57.8,180.3,010110,,,A*7B
$GPRMC,184937.30,A,3339.895643,N,11710.266163,W,57.9,180.4,010110,,,A*77
$GPRMC,184940.40,A,3339.845102,N,11710.266422,W,58.1,180.1,010110,,,A*7D
$GPRMC,184943.50,A,3339.794721,N,11710.267268,W,58.3,180.7,010110,,,A*76
$GPRMC,184946.80,A,3339.741440,N,11710.268175,W,58.7,180.4,010110,,,A*75
$GPRMC,184949.80,A,3339.691562,N,11710.270216,W,59.2,182.2,010110,,,A*78
$GPRMC,184952.90,A,3339.640294,N,11710.271843,W,58.7,181.3,010110,,,A*7C
$GPRMC,184955.90,A,3339.590795,N,11710.273530,W,59.1,181.8,010110,,,A*76
$GPRMC,184958.00,A,3339.557395,N,11710.275530,W,59.9,183.2,010110,,,A*7B
$GPRMC,185001.00,A,3339.508183,N,11710.277620,W,59.2,182.3,010110,,,A*7B
$GPRMC,185004.10,A,3339.457525,N,11710.279817,W,59.4,182.4,010110,,,A*79
$GPRMC,185007.20,A,3339.406033,N,11710.281592,W,59.8,182.4,010110,,,A*74
$GPRMC,185010.20,A,3339.357133,N,11710.282391,W,58.0,181.0,010110,,,A*78
$GPRMC,185013.30,A,3339.308180,N,11710.283068,W,57.0,180.9,010110,,,A*7B
$GPRMC,185016.30,A,3339.260104,N,11710.283382,W,56.8,180.5,010110,,,A*7F
$GPRMC,185019.30,A,3339.212699,N,11710.283151,W,56.2,179.7,010110,,,A*74
$GPRMC,185022.50,A,3339.163463,N,11710.283276,W,55.3,178.7,010110,,,A*7D
$GPRMC,185025.60,A,3339.115778,N,11710.283485,W,55.6,180.7,010110,,,A*79
$GPRMC,185028.60,A,3339.069761,N,11710.283317,W,54.8,179.9,010110,,,A*7D
$GPRMC,185031.70,A,3339.022826,N,11710.282954,W,55.3,180.2,010110,,,A*7C
$GPRMC,185034.70,A,3338.975760,N,11710.282783,W,55.9,179.7,010110,,,A*73
$GPRMC,185037.80,A,3338.927540,N,11710.282656,W,57.4,181.1,010110,,,A*7F
$GPRMC,185040.80,A,3338.880451,N,11710.282132,W,56.8,179.8,010110,,,A*74
$GPRMC,185043.80,A,3338.833081,N,11710.281716,W,56.8,179.9,010110,,,A*74
$GPRMC,185046.80,A,3338.785528,N,11710.281364,W,56.8,179.8,010110,,,A*75
$GPRMC,185049.80,A,3338.737863,N,11710.281178,W,56.7,179.6,010110,,,A*7F
$GPRMC,185052.90,A,3338.689718,N,11710.281165,W,56.5,180.4,010110,,,A*79
$GPRMC,185055.90,A,3338.642970,N,11710.281077,W,55.4,179.8,010110,,,A*73
$GPRMC,185058.90,A,3338.596351,N,11710.281142,W,55.0,179.9,010110,,,A*7F
$GPRMC,185102.00,A,3338.548789,N,11710.281157,W,55.4,180.3,010110,,,A*76
$GPRMC,185105.00,A,3338.501549,N,11710.280782,W,55.2,179.1,010110,,,A*7F
$GPRMC,185108.10,A,3338.453780,N,11710.280596,W,56.1,179.8,010110,,,A*7C
$GPRMC,185111.20,A,3338.405970,N,11710.280280,W,56.3,179.7,010110,,,A*78
$GPRMC,185114.20,A,3338.358190,N,11710.280062,W,57.0,179.8,010110,,,A*77
$GPRMC,185117.20,A,3338.310304,N,11710.279879,W,57.6,179.8,010110,,,A*75
$GPRMC,185120.30,A,3338.261210,N,11710.279860,W,58.1,180.2,010110,,,A*7F
$GPRMC,185123.30,A,3338.212033,N,11710.279756,W,57.4,180.1,010110,,,A*78
$GPRMC,185126.30,A,3338.163881,N,11710.279794,W,57.5,179.7,010110,,,A*76
$GPRMC,185129.40,A,3338.116218,N,11710.279680,W,57.0,179.7,010110,,,A*77
$GPRMC,185132.40,A,3338.068823,N,11710.279453,W,56.8,179.7,010110,,,A*72
$GPRMC,185135.40,A,3338.021493,N,11710.279165,W,56.3,179.8,010110,,,A*7B
$GPRMC,185138.40,A,3337.973208,N,11710.278823,W,57.0,180.1,010110,,,A*74
$GPRMC,185141.50,A,3337.924564,N,11710.278497,W,57.3,179.5,010110,,,A*76
$GPRMC,185144.60,A,3337.876114,N,11710.278347,W,57.3,179.7,010110,,,A*7D
$GPRMC,185147.60,A,3337.828187,N,11710.278607,W,57.0,180.1,010110,,,A*7D
$GPRMC,185150.60,A,3337.779785,N,11710.278784,W,57.5,180.6,010110,,,A*7C
$GPRMC,185153.60,A,3337.731077,N,11710.278772,W,57.6,179.7,010110,,,A*74
$GPRMC,185156.70,A,3337.682136,N,11710.278601,W,57.7,179.8,010110,,,A*76
$GPRMC,185159.80,A,3337.633091,N,11710.278750,W,57.7,180.9,010110,,,A*72
$GPRMC,185202.80,A,3337.584452,N,11710.278808,W,57.2,180.1,010110,,,A*74
$GPRMC,185205.90,A,3337.535054,N,11710.279511,W,57.8,180.7,010110,,,A*72
$GPRMC,185208.00,A,3337.501678,N,11710.279905,W,58.2,180.9,010110,,,A*7B
$GPRMC,185211.10,A,3337.452293,N,11710.280525,W,57.8,180.3,010110,,,A*73
$GPRMC,185214.10,A,3337.403176,N,11710.281201,W,57.6,180.7,010110,,,A*70
$GPRMC,185217.20,A,3337.353860,N,11710.281905,W,57.6,180.2,010110,,,A*76
$GPRMC,185220.30,A,3337.303948,N,11710.282734,W,57.9,181.0,010110,,,A*7E
$GPRMC,185223.30,A,3337.254991,N,11710.283003,W,58.4,180.2,010110,,,A*79
$GPRMC,185226.30,A,3337.205548,N,11710.282612,W,58.3,179.9,010110,,,A*7D
$GPRMC,185229.40,A,3337.156436,N,11710.281527,W,58.1,179.0,010110,,,A*75
$GPRMC,185232.40,A,3337.107486,N,11710.280648,W,57.0,178.9,010110,,,A*7D
$GPRMC,185235.50,A,3337.058119,N,11710.279655,W,57.2,179.0,010110,,,A*73
$GPRMC,185238.60,A,3337.008602,N,11710.278399,W,58.1,178.7,010110,,,A*7B
$GPRMC,185241.70,A,3336.958690,N,11710.277146,W,58.1,178.2,010110,,,A*78
$GPRMC,185244.70,A,3336.909363,N,11710.276159,W,58.4,179.1,010110,,,A*78
$GPRMC,185247.80,A,3336.859661,N,11710.275507,W,59.0,179.6,010110,,,A*79
$GPRMC,185250.80,A,3336.809968,N,11710.275650,W,59.0,180.1,010110,,,A*7C
$GPRMC,185253.90,A,3336.759814,N,11710.276791,W,58.9,181.5,010110,,,A*7C
$GPRMC,185256.00,A,3336.726628,N,11710.278071,W,58.3,182.5,010110,,,A*77
$GPRMC,185259.00,A,3336.676967,N,11710.280888,W,59.1,182.6,010110,,,A*71
$GPRMC,185302.10,A,3336.626546,N,11710.283736,W,59.3,182.1,010110,,,A*79
$GPRMC,185305.20,A,3336.575238,N,11710.285703,W,59.7,182.0,010110,,,A*73
$GPRMC,185308.20,A,3336.524615,N,11710.287950,W,60.1,182.5,010110,,,A*72
$GPRMC,185311.20,A,3336.474251,N,11710.290340,W,60.4,181.8,010110,,,A*7C
$GPRMC,185314.30,A,3336.423879,N,11710.292590,W,59.3,182.6,010110,,,A*73
$GPRMC,185317.30,A,3336.373904,N,11710.295552,W,58.9,182.9,010110,,,A*74
$GPRMC,185320.40,A,3336.323018,N,11710.298221,W,58.5,182.2,010110,,,A*7F
$GPRMC,185323.40,A,3336.273491,N,11710.300885,W,59.0,182.3,010110,,,A*7C
$GPRMC,185326.40,A,3336.224543,N,11710.305264,W,58.6,186.1,010110,,,A*74
$GPRMC,185329.40,A,3336.176198,N,11710.314877,W,58.0,189.2,010110,,,A*7F
$GPRMC,185332.40,A,3336.128692,N,11710.331372,W,59.0,197.1,010110,,,A*77
$GPRMC,185335.40,A,3336.082882,N,11710.352587,W,58.8,203.6,010110,,,A*77
$GPRMC,185338.50,A,3336.039041,N,11710.379620,W,59.5,209.3,010110,,,A*78
$GPRMC,185341.50,A,3335.996721,N,11710.411977,W,60.0,213.5,010110,,,A*7E
$GPRMC,185344.60,A,3335.954271,N,11710.445731,W,59.6,214.9,010110,,,A*7C
$GPRMC,185347.70,A,3335.911567,N,11710.479130,W,59.2,213.3,010110,,,A*7E
$GPRMC,185350.80,A,3335.869011,N,11710.512595,W,59.2,212.4,010110,,,A*7C
$GPRMC,185353.80,A,3335.828057,N,11710.544749,W,55.6,213.5,010110,,,A*70
$GPRMC,185356.90,A,3335.787200,N,11710.576980,W,57.1,214.2,010110,,,A*71
$GPRMC,185359.00,A,3335.760363,N,11710.598203,W,57.1,213.2,010110,,,A*7D
$GPRMC,185402.00,A,3335.719817,N,11710.630204,W,57.8,213.9,010110,,,A*76
$GPRMC,185405.00,A,3335.677492,N,11710.663589,W,59.7,213.2,010110,,,A*77
$GPRMC,185408.10,A,3335.634425,N,11710.695919,W,60.6,211.2,010110,,,A*75
$GPRMC,185411.10,A,3335.589640,N,11710.725212,W,58.9,207.9,010110,,,A*7B
$GPRMC,185414.30,A,3335.541927,N,11710.753037,W,60.0,204.7,010110,,,A*7D
$GPRMC,185417.80,A,3335.488598,N,11710.780086,W,58.4,201.3,010110,,,A*73
$GPRMC,185420.10,A,3335.454606,N,11710.794893,W,57.3,199.0,010110,,,A*7B
$GPRMC,185423.40,A,3335.404025,N,11710.814555,W,56.4,196.3,010110,,,A*75
$GPRMC,185426.40,A,3335.358217,N,11710.828370,W,56.5,193.6,010110,,,A*72
$GPRMC,185429.50,A,3335.310025,N,11710.840873,W,57.8,191.6,010110,,,A*7B
$GPRMC,185432.50,A,3335.261738,N,11710.850291,W,58.6,187.9,010110,,,A*73
$GPRMC,185435.60,A,3335.211149,N,11710.856757,W,59.1,184.6,010110,,,A*73
$GPRMC,185438.70,A,3335.160951,N,11710.860611,W,59.2,182.2,010110,,,A*7C
$GPRMC,185441.80,A,3335.109445,N,11710.861060,W,59.7,179.1,010110,,,A*79
$GPRMC,185444.90,A,3335.058916,N,11710.860377,W,57.0,179.9,010110,,,A*76
$GPRMC,185447.00,A,3335.025341,N,11710.860413,W,56.5,181.4,010110,,,A*75
$GPRMC,185450.10,A,3334.976212,N,11710.859945,W,56.6,179.2,010110,,,A*7D
$GPRMC,185453.10,A,3334.927965,N,11710.859443,W,56.7,179.8,010110,,,A*71
$GPRMC,185456.10,A,3334.880597,N,11710.859595,W,56.5,180.3,010110,,,A*7C
$GPRMC,185459.20,A,3334.831601,N,11710.859607,W,57.5,180.1,010110,,,A*7D
$GPRMC,185502.20,A,3334.784331,N,11710.859472,W,56.3,179.3,010110,,,A*76
$GPRMC,185505.40,A,3334.736234,N,11710.859295,W,54.4,179.7,010110,,,A*74
$GPRMC,185508.40,A,3334.689812,N,11710.859507,W,55.0,179.6,010110,,,A*7A
$GPRMC,185511.50,A,3334.641877,N,11710.859750,W,56.4,180.5,010110,,,A*76
$GPRMC,185514.60,A,3334.592207,N,11710.859540,W,56.6,180.3,010110,,,A*77
$GPRMC,185517.70,A,3334.543874,N,11710.859621,W,55.8,180.6,010110,,,A*7B
$GPRMC,185520.80,A,3334.494596,N,11710.859825,W,57.1,179.2,010110,,,A*79
$GPRMC,185523.80,A,3334.446206,N,11710.859452,W,58.1,180.3,010110,,,A*7F
$GPRMC,185527.00,A,3334.395731,N,11710.859295,W,58.1,179.7,010110,,,A*74
$GPRMC,185530.10,A,3334.345052,N,11710.859623,W,57.9,180.1,010110,,,A*72
$GPRMC,185533.10,A,3334.297331,N,11710.859722,W,57.4,179.4,010110,,,A*77
$GPRMC,185536.10,A,3334.249885,N,11710.859474,W,56.5,179.6,010110,,,A*77
$GPRMC,185539.10,A,3334.202325,N,11710.859285,W,56.5,179.2,010110,,,A*7A
$GPRMC,185542.20,A,3334.153844,N,11710.859120,W,57.3,179.3,010110,,,A*74
$GPRMC,185545.30,A,3334.105085,N,11710.859363,W,57.2,179.1,010110,,,A*72
$GPRMC,185548.30,A,3334.057179,N,11710.859818,W,57.1,179.7,010110,,,A*79
$GPRMC,185551.30,A,3334.009913,N,11710.859921,W,56.1,180.3,010110,,,A*76
$GPRMC,185554.30,A,3333.962632,N,11710.859527,W,56.1,179.7,010110,,,A*74
$GPRMC,185557.30,A,3333.915224,N,11710.859572,W,55.9,179.2,010110,,,A*7A
$GPRMC,185600.30,A,3333.867497,N,11710.859063,W,56.5,180.2,010110,,,A*7D
$GPRMC,185603.40,A,3333.819332,N,11710.859005,W,57.1,179.9,010110,,,A*70
$GPRMC,185606.40,A,3333.770645,N,11710.858672,W,58.1,179.5,010110,,,A*74
$GPRMC,185609.60,A,3333.721246,N,11710.858846,W,58.0,179.8,010110,,,A*7F
$GPRMC,185612.60,A,3333.672384,N,11710.858649,W,57.4,180.0,010110,,,A*79
$GPRMC,185615.70,A,3333.623094,N,11710.858185,W,57.8,179.2,010110,,,A*76
$GPRMC,185618.80,A,3333.572152,N,11710.857794,W,59.0,180.0,010110,,,A*73
$GPRMC,185621.80,A,3333.522758,N,11710.857839,W,59.0,179.7,010110,,,A*79
$GPRMC,185624.90,A,3333.472526,N,11710.858096,W,58.6,180.7,010110,,,A*71
$GPRMC,185627.00,A,3333.439262,N,11710.858085,W,57.4,179.9,010110,,,A*74
$GPRMC,185630.00,A,3333.389905,N,11710.855833,W,58.4,178.9,010110,,,A*72
$GPRMC,185633.10,A,3333.340624,N,11710.853956,W,58.1,178.6,010110,,,A*77
$GPRMC,185636.20,A,3333.291049,N,11710.855722,W,57.9,182.8,010110,,,A*76
$GPRMC,185639.20,A,3333.241867,N,11710.861387,W,58.2,186.5,010110,,,A*71
$GPRMC,185642.30,A,3333.192122,N,11710.869668,W,57.9,188.2,010110,,,A*78
$GPRMC,185645.40,A,3333.143711,N,11710.878736,W,57.0,189.3,010110,,,A*71
$GPRMC,185648.50,A,3333.095013,N,11710.887867,W,55.6,188.9,010110,,,A*76
$GPRMC,185651.60,A,3333.047863,N,11710.895501,W,55.9,185.5,010110,,,A*7D
$GPRMC,185654.60,A,3333.001061,N,11710.898011,W,54.7,180.9,010110,,,A*7F
$GPRMC,185657.70,A,3332.953703,N,11710.895422,W,55.4,175.8,010110,,,A*71
$GPRMC,185700.70,A,3332.906755,N,11710.887289,W,55.3,168.9,010110,,,A*7F
$GPRMC,185703.90,A,3332.858602,N,11710.873279,W,56.3,164.1,010110,,,A*78
$GPRMC,185706.00,A,3332.827817,N,11710.860701,W,56.6,160.5,010110,,,A*7B
$GPRMC,185709.10,A,3332.782834,N,11710.838527,W,56.9,155.8,010110,,,A*7B
$GPRMC,185712.10,A,3332.739259,N,11710.810890,W,57.8,149.4,010110,,,A*7A
$GPRMC,185715.20,A,3332.698049,N,11710.777453,W,57.6,143.3,010110,,,A*79
$GPRMC,185718.30,A,3332.660029,N,11710.738982,W,58.0,136.9,010110,,,A*7F
$GPRMC,185721.50,A,3332.624263,N,11710.696983,W,57.2,134.3,010110,,,A*7E
$GPRMC,185724.50,A,3332.591326,N,11710.656698,W,56.3,134.0,010110,,,A*7C
$GPRMC,185727.60,A,3332.556202,N,11710.619019,W,54.3,140.8,010110,,,A*7D
$GPRMC,185730.60,A,3332.518903,N,11710.586798,W,54.1,146.1,010110,,,A*7D
$GPRMC,185733.70,A,3332.479640,N,11710.557413,W,54.4,149.1,010110,,,A*77
$GPRMC,185736.80,A,3332.438718,N,11710.528632,W,56.6,149.1,010110,,,A*7D
$GPRMC,185739.80,A,3332.396845,N,11710.498397,W,58.3,148.2,010110,,,A*7F
$GPRMC,185742.90,A,3332.354111,N,11710.466688,W,60.3,148.1,010110,,,A*76
$GPRMC,185745.90,A,3332.311567,N,11710.436654,W,58.7,149.1,010110,,,A*7F
$GPRMC,185748.90,A,3332.269246,N,11710.407884,W,57.5,150.8,010110,,,A*75
$GPRMC,185752.00,A,3332.226589,N,11710.379453,W,57.0,150.7,010110,,,A*7A
$GPRMC,185755.00,A,3332.184919,N,11710.352117,W,56.2,150.9,010110,,,A*72
$GPRMC,185758.10,A,3332.143231,N,11710.324969,W,56.2,151.4,010110,,,A*78
$GPRMC,185801.10,A,3332.102380,N,11710.297365,W,56.8,150.6,010110,,,A*73
$GPRMC,185804.10,A,3332.060527,N,11710.269396,W,56.4,151.3,010110,,,A*7D
$GPRMC,185807.20,A,3332.018468,N,11710.241456,W,56.1,150.7,010110,,,A*79
$GPRMC,185810.30,A,3331.977715,N,11710.213839,W,55.5,150.6,010110,,,A*70
$GPRMC,185813.30,A,3331.935750,N,11710.185790,W,56.2,151.6,010110,,,A*71
$GPRMC,185816.40,A,3331.894185,N,11710.158320,W,56.8,150.7,010110,,,A*72
$GPRMC,185819.50,A,3331.851377,N,11710.129685,W,56.7,150.9,010110,,,A*77
$GPRMC,185822.60,A,3331.808948,N,11710.101422,W,54.4,150.9,010110,,,A*72
$GPRMC,185825.60,A,3331.768607,N,11710.073494,W,56.1,149.7,010110,,,A*70
$GPRMC,185828.80,A,3331.726359,N,11710.043802,W,56.5,149.7,010110,,,A*73
$GPRMC,185831.80,A,3331.684857,N,11710.015171,W,56.2,150.6,010110,,,A*77
$GPRMC,185834.90,A,3331.641765,N,11709.986533,W,57.2,150.5,010110,,,A*7F
$GPRMC,185837.00,A,3331.613806,N,11709.967924,W,56.5,150.7,010110,,,A*79
$GPRMC,185840.00,A,3331.571494,N,11709.939670,W,57.1,150.5,010110,,,A*7B
$GPRMC,185843.10,A,3331.528895,N,11709.911201,W,56.7,151.1,010110,,,A*72
$GPRMC,185846.20,A,3331.486438,N,11709.883052,W,56.5,150.6,010110,,,A*70
$GPRMC,185849.30,A,3331.443529,N,11709.854475,W,56.6,150.5,010110,,,A*7D
$GPRMC,185852.40,A,3331.401232,N,11709.826562,W,56.5,150.7,010110,,,A*78
$GPRMC,185855.50,A,3331.358234,N,11709.797917,W,56.8,150.9,010110,,,A*7B
$GPRMC,185858.70,A,3331.314108,N,11709.768660,W,57.3,150.0,010110,,,A*7C
$GPRMC,185901.80,A,3331.270657,N,11709.740059,W,57.0,150.7,010110,,,A*72
$GPRMC,185904.90,A,3331.226888,N,11709.710639,W,57.2,150.8,010110,,,A*71
$GPRMC,185907.10,A,3331.197673,N,11709.691253,W,57.5,150.4,010110,,,A*72
$GPRMC,185910.20,A,3331.154656,N,11709.662686,W,56.4,151.1,010110,,,A*7B
$GPRMC,185913.30,A,3331.111708,N,11709.633830,W,57.2,150.8,010110,,,A*7A
$GPRMC,185916.40,A,3331.068742,N,11709.605426,W,56.8,151.3,010110,,,A*76
$GPRMC,185919.50,A,3331.026005,N,11709.577456,W,56.4,150.8,010110,,,A*71
$GPRMC,185922.60,A,3330.983074,N,11709.548600,W,56.9,150.2,010110,,,A*71
$GPRMC,185925.70,A,3330.941440,N,11709.520643,W,56.3,150.5,010110,,,A*7E
$GPRMC,185928.70,A,3330.899492,N,11709.493471,W,57.2,151.8,010110,,,A*7E
$GPRMC,185931.80,A,3330.855184,N,11709.468335,W,57.5,155.9,010110,,,A*7A
$GPRMC,185934.80,A,3330.809873,N,11709.445769,W,57.2,158.2,010110,,,A*74
$GPRMC,185938.00,A,3330.763287,N,11709.424355,W,57.5,159.0,010110,,,A*7A
$GPRMC,185941.00,A,3330.717236,N,11709.403252,W,58.3,159.1,010110,,,A*76
$GPRMC,185944.00,A,3330.671552,N,11709.382531,W,57.6,158.9,010110,,,A*78
$GPRMC,185947.10,A,3330.626538,N,11709.362093,W,56.5,159.1,010110,,,A*7C
$GPRMC,185950.10,A,3330.581978,N,11709.341608,W,56.0,158.5,010110,,,A*79
$GPRMC,185953.20,A,3330.537734,N,11709.321370,W,55.3,158.9,010110,,,A*72
$GPRMC,185956.30,A,3330.493831,N,11709.301321,W,54.9,159.7,010110,,,A*71
$GPRMC,185959.40,A,3330.449968,N,11709.281312,W,55.0,159.2,010110,,,A*77
$GPRMC,190002.40,A,3330.405512,N,11709.260449,W,55.7,158.6,010110,,,A*79
$GPRMC,190005.30,A,3330.364609,N,11709.242093,W,55.8,158.9,010110,,,A*73
$GPRMC,190008.50,A,3330.318352,N,11709.221323,W,55.4,158.9,010110,,,A*79
$GPRMC,190011.00,A,3330.281557,N,11709.204565,W,55.0,159.7,010110,,,A*7E
$GPRMC,190014.20,A,3330.235049,N,11709.183817,W,56.3,159.2,010110,,,A*7D
$GPRMC,190017.80,A,3330.183210,N,11709.160155,W,57.2,158.5,010110,,,A*70
$GPRMC,190020.00,A,3330.150118,N,11709.144680,W,56.8,159.0,010110,,,A*7F
$GPRMC,190023.40,A,3330.099598,N,11709.121453,W,57.1,158.9,010110,,,A*7F
$GPRMC,190026.50,A,3330.052721,N,11709.098435,W,58.0,156.9,010110,,,A*7F
$GPRMC,190029.70,A,3330.006655,N,11709.073102,W,58.4,154.4,010110,,,A*7E
$GPRMC,190032.70,A,3329.962469,N,11709.045851,W,58.4,151.3,010110,,,A*72
$GPRMC,190035.80,A,3329.918699,N,11709.015845,W,60.4,149.4,010110,,,A*7F
$GPRMC,190038.80,A,3329.876698,N,11708.984551,W,59.9,147.1,010110,,,A*7E
$GPRMC,190041.90,A,3329.835485,N,11708.950132,W,59.3,144.0,010110,,,A*78
$GPRMC,190044.90,A,3329.794784,N,11708.913429,W,59.8,141.7,010110,,,A*7A
$GPRMC,190047.00,A,3329.768975,N,11708.888089,W,59.6,140.1,010110,,,A*77
$GPRMC,190050.00,A,3329.730111,N,11708.849348,W,60.2,140.3,010110,,,A*79
$GPRMC,190053.00,A,3329.690493,N,11708.811081,W,61.2,142.7,010110,,,A*72
$GPRMC,190056.00,A,3329.648485,N,11708.775937,W,61.3,147.7,010110,,,A*78
$GPRMC,190059.00,A,3329.604183,N,11708.746507,W,60.3,152.5,010110,,,A*74
$GPRMC,190102.10,A,3329.557022,N,11708.721140,W,61.4,156.6,010110,,,A*72
$GPRMC,190105.10,A,3329.509056,N,11708.700398,W,61.1,161.3,010110,,,A*7D
$GPRMC,190108.20,A,3329.458723,N,11708.681700,W,61.3,163.0,010110,,,A*7D
$GPRMC,190111.20,A,3329.409159,N,11708.664511,W,61.7,163.7,010110,,,A*70
$GPRMC,190114.20,A,3329.360277,N,11708.647636,W,60.7,164.2,010110,,,A*76
$GPRMC,190117.20,A,3329.311768,N,11708.629627,W,60.1,163.6,010110,,,A*75
$GPRMC,190120.30,A,3329.260771,N,11708.610227,W,61.4,163.1,010110,,,A*72
$GPRMC,190123.40,A,3329.210470,N,11708.591286,W,60.5,163.8,010110,,,A*7B
$GPRMC,190126.50,A,3329.160720,N,11708.573655,W,60.6,163.0,010110,,,A*70
$GPRMC,190129.50,A,3329.112347,N,11708.555908,W,59.8,163.1,010110,,,A*79
$GPRMC,190132.60,A,3329.062789,N,11708.538235,W,59.3,163.4,010110,,,A*70
$GPRMC,190135.60,A,3329.014207,N,11708.520616,W,60.4,163.6,010110,,,A*76
$GPRMC,190138.70,A,3328.965252,N,11708.502890,W,60.6,162.8,010110,,,A*79
$GPRMC,190141.70,A,3328.916980,N,11708.485495,W,59.7,163.0,010110,,,A*72
$GPRMC,190144.80,A,3328.868239,N,11708.468938,W,59.1,163.7,010110,,,A*71
$GPRMC,190147.90,A,3328.818899,N,11708.452242,W,58.9,164.3,010110,,,A*71
$GPRMC,190150.00,A,3328.786075,N,11708.439921,W,59.9,162.9,010110,,,A*72
$GPRMC,190153.10,A,3328.738239,N,11708.422792,W,59.0,163.2,010110,,,A*70
$GPRMC,190156.20,A,3328.688765,N,11708.406035,W,58.4,164.5,010110,,,A*79
$GPRMC,190159.30,A,3328.639008,N,11708.387410,W,59.3,163.1,010110,,,A*79
$GPRMC,190202.50,A,3328.588006,N,11708.368136,W,59.6,163.3,010110,,,A*72
$GPRMC,190205.70,A,3328.538133,N,11708.349613,W,59.9,163.0,010110,,,A*74
$GPRMC,190208.70,A,3328.489240,N,11708.331944,W,59.3,163.5,010110,,,A*78
$GPRMC,190211.80,A,3328.440508,N,11708.314384,W,58.4,163.9,010110,,,A*7A
$GPRMC,190214.90,A,3328.392890,N,11708.297782,W,58.8,162.4,010110,,,A*72
$GPRMC,190217.90,A,3328.346660,N,11708.281119,W,56.8,163.8,010110,,,A*79
$GPRMC,190221.00,A,3328.300273,N,11708.264121,W,56.1,163.1,010110,,,A*71
$GPRMC,190224.00,A,3328.255228,N,11708.248216,W,56.3,162.8,010110,,,A*78
$GPRMC,190227.00,A,3328.210343,N,11708.233570,W,54.8,165.9,010110,,,A*72
$GPRMC,190230.00,A,3328.165391,N,11708.221607,W,54.7,168.4,010110,,,A*75
$GPRMC,190233.00,A,3328.119977,N,11708.211724,W,54.8,171.2,010110,,,A*7D
$GPRMC,190236.00,A,3328.074641,N,11708.204639,W,54.8,172.7,010110,,,A*77
$GPRMC,190239.00,A,3328.029494,N,11708.200732,W,54.1,177.1,010110,,,A*7E
$GPRMC,190242.10,A,3327.983480,N,11708.197813,W,54.7,178.4,010110,,,A*7D
$GPRMC,190245.10,A,3327.938575,N,11708.197608,W,52.9,179.9,010110,,,A*71
$GPRMC,190248.10,A,3327.892972,N,11708.199698,W,55.1,182.6,010110,,,A*75
$GPRMC,190251.10,A,3327.847612,N,11708.203249,W,54.1,183.9,010110,,,A*7B
$GPRMC,190254.20,A,3327.801763,N,11708.205379,W,54.4,181.9,010110,,,A*7B
$GPRMC,190257.20,A,3327.755206,N,11708.204989,W,55.1,178.5,010110,,,A*7A
$GPRMC,190300.70,A,3327.700520,N,11708.201708,W,56.6,177.4,010110,,,A*77
$GPRMC,190303.70,A,3327.654741,N,11708.195857,W,55.5,174.9,010110,,,A*74
$GPRMC,190306.70,A,3327.608225,N,11708.191213,W,54.8,175.9,010110,,,A*7C
$GPRMC,190309.70,A,3327.562504,N,11708.186716,W,54.4,175.5,010110,,,A*7E
$GPRMC,190312.70,A,3327.516916,N,11708.182041,W,54.6,174.4,010110,,,A*7B
$GPRMC,190315.70,A,3327.472126,N,11708.177284,W,53.7,175.6,010110,,,A*70
$GPRMC,190318.70,A,3327.427156,N,11708.172268,W,54.1,175.5,010110,,,A*7F
$GPRMC,190321.80,A,3327.381432,N,11708.167585,W,55.0,174.3,010110,,,A*71
$GPRMC,190324.90,A,3327.335367,N,11708.162919,W,54.7,174.8,010110,,,A*7C
$GPRMC,190327.90,A,3327.289091,N,11708.158328,W,56.1,175.0,010110,,,A*7F
$GPRMC,190330.90,A,3327.241817,N,11708.153480,W,57.2,175.2,010110,,,A*75
$GPRMC,190333.90,A,3327.193867,N,11708.148205,W,57.1,175.2,010110,,,A*7F
$GPRMC,190336.90,A,3327.145306,N,11708.143573,W,57.8,175.8,010110,,,A*73
$GPRMC,190340.00,A,3327.095780,N,11708.140791,W,58.1,178.8,010110,,,A*7B
$GPRMC,190343.60,A,3327.037004,N,11708.142422,W,59.5,184.2,010110,,,A*78
$GPRMC,190346.80,A,3326.984482,N,11708.147642,W,59.6,187.9,010110,,,A*73
$GPRMC,190349.80,A,3326.933410,N,11708.156990,W,60.5,191.0,010110,,,A*7C
$GPRMC,190352.90,A,3326.881903,N,11708.171153,W,61.9,194.8,010110,,,A*72
$GPRMC,190355.00,A,3326.847212,N,11708.181657,W,61.7,194.8,010110,,,A*7F
$GPRMC,190358.20,A,3326.793751,N,11708.198542,W,63.9,195.2,010110,,,A*7C
$GPRMC,190401.20,A,3326.741561,N,11708.214807,W,63.7,195.3,010110,,,A*7D
$GPRMC,190404.30,A,3326.688342,N,11708.231600,W,63.1,194.9,010110,,,A*79
$GPRMC,190407.50,A,3326.634383,N,11708.249067,W,62.4,195.7,010110,,,A*75
$GPRMC,190410.60,A,3326.581968,N,11708.265673,W,62.4,195.0,010110,,,A*78
$GPRMC,190413.70,A,3326.530390,N,11708.282444,W,60.6,195.0,010110,,,A*72
$GPRMC,190416.80,A,3326.480567,N,11708.299523,W,60.8,196.6,010110,,,A*7D
$GPRMC,190419.00,A,3326.444468,N,11708.313301,W,61.6,199.4,010110,,,A*7B
$GPRMC,190422.20,A,3326.393656,N,11708.335091,W,60.8,200.6,010110,,,A*73
$GPRMC,190425.40,A,3326.343287,N,11708.358611,W,59.6,202.8,010110,,,A*7A
$GPRMC,190428.50,A,3326.296614,N,11708.383046,W,59.4,204.7,010110,,,A*78
$GPRMC,190431.60,A,3326.250457,N,11708.408883,W,58.8,206.5,010110,,,A*74
$GPRMC,190434.70,A,3326.205280,N,11708.435507,W,57.7,206.7,010110,,,A*71
$GPRMC,190437.70,A,3326.161625,N,11708.464463,W,59.1,209.7,010110,,,A*78
$GPRMC,190440.80,A,3326.118715,N,11708.494688,W,59.1,211.7,010110,,,A*7A
$GPRMC,190443.80,A,3326.075773,N,11708.526184,W,59.3,211.9,010110,,,A*7C
$GPRMC,190446.90,A,3326.033816,N,11708.559368,W,60.1,213.7,010110,,,A*7A
$GPRMC,190449.90,A,3325.992681,N,11708.594209,W,60.7,215.9,010110,,,A*7D
$GPRMC,190453.00,A,3325.952173,N,11708.631120,W,59.3,218.6,010110,,,A*71
$GPRMC,190456.10,A,3325.912672,N,11708.669849,W,60.3,220.8,010110,,,A*73
$GPRMC,190459.10,A,3325.874285,N,11708.709283,W,58.8,220.8,010110,,,A*7A
$GPRMC,190502.20,A,3325.836809,N,11708.751608,W,59.9,223.0,010110,,,A*7F
$GPRMC,190506.20,A,3325.790627,N,11708.806380,W,58.6,225.3,010110,,,A*79
$GPRMC,190509.40,A,3325.753781,N,11708.850614,W,58.9,225.0,010110,,,A*75
$GPRMC,190512.60,A,3325.717083,N,11708.895065,W,58.9,225.7,010110,,,A*76
$GPRMC,190516.10,A,3325.676359,N,11708.943381,W,58.6,223.8,010110,,,A*72
$GPRMC,190519.60,A,3325.634140,N,11708.988781,W,57.8,220.0,010110,,,A*7F
$GPRMC,190522.70,A,3325.594986,N,11709.027235,W,57.7,218.8,010110,,,A*76
$GPRMC,190525.80,A,3325.555841,N,11709.062452,W,58.1,216.4,010110,,,A*74
$GPRMC,190528.80,A,3325.515698,N,11709.093859,W,57.1,213.1,010110,,,A*71
$GPRMC,190531.80,A,3325.474750,N,11709.123544,W,57.8,209.7,010110,,,A*75
$GPRMC,190534.80,A,3325.433040,N,11709.152099,W,57.2,208.4,010110,,,A*7E
$GPRMC,190537.80,A,3325.391251,N,11709.181502,W,57.9,210.8,010110,,,A*77
$GPRMC,190540.80,A,3325.350120,N,11709.210166,W,57.5,211.3,010110,,,A*74
$GPRMC,190543.90,A,3325.308648,N,11709.237847,W,56.2,209.3,010110,,,A*72
$GPRMC,190546.90,A,3325.267569,N,11709.266390,W,56.8,210.1,010110,,,A*7A
$GPRMC,190549.90,A,3325.225833,N,11709.295034,W,57.5,208.7,010110,,,A*73
$GPRMC,190552.90,A,3325.184736,N,11709.325141,W,57.5,212.6,010110,,,A*78
$GPRMC,190555.90,A,3325.143545,N,11709.352960,W,56.7,210.2,010110,,,A*7C
$GPRMC,190558.90,A,3325.102691,N,11709.383037,W,57.5,211.3,010110,,,A*7A
$GPRMC,190601.90,A,3325.061273,N,11709.413650,W,58.2,211.3,010110,,,A*78
$GPRMC,190604.00,A,3325.032460,N,11709.434497,W,59.3,212.1,010110,,,A*7B
$GPRMC,190607.10,A,3324.989800,N,11709.465574,W,58.6,211.9,010110,,,A*7C
$GPRMC,190610.20,A,3324.946887,N,11709.497146,W,59.1,211.4,010110,,,A*76
$GPRMC,190613.20,A,3324.904592,N,11709.527895,W,58.9,212.0,010110,,,A*79
$GPRMC,190616.30,A,3324.861974,N,11709.558925,W,57.9,212.5,010110,,,A*73
$GPRMC,190619.30,A,3324.819443,N,11709.590023,W,59.2,212.4,010110,,,A*75
$GPRMC,190622.50,A,3324.774371,N,11709.623718,W,59.2,212.2,010110,,,A*7B
$GPRMC,190625.60,A,3324.731796,N,11709.655804,W,59.5,212.3,010110,,,A*76
$GPRMC,190628.60,A,3324.689116,N,11709.687068,W,58.8,212.5,010110,,,A*70
$GPRMC,190631.70,A,3324.646724,N,11709.718438,W,57.9,211.0,010110,,,A*73
$GPRMC,190634.80,A,3324.605317,N,11709.749305,W,57.0,212.5,010110,,,A*78
$GPRMC,190637.90,A,3324.563425,N,11709.780371,W,57.0,211.6,010110,,,A*79
$GPRMC,190640.90,A,3324.522912,N,11709.810461,W,55.7,211.9,010110,,,A*7F
$GPRMC,190643.00,A,3324.495770,N,11709.830431,W,55.9,212.1,010110,,,A*70
$GPRMC,190646.10,A,3324.455887,N,11709.861493,W,55.8,213.4,010110,,,A*76
$GPRMC,190649.20,A,3324.415727,N,11709.894178,W,56.4,214.6,010110,,,A*7B
$GPRMC,190652.30,A,3324.375943,N,11709.927149,W,56.7,214.8,010110,,,A*7B
$GPRMC,190655.40,A,3324.336610,N,11709.959995,W,56.2,215.3,010110,,,A*7A
$GPRMC,190658.50,A,3324.296443,N,11709.993984,W,58.5,215.6,010110,,,A*73
$GPRMC,190701.60,A,3324.256057,N,11710.027650,W,57.4,215.2,010110,,,A*72
$GPRMC,190704.70,A,3324.214834,N,11710.061615,W,58.4,214.8,010110,,,A*7A
$GPRMC,190707.40,A,3324.178576,N,11710.091350,W,59.4,214.1,010110,,,A*7B
$GPRMC,190710.90,A,3324.129556,N,11710.129529,W,60.7,212.0,010110,,,A*72
$GPRMC,190713.40,A,3324.093169,N,11710.156916,W,60.2,212.0,010110,,,A*79
$GPRMC,190716.60,A,3324.047585,N,11710.190030,W,59.2,210.7,010110,,,A*79
$GPRMC,190720.20,A,3323.997248,N,11710.224635,W,59.5,209.2,010110,,,A*78
$GPRMC,190723.70,A,3323.945766,N,11710.257826,W,59.8,207.8,010110,,,A*79
$GPRMC,190726.90,A,3323.897833,N,11710.286638,W,60.6,206.1,010110,,,A*72
$GPRMC,190729.40,A,3323.858710,N,11710.309318,W,61.1,205.6,010110,,,A*7E
$GPRMC,190732.60,A,3323.809648,N,11710.336578,W,61.1,203.5,010110,,,A*77
$GPRMC,190735.70,A,3323.761966,N,11710.362040,W,60.0,202.8,010110,,,A*70
$GPRMC,190738.80,A,3323.713996,N,11710.385900,W,58.8,201.7,010110,,,A*73
$GPRMC,190741.90,A,3323.665625,N,11710.406126,W,60.3,198.6,010110,,,A*79
$GPRMC,190744.90,A,3323.616632,N,11710.422883,W,61.6,195.7,010110,,,A*76
$GPRMC,190748.00,A,3323.567837,N,11710.438349,W,60.0,194.3,010110,,,A*79
$GPRMC,190751.00,A,3323.518693,N,11710.450601,W,59.3,191.0,010110,,,A*71
$GPRMC,190754.00,A,3323.468678,N,11710.461744,W,60.3,190.3,010110,,,A*7D
$GPRMC,190757.10,A,3323.418500,N,11710.470336,W,60.2,187.9,010110,,,A*78
$GPRMC,190800.10,A,3323.367095,N,11710.477524,W,60.8,185.5,010110,,,A*75
$GPRMC,190803.20,A,3323.315120,N,11710.480613,W,60.3,181.0,010110,,,A*7A
$GPRMC,190806.20,A,3323.262665,N,11710.482481,W,62.0,180.9,010110,,,A*7A
$GPRMC,190809.30,A,3323.210812,N,11710.482655,W,60.5,179.4,010110,,,A*78
$GPRMC,190812.30,A,3323.159202,N,11710.480195,W,61.9,176.8,010110,,,A*70
$GPRMC,190815.40,A,3323.107542,N,11710.474929,W,60.4,173.7,010110,,,A*7A
$GPRMC,190818.40,A,3323.056085,N,11710.467287,W,60.6,172.9,010110,,,A*7C
$GPRMC,190821.50,A,3323.004843,N,11710.456797,W,61.2,171.0,010110,,,A*7B
$GPRMC,190824.50,A,3322.955024,N,11710.443872,W,59.7,168.0,010110,,,A*7D
$GPRMC,190827.50,A,3322.905746,N,11710.429236,W,60.4,164.8,010110,,,A*73
$GPRMC,190830.60,A,3322.856826,N,11710.411994,W,60.6,163.9,010110,,,A*74
$GPRMC,190833.60,A,3322.808620,N,11710.393577,W,59.9,161.9,010110,,,A*7F
$GPRMC,190836.60,A,3322.761641,N,11710.374220,W,59.5,159.4,010110,,,A*7B
$GPRMC,190839.60,A,3322.715840,N,11710.353974,W,59.6,157.0,010110,,,A*7E
$GPRMC,190842.70,A,3322.669596,N,11710.330520,W,59.0,155.3,010110,,,A*70
$GPRMC,190845.70,A,3322.625843,N,11710.305098,W,58.6,153.3,010110,,,A*7B
$GPRMC,190848.70,A,3322.582096,N,11710.277299,W,60.1,150.3,010110,,,A*70
$GPRMC,190851.70,A,3322.538657,N,11710.247206,W,60.0,147.8,010110,,,A*7B
$GPRMC,190854.80,A,3322.496018,N,11710.214294,W,60.4,145.6,010110,,,A*7C
$GPRMC,190857.80,A,3322.454374,N,11710.179681,W,60.5,144.4,010110,,,A*72
$GPRMC,190900.80,A,3322.413869,N,11710.143188,W,59.6,142.5,010110,,,A*7C
$GPRMC,190903.90,A,3322.374469,N,11710.104817,W,60.1,139.9,010110,,,A*75
$GPRMC,190906.90,A,3322.336567,N,11710.064399,W,60.6,136.3,010110,,,A*71
$GPRMC,190909.90,A,3322.299157,N,11710.022296,W,61.7,135.9,010110,,,A*78
$GPRMC,190912.90,A,3322.261871,N,11709.983281,W,58.5,138.0,010110,,,A*78
$GPRMC,190915.00,A,3322.237637,N,11709.956625,W,59.8,136.2,010110,,,A*7B
$GPRMC,190918.00,A,3322.201274,N,11709.916403,W,58.5,137.2,010110,,,A*7F
$GPRMC,190921.10,A,3322.163824,N,11709.877806,W,58.2,139.5,010110,,,A*7D
$GPRMC,190924.10,A,3322.125340,N,11709.842021,W,57.8,142.0,010110,,,A*74
$GPRMC,190927.20,A,3322.086224,N,11709.809599,W,57.6,146.4,010110,,,A*78
$GPRMC,190930.20,A,3322.046002,N,11709.775904,W,57.6,145.9,010110,,,A*76
$GPRMC,190933.30,A,3322.004416,N,11709.743690,W,57.7,148.2,010110,,,A*73
$GPRMC,190936.40,A,3321.961031,N,11709.714563,W,58.5,151.0,010110,,,A*73
$GPRMC,190939.50,A,3321.917746,N,11709.687849,W,57.1,153.5,010110,,,A*79
$GPRMC,190942.50,A,3321.873951,N,11709.663326,W,56.3,155.2,010110,,,A*74
$GPRMC,190945.60,A,3321.830248,N,11709.640676,W,55.0,156.7,010110,,,A*73
$GPRMC,190948.80,A,3321.786198,N,11709.621172,W,54.1,158.9,010110,,,A*78
$GPRMC,190952.00,A,3321.741203,N,11709.603515,W,53.1,161.7,010110,,,A*77
$GPRMC,190955.00,A,3321.699286,N,11709.588551,W,52.3,164.0,010110,,,A*78
$GPRMC,190958.00,A,3321.656171,N,11709.573543,W,54.1,164.4,010110,,,A*7A
$GPRMC,191001.20,A,3321.609621,N,11709.558820,W,55.6,164.1,010110,,,A*76
$GPRMC,191004.20,A,3321.563086,N,11709.549447,W,57.6,168.8,010110,,,A*7D
$GPRMC,191007.30,A,3321.514036,N,11709.540265,W,58.1,172.3,010110,,,A*73
$GPRMC,191011.10,A,3321.451773,N,11709.532789,W,58.4,175.1,010110,,,A*72
$GPRMC,191014.60,A,3321.396167,N,11709.529510,W,56.1,177.7,010110,,,A*78
$GPRMC,191018.20,A,3321.341216,N,11709.529082,W,56.5,179.7,010110,,,A*7B
$GPRMC,191021.40,A,3321.288542,N,11709.529345,W,61.6,179.3,010110,,,A*7E
$GPRMC,191024.30,A,3321.236745,N,11709.530599,W,61.5,180.0,010110,,,A*75
$GPRMC,191027.40,A,3321.185310,N,11709.532817,W,61.6,180.6,010110,,,A*72
$GPRMC,191030.40,A,3321.133845,N,11709.534494,W,61.5,180.7,010110,,,A*71
$GPRMC,191033.40,A,3321.082921,N,11709.536071,W,60.8,180.8,010110,,,A*74
$GPRMC,191036.40,A,3321.032326,N,11709.537924,W,60.5,180.7,010110,,,A*7D
$GPRMC,191039.40,A,3320.981792,N,11709.539455,W,60.4,181.0,010110,,,A*7B
$GPRMC,191042.50,A,3320.929733,N,11709.540752,W,60.0,181.1,010110,,,A*70
$GPRMC,191045.60,A,3320.879122,N,11709.541562,W,59.6,180.8,010110,,,A*72
$GPRMC,191048.70,A,3320.827783,N,11709.542884,W,59.7,180.0,010110,,,A*77
$GPRMC,191051.70,A,3320.777984,N,11709.543410,W,59.8,180.1,010110,,,A*72
$GPRMC,191054.80,A,3320.727017,N,11709.543780,W,59.5,179.1,010110,,,A*7F
$GPRMC,191057.90,A,3320.674573,N,11709.545281,W,59.6,180.6,010110,,,A*7D
$GPRMC,191100.00,A,3320.640482,N,11709.546756,W,60.1,181.7,010110,,,A*7E
$GPRMC,191103.10,A,3320.588218,N,11709.548731,W,59.4,181.4,010110,,,A*7D
$GPRMC,191106.20,A,3320.537828,N,11709.550121,W,59.0,181.0,010110,,,A*78
$GPRMC,191109.30,A,3320.486393,N,11709.551391,W,57.8,182.2,010110,,,A*79
$GPRMC,191112.50,A,3320.435475,N,11709.551138,W,58.3,180.4,010110,,,A*73
$GPRMC,191115.50,A,3320.386391,N,11709.553347,W,58.0,181.7,010110,,,A*7F
$GPRMC,191118.60,A,3320.337881,N,11709.553578,W,58.5,181.1,010110,,,A*78
$GPRMC,191121.70,A,3320.287509,N,11709.555146,W,57.4,180.5,010110,,,A*70
$GPRMC,191124.80,A,3320.238550,N,11709.556234,W,57.8,179.9,010110,,,A*71
$GPRMC,191127.80,A,3320.190164,N,11709.557425,W,57.1,180.5,010110,,,A*74
$GPRMC,191130.90,A,3320.141266,N,11709.558928,W,58.2,181.3,010110,,,A*7A
$GPRMC,191133.00,A,3320.107538,N,11709.559866,W,58.3,181.9,010110,,,A*7F
$GPRMC,191136.10,A,3320.056989,N,11709.561007,W,57.9,180.2,010110,,,A*73
$GPRMC,191139.20,A,3320.007241,N,11709.562090,W,57.9,181.0,010110,,,A*7A
$GPRMC,191142.30,A,3319.958075,N,11709.563057,W,57.9,181.2,010110,,,A*73
$GPRMC,191145.40,A,3319.908686,N,11709.564268,W,57.9,180.6,010110,,,A*70
$GPRMC,191148.40,A,3319.860133,N,11709.565385,W,56.0,179.9,010110,,,A*79
$GPRMC,191151.50,A,3319.810738,N,11709.566154,W,56.8,180.1,010110,,,A*71
$GPRMC,191154.70,A,3319.760539,N,11709.565929,W,57.7,179.1,010110,,,A*74
$GPRMC,191157.80,A,3319.710776,N,11709.563095,W,57.1,175.8,010110,,,A*7D
$GPRMC,191200.90,A,3319.661202,N,11709.558457,W,57.5,176.5,010110,,,A*74
$GPRMC,191203.00,A,3319.628422,N,11709.553727,W,57.4,172.9,010110,,,A*71
$GPRMC,191206.10,A,3319.579186,N,11709.544340,W,57.3,170.8,010110,,,A*7E
$GPRMC,191209.30,A,3319.530299,N,11709.532129,W,57.3,168.3,010110,,,A*7D
$GPRMC,191212.40,A,3319.481599,N,11709.519021,W,57.6,166.6,010110,,,A*72
$GPRMC,191215.50,A,3319.433911,N,11709.504032,W,57.5,165.5,010110,,,A*7C
$GPRMC,191218.60,A,3319.387106,N,11709.486499,W,56.7,162.3,010110,,,A*78
$GPRMC,191221.70,A,3319.341265,N,11709.466722,W,56.5,159.8,010110,,,A*73
$GPRMC,191224.80,A,3319.295480,N,11709.444663,W,58.1,157.4,010110,,,A*70
$GPRMC,191227.90,A,3319.251302,N,11709.421131,W,56.1,155.6,010110,,,A*7A
$GPRMC,191230.90,A,3319.208144,N,11709.395309,W,56.7,152.8,010110,,,A*7E
$GPRMC,191233.00,A,3319.179530,N,11709.376989,W,57.9,151.1,010110,,,A*7C
$GPRMC,191236.10,A,3319.135127,N,11709.349915,W,56.1,152.5,010110,,,A*75
$GPRMC,191239.20,A,3319.091987,N,11709.323479,W,57.5,153.5,010110,,,A*7B
$GPRMC,191242.20,A,3319.049201,N,11709.296881,W,56.2,152.1,010110,,,A*70
$GPRMC,191245.20,A,3319.007218,N,11709.271247,W,55.1,153.9,010110,,,A*75
$GPRMC,191248.30,A,3318.964793,N,11709.245377,W,56.4,152.8,010110,,,A*71
$GPRMC,191251.30,A,3318.921177,N,11709.218189,W,57.1,151.8,010110,,,A*78
$GPRMC,191254.40,A,3318.878690,N,11709.193057,W,56.9,154.3,010110,,,A*7C
$GPRMC,191257.50,A,3318.832822,N,11709.168340,W,56.7,155.1,010110,,,A*7B
$GPRMC,191300.60,A,3318.788195,N,11709.146612,W,56.9,158.8,010110,,,A*74
$GPRMC,191303.70,A,3318.741731,N,11709.125831,W,58.8,159.3,010110,,,A*74
$GPRMC,191306.70,A,3318.695381,N,11709.109119,W,56.5,164.9,010110,,,A*7C
$GPRMC,191309.80,A,3318.648895,N,11709.093630,W,57.0,164.8,010110,,,A*79
$GPRMC,191312.80,A,3318.602451,N,11709.081038,W,56.9,169.3,010110,,,A*7A
$GPRMC,191315.80,A,3318.555486,N,11709.067752,W,57.4,169.4,010110,,,A*7E
$GPRMC,191318.80,A,3318.507953,N,11709.058752,W,57.7,172.0,010110,,,A*70
$GPRMC,191321.80,A,3318.460747,N,11709.052181,W,55.6,175.2,010110,,,A*75
$GPRMC,191324.90,A,3318.411994,N,11709.045748,W,57.2,175.9,010110,,,A*7F
$GPRMC,191327.90,A,3318.363405,N,11709.041164,W,57.2,177.4,010110,,,A*78
$GPRMC,191330.90,A,3318.315315,N,11709.038354,W,57.1,178.0,010110,,,A*7E
$GPRMC,191333.90,A,3318.266920,N,11709.034591,W,57.5,177.7,010110,,,A*7B
$GPRMC,191336.00,A,3318.233644,N,11709.032587,W,58.3,177.3,010110,,,A*76
$GPRMC,191339.00,A,3318.185282,N,11709.029438,W,58.0,177.6,010110,,,A*70
$GPRMC,191342.00,A,3318.136432,N,11709.026259,W,58.2,177.2,010110,,,A*71
$GPRMC,191345.10,A,3318.087330,N,11709.022972,W,57.1,177.7,010110,,,A*76
$GPRMC,191348.20,A,3318.038177,N,11709.019963,W,57.5,177.6,010110,,,A*70
$GPRMC,191351.20,A,3317.988118,N,11709.016733,W,57.8,175.9,010110,,,A*78
$GPRMC,191354.30,A,3317.940248,N,11709.013835,W,57.4,176.9,010110,,,A*7D
$GPRMC,191357.30,A,3317.891596,N,11709.010676,W,58.0,177.3,010110,,,A*7D
$GPRMC,191400.30,A,3317.843211,N,11709.007532,W,57.6,176.9,010110,,,A*78
$GPRMC,191403.40,A,3317.793810,N,11709.004472,W,57.4,177.1,010110,,,A*78
$GPRMC,191406.40,A,3317.744674,N,11709.001433,W,57.7,176.6,010110,,,A*7E
$GPRMC,191409.50,A,3317.696111,N,11708.998576,W,57.6,176.6,010110,,,A*73
$GPRMC,191412.50,A,3317.647522,N,11708.995606,W,58.0,176.7,010110,,,A*70
$GPRMC,191415.50,A,3317.599432,N,11708.992838,W,57.8,177.1,010110,,,A*73
$GPRMC,191418.50,A,3317.550979,N,11708.989901,W,58.0,177.0,010110,,,A*7E
$GPRMC,191421.50,A,3317.502362,N,11708.987009,W,58.2,177.1,010110,,,A*7F
$GPRMC,191424.60,A,3317.453600,N,11708.983717,W,57.5,176.6,010110,,,A*7F
$GPRMC,191427.60,A,3317.405188,N,11708.980791,W,57.6,177.4,010110,,,A*75
$GPRMC,191430.60,A,3317.356247,N,11708.978198,W,58.8,178.1,010110,,,A*71
$GPRMC,191433.70,A,3317.307457,N,11708.977767,W,58.0,180.5,010110,,,A*72
$GPRMC,191436.70,A,3317.258078,N,11708.979511,W,58.1,182.6,010110,,,A*78
$GPRMC,191439.80,A,3317.209217,N,11708.983840,W,57.9,185.2,010110,,,A*7F
$GPRMC,191442.80,A,3317.160323,N,11708.990082,W,57.0,187.5,010110,,,A*71
$GPRMC,191445.90,A,3317.112157,N,11708.999744,W,57.8,190.3,010110,,,A*7F
$GPRMC,191448.90,A,3317.064561,N,11709.011686,W,57.5,193.0,010110,,,A*79
$GPRMC,191452.00,A,3317.017526,N,11709.026461,W,57.2,195.6,010110,,,A*74
$GPRMC,191455.00,A,3316.970816,N,11709.043253,W,57.2,197.5,010110,,,A*71
$GPRMC,191458.10,A,3316.924696,N,11709.062206,W,57.5,199.9,010110,,,A*7C
$GPRMC,191501.10,A,3316.879550,N,11709.083572,W,59.0,202.2,010110,,,A*7B
$GPRMC,191504.10,A,3316.834718,N,11709.107986,W,57.9,205.8,010110,,,A*79
$GPRMC,191507.30,A,3316.789495,N,11709.134532,W,57.2,207.1,010110,,,A*74
$GPRMC,191510.30,A,3316.746200,N,11709.159282,W,58.2,205.9,010110,,,A*79
$GPRMC,191513.30,A,3316.702630,N,11709.184137,W,57.9,206.0,010110,,,A*7E
$GPRMC,191516.30,A,3316.658567,N,11709.209107,W,58.6,205.0,010110,,,A*72
$GPRMC,191519.30,A,3316.614963,N,11709.234037,W,57.8,205.3,010110,,,A*73
$GPRMC,191522.40,A,3316.570196,N,11709.259280,W,57.6,205.4,010110,,,A*73
$GPRMC,191525.40,A,3316.526894,N,11709.284374,W,57.7,206.0,010110,,,A*70
$GPRMC,191528.40,A,3316.483225,N,11709.309532,W,57.8,206.4,010110,,,A*78
$GPRMC,191531.40,A,3316.439717,N,11709.334232,W,57.9,205.7,010110,,,A*7D
$GPRMC,191534.40,A,3316.396049,N,11709.359066,W,57.8,206.1,010110,,,A*7A
$GPRMC,191537.50,A,3316.351679,N,11709.384119,W,57.7,203.8,010110,,,A*7C
$GPRMC,191540.60,A,3316.306875,N,11709.407183,W,57.8,202.4,010110,,,A*72
$GPRMC,191543.70,A,3316.260624,N,11709.428809,W,58.0,200.1,010110,,,A*7D
$GPRMC,191546.70,A,3316.214586,N,11709.448252,W,57.4,199.1,010110,,,A*7A
$GPRMC,191549.80,A,3316.167539,N,11709.465349,W,57.0,196.6,010110,,,A*71
$GPRMC,191552.80,A,3316.120302,N,11709.480599,W,57.1,194.6,010110,,,A*75
$GPRMC,191555.90,A,3316.072673,N,11709.493891,W,57.4,192.0,010110,,,A*74
$GPRMC,191558.00,A,3316.040843,N,11709.501886,W,57.5,192.0,010110,,,A*71
$GPRMC,191601.00,A,3315.993359,N,11709.511940,W,56.8,190.5,010110,,,A*7B
$GPRMC,191604.10,A,3315.945197,N,11709.520138,W,56.7,187.8,010110,,,A*75
$GPRMC,191607.50,A,3315.890585,N,11709.526884,W,57.0,184.7,010110,,,A*7E
$GPRMC,191611.00,A,3315.834596,N,11709.530384,W,57.4,182.2,010110,,,A*7B
$GPRMC,191614.60,A,3315.778375,N,11709.531738,W,57.8,180.0,010110,,,A*7A
$GPRMC,191618.10,A,3315.721855,N,11709.529778,W,57.7,177.7,010110,,,A*79
$GPRMC,191621.30,A,3315.670906,N,11709.526232,W,57.5,175.5,010110,,,A*75
$GPRMC,191624.80,A,3315.614834,N,11709.519105,W,57.1,172.7,010110,,,A*73
$GPRMC,191627.00,A,3315.579220,N,11709.513212,W,57.9,170.8,010110,,,A*75
$GPRMC,191630.60,A,3315.523581,N,11709.501462,W,57.9,168.7,010110,,,A*72
$GPRMC,191633.90,A,3315.470719,N,11709.487588,W,57.2,167.1,010110,,,A*72
$GPRMC,191636.60,A,3315.429333,N,11709.475448,W,57.5,165.2,010110,,,A*7E
$GPRMC,191639.70,A,3315.382493,N,11709.458792,W,57.2,161.1,010110,,,A*70
$GPRMC,191642.80,A,3315.335149,N,11709.440352,W,57.4,161.6,010110,,,A*7D
$GPRMC,191645.90,A,3315.288448,N,11709.420656,W,58.0,159.8,010110,,,A*71
$GPRMC,191649.00,A,3315.242495,N,11709.400586,W,57.1,160.3,010110,,,A*71
$GPRMC,191652.10,A,3315.195512,N,11709.380463,W,56.8,160.5,010110,,,A*76
$GPRMC,191655.20,A,3315.148895,N,11709.360529,W,58.2,160.0,010110,,,A*70
$GPRMC,191658.30,A,3315.102478,N,11709.340412,W,58.1,159.6,010110,,,A*79
$GPRMC,191701.30,A,3315.056132,N,11709.320424,W,57.2,159.8,010110,,,A*7E
$GPRMC,191704.40,A,3315.009696,N,11709.300323,W,57.7,160.0,010110,,,A*7A
$GPRMC,191707.50,A,3314.963491,N,11709.280715,W,58.0,160.6,010110,,,A*7F
$GPRMC,191710.50,A,3314.918185,N,11709.261679,W,57.5,160.4,010110,,,A*79
$GPRMC,191713.50,A,3314.872622,N,11709.241880,W,57.5,159.9,010110,,,A*70
$GPRMC,191716.50,A,3314.827258,N,11709.223050,W,58.5,160.0,010110,,,A*71
$GPRMC,191719.50,A,3314.782114,N,11709.203764,W,57.8,160.3,010110,,,A*76
$GPRMC,191722.60,A,3314.735885,N,11709.183953,W,56.9,160.4,010110,,,A*76
$GPRMC,191725.60,A,3314.690842,N,11709.164254,W,57.5,161.1,010110,,,A*78
$GPRMC,191728.60,A,3314.645568,N,11709.145170,W,56.6,160.3,010110,,,A*7F
$GPRMC,191731.60,A,3314.599697,N,11709.124669,W,58.2,159.3,010110,,,A*7E
$GPRMC,191734.60,A,3314.554211,N,11709.104841,W,57.8,160.0,010110,,,A*7A
$GPRMC,191737.70,A,3314.508664,N,11709.085263,W,57.6,160.4,010110,,,A*7F
$GPRMC,191740.70,A,3314.462684,N,11709.065581,W,57.5,160.2,010110,,,A*7C
$GPRMC,191743.80,A,3314.416537,N,11709.045999,W,57.9,160.4,010110,,,A*75
$GPRMC,191746.80,A,3314.370709,N,11709.025978,W,57.0,160.2,010110,,,A*7E
$GPRMC,191749.90,A,3314.325088,N,11709.006284,W,56.5,159.8,010110,,,A*73
$GPRMC,191752.90,A,3314.279192,N,11708.986381,W,58.4,160.2,010110,,,A*70
$GPRMC,191755.90,A,3314.233129,N,11708.966087,W,59.2,159.6,010110,,,A*7B
$GPRMC,191758.00,A,3314.202032,N,11708.952575,W,57.7,160.1,010110,,,A*7F
$GPRMC,191801.00,A,3314.156971,N,11708.933119,W,57.7,160.1,010110,,,A*79
$GPRMC,191804.10,A,3314.110774,N,11708.912857,W,57.6,160.4,010110,,,A*70
$GPRMC,191807.70,A,3314.056445,N,11708.889578,W,56.8,160.6,010110,,,A*79
$GPRMC,191810.90,A,3314.008201,N,11708.868869,W,57.6,160.4,010110,,,A*73
$GPRMC,191813.40,A,3313.969448,N,11708.852318,W,58.0,159.9,010110,,,A*75
$GPRMC,191816.60,A,3313.921186,N,11708.831755,W,57.6,159.8,010110,,,A*79
$GPRMC,191820.20,A,3313.867976,N,11708.808723,W,57.9,159.5,010110,,,A*75
$GPRMC,191823.70,A,3313.814789,N,11708.785750,W,57.6,160.4,010110,,,A*73
$GPRMC,191826.90,A,3313.766388,N,11708.764849,W,57.9,159.9,010110,,,A*77
$GPRMC,191829.10,A,3313.732127,N,11708.750344,W,58.0,159.6,010110,,,A*7E
$GPRMC,191832.20,A,3313.685667,N,11708.729844,W,57.7,159.4,010110,,,A*76
$GPRMC,191835.30,A,3313.639558,N,11708.709614,W,56.9,159.5,010110,,,A*7F
$GPRMC,191838.40,A,3313.593085,N,11708.689574,W,57.6,160.0,010110,,,A*7E
$GPRMC,191841.50,A,3313.546850,N,11708.670097,W,57.2,160.7,010110,,,A*74
$GPRMC,191844.60,A,3313.499866,N,11708.650142,W,57.8,160.4,010110,,,A*76
$GPRMC,191847.70,A,3313.453226,N,11708.630084,W,56.7,160.1,010110,,,A*7A
$GPRMC,191850.80,A,3313.406986,N,11708.608988,W,56.7,158.8,010110,,,A*7E
$GPRMC,191853.90,A,3313.361044,N,11708.587500,W,56.8,158.0,010110,,,A*72
$GPRMC,191856.00,A,3313.331118,N,11708.572728,W,56.4,157.7,010110,,,A*75
$GPRMC,191859.00,A,3313.286417,N,11708.549795,W,57.0,156.5,010110,,,A*75
$GPRMC,191902.20,A,3313.240400,N,11708.524275,W,57.3,154.5,010110,,,A*75
$GPRMC,191905.30,A,3313.196512,N,11708.498737,W,57.7,153.5,010110,,,A*7F
$GPRMC,191908.50,A,3313.150714,N,11708.471242,W,57.6,152.3,010110,,,A*7C
$GPRMC,191911.60,A,3313.107509,N,11708.443970,W,57.6,151.8,010110,,,A*78
$GPRMC,191914.60,A,3313.065530,N,11708.416160,W,57.2,150.7,010110,,,A*71
$GPRMC,191917.70,A,3313.023155,N,11708.386931,W,57.1,149.8,010110,,,A*70
$GPRMC,191920.70,A,3312.981969,N,11708.357531,W,56.9,148.9,010110,,,A*7A
$GPRMC,191923.70,A,3312.940197,N,11708.326646,W,56.9,148.2,010110,,,A*73
$GPRMC,191926.80,A,3312.899270,N,11708.296307,W,57.3,147.7,010110,,,A*7D
$GPRMC,191929.80,A,3312.858414,N,11708.266057,W,57.1,147.8,010110,,,A*7F
$GPRMC,191932.80,A,3312.817161,N,11708.235261,W,57.4,147.8,010110,,,A*7D
$GPRMC,191935.80,A,3312.776355,N,11708.204899,W,57.3,148.5,010110,,,A*7D
$GPRMC,191938.80,A,3312.735643,N,11708.174713,W,57.2,148.0,010110,,,A*78
$GPRMC,191941.80,A,3312.694895,N,11708.144563,W,57.0,148.6,010110,,,A*7B
$GPRMC,191944.90,A,3312.653886,N,11708.114310,W,57.6,148.3,010110,,,A*72
$GPRMC,191947.90,A,3312.612365,N,11708.083463,W,57.5,148.5,010110,,,A*7B
$GPRMC,191950.90,A,3312.572045,N,11708.053711,W,56.8,148.3,010110,,,A*78
$GPRMC,191953.90,A,3312.531459,N,11708.023675,W,57.3,148.1,010110,,,A*79
$GPRMC,191956.90,A,3312.490555,N,11707.993624,W,57.2,148.0,010110,,,A*72
$GPRMC,191959.90,A,3312.449893,N,11707.963392,W,57.1,148.1,010110,,,A*7B
$GPRMC,192002.00,A,3312.421088,N,11707.942234,W,57.5,149.3,010110,,,A*73
$GPRMC,192005.10,A,3312.379844,N,11707.911379,W,56.9,147.8,010110,,,A*71
$GPRMC,192008.10,A,3312.338379,N,11707.881006,W,57.2,148.8,010110,,,A*7A
$GPRMC,192011.10,A,3312.297081,N,11707.851181,W,57.5,148.8,010110,,,A*76
$GPRMC,192014.20,A,3312.255437,N,11707.821874,W,58.0,149.5,010110,,,A*75
$GPRMC,192017.20,A,3312.213713,N,11707.793054,W,57.9,150.1,010110,,,A*77
$GPRMC,192020.20,A,3312.171065,N,11707.764093,W,57.9,150.3,010110,,,A*73
$GPRMC,192023.30,A,3312.128000,N,11707.735670,W,58.1,151.4,010110,,,A*70
$GPRMC,192026.40,A,3312.084400,N,11707.707799,W,57.6,152.0,010110,,,A*79
$GPRMC,192029.50,A,3312.040844,N,11707.680273,W,57.6,152.3,010110,,,A*7F
$GPRMC,192032.50,A,3311.997300,N,11707.653458,W,57.4,152.7,010110,,,A*79
$GPRMC,192035.70,A,3311.952245,N,11707.626362,W,57.7,153.6,010110,,,A*7A
$GPRMC,192038.70,A,3311.908932,N,11707.601298,W,57.0,154.2,010110,,,A*76
$GPRMC,192041.70,A,3311.864671,N,11707.575511,W,57.8,154.1,010110,,,A*76
$GPRMC,192044.90,A,3311.819175,N,11707.548856,W,58.3,153.3,010110,,,A*75
$GPRMC,192047.00,A,3311.789083,N,11707.531616,W,58.1,153.9,010110,,,A*7D
$GPRMC,192050.10,A,3311.744047,N,11707.505348,W,57.4,154.2,010110,,,A*7C
$GPRMC,192053.20,A,3311.699627,N,11707.479661,W,56.7,154.6,010110,,,A*7F
$GPRMC,192056.30,A,3311.654531,N,11707.453591,W,57.5,154.0,010110,,,A*7F
$GPRMC,192059.40,A,3311.609626,N,11707.427488,W,57.8,154.3,010110,,,A*7E
$GPRMC,192102.50,A,3311.565266,N,11707.401812,W,58.1,153.9,010110,,,A*79
$GPRMC,192105.40,A,3311.522576,N,11707.377466,W,57.5,154.4,010110,,,A*72
$GPRMC,192108.60,A,3311.476360,N,11707.351300,W,57.4,154.5,010110,,,A*7F
$GPRMC,192112.20,A,3311.425664,N,11707.322197,W,57.6,154.1,010110,,,A*79
$GPRMC,192115.70,A,3311.374814,N,11707.293038,W,57.3,154.4,010110,,,A*7E
$GPRMC,192118.90,A,3311.328533,N,11707.266200,W,57.9,153.9,010110,,,A*7F
$GPRMC,192121.40,A,3311.291453,N,11707.244672,W,58.1,153.8,010110,,,A*7B
$GPRMC,192124.40,A,3311.247722,N,11707.219320,W,57.9,153.6,010110,,,A*73
$GPRMC,192127.50,A,3311.203475,N,11707.193906,W,57.0,154.0,010110,,,A*77
$GPRMC,192130.50,A,3311.159947,N,11707.168542,W,57.4,154.3,010110,,,A*7E
$GPRMC,192133.60,A,3311.115832,N,11707.143006,W,57.6,154.0,010110,,,A*78
$GPRMC,192136.60,A,3311.072612,N,11707.117979,W,58.1,153.9,010110,,,A*77
$GPRMC,192139.60,A,3311.029167,N,11707.092775,W,57.9,154.0,010110,,,A*74
$GPRMC,192142.60,A,3310.985033,N,11707.067223,W,58.0,154.2,010110,,,A*7E
$GPRMC,192145.70,A,3310.940965,N,11707.041398,W,57.7,153.9,010110,,,A*7A
$GPRMC,192148.70,A,3310.896302,N,11707.015761,W,57.7,154.5,010110,,,A*7E
$GPRMC,192151.80,A,3310.851694,N,11706.989746,W,57.6,153.6,010110,,,A*75
$GPRMC,192154.90,A,3310.807181,N,11706.964259,W,57.2,153.6,010110,,,A*7D
$GPRMC,192157.00,A,3310.777156,N,11706.946834,W,58.2,154.0,010110,,,A*7A
$GPRMC,192200.10,A,3310.731631,N,11706.920392,W,58.1,153.9,010110,,,A*74
$GPRMC,192203.20,A,3310.687777,N,11706.895152,W,57.9,154.2,010110,,,A*71
$GPRMC,192206.20,A,3310.643611,N,11706.869416,W,57.6,153.7,010110,,,A*76
$GPRMC,192209.40,A,3310.597935,N,11706.842994,W,58.1,153.7,010110,,,A*7A
$GPRMC,192212.80,A,3310.548730,N,11706.814398,W,57.7,154.3,010110,,,A*7A
$GPRMC,192215.30,A,3310.513298,N,11706.794288,W,58.3,154.4,010110,,,A*74
$GPRMC,192218.40,A,3310.468221,N,11706.768694,W,57.2,154.5,010110,,,A*74
