NMEA Sentence Code,UTC Time,Status,Latitude,Latitude Direction,Longitude,Longitude Direction,Speed (knots),Track Angle (degrees true),Date,MagneticVariation,Magnetic Variation Direction,[FAA Mode]-Optional,Checksum
$GPRMC,152627.9,A,3247.566432,N,11655.839786,W,34.7,269.0,200410,,,A*45
$GPRMC,152630.9,A,3247.566796,N,11655.876525,W,38.2,270.2,200410,,,A*4D
$GPRMC,152633.9,A,3247.567372,N,11655.916947,W,40.8,271.1,200410,,,A*49
$GPRMC,152636.9,A,3247.567373,N,11655.955982,W,37.8,271.3,200410,,,A*41
$GPRMC,152639.9,A,3247.567371,N,11655.988843,W,28.9,269.3,200410,,,A*46
$GPRMC,152642.9,A,3247.563645,N,11656.008653,W,16.3,254.1,200410,,,A*4A
$GPRMC,152700.9,A,3247.561907,N,11656.020171,W,8.6,289.7,200410,,,A*77
$GPRMC,152703.9,A,3247.576177,N,11656.037735,W,24.1,314.0,200410,,,A*46
$GPRMC,152706.9,A,3247.594627,N,11656.062419,W,31.3,312.3,200410,,,A*43
$GPRMC,152709.9,A,3247.613523,N,11656.086472,W,31.7,316.1,200410,,,A*42
$GPRMC,152712.9,A,3247.631284,N,11656.107673,W,29.2,315.4,200410,,,A*43
$GPRMC,152715.9,A,3247.649434,N,11656.124114,W,26.2,322.8,200410,,,A*46
$GPRMC,152718.9,A,3247.665630,N,11656.137503,W,21.6,333.1,200410,,,A*49
$GPRMC,152721.9,A,3247.678209,N,11656.142305,W,13.4,347.3,200410,,,A*41
$GPRMC,152724.9,A,3247.687369,N,11656.142964,W,10.5,355.9,200410,,,A*45
$GPRMC,152727.9,A,3247.699318,N,11656.143104,W,15.3,0.8,200410,,,A*41
$GPRMC,152730.9,A,3247.716566,N,11656.142200,W,20.7,1.4,200410,,,A*47
$GPRMC,152733.9,A,3247.734253,N,11656.142739,W,20.2,358.1,200410,,,A*45
$GPRMC,152736.9,A,3247.751748,N,11656.141880,W,22.0,359.0,200410,,,A*42
$GPRMC,152739.9,A,3247.772856,N,11656.141191,W,26.2,0.4,200410,,,A*48
$GPRMC,152742.9,A,3247.795089,N,11656.141516,W,28.0,1.5,200410,,,A*40
$GPRMC,152745.9,A,3247.820508,N,11656.140998,W,30.4,1.9,200410,,,A*40
$GPRMC,152748.9,A,3247.847414,N,11656.139739,W,33.6,1.1,200410,,,A*42
$GPRMC,152751.9,A,3247.876394,N,11656.139956,W,35.6,2.2,200410,,,A*46
$GPRMC,152754.0,A,3247.895060,N,11656.139765,W,31.8,0.1,200410,,,A*4A
$GPRMC,152757.9,A,3247.927115,N,11656.139745,W,30.0,359.7,200410,,,A*49
$GPRMC,152800.9,A,3247.951395,N,11656.140381,W,28.9,359.9,200410,,,A*43
$GPRMC,152803.9,A,3247.969251,N,11656.136510,W,18.0,21.5,200410,,,A*77
$GPRMC,152806.9,A,3247.978788,N,11656.131103,W,12.3,24.6,200410,,,A*7D
$GPRMC,152809.9,A,3247.986457,N,11656.124528,W,9.5,45.6,200410,,,A*40
$GPRMC,152812.9,A,3247.988126,N,11656.119459,W,6.3,69.1,200410,,,A*4E
$GPRMC,152815.9,A,3247.990673,N,11656.114350,W,4.5,63.1,200410,,,A*4A
$GPRMC,152818.9,A,3247.992719,N,11656.109357,W,5.8,59.5,200410,,,A*42
$GPRMC,152909.9,A,3248.004125,N,11656.113594,W,4.5,333.6,200410,,,A*71
$GPRMC,153301.9,A,3247.997902,N,11656.124115,W,5.5,186.9,200410,,,A*78
$GPRMC,153304.9,A,3247.988726,N,11656.125778,W,8.9,185.8,200410,,,A*74
$GPRMC,153307.9,A,3247.982730,N,11656.127195,W,7.2,186.3,200410,,,A*71
$GPRMC,153328.9,A,3247.976353,N,11656.136253,W,5.1,275.5,200410,,,A*77
$GPRMC,153331.9,A,3247.981906,N,11656.140374,W,7.5,337.1,200410,,,A*7D
$GPRMC,153334.9,A,3247.991842,N,11656.139432,W,11.2,3.8,200410,,,A*4E
$GPRMC,153337.9,A,3247.999685,N,11656.138465,W,8.5,5.4,200410,,,A*76
$GPRMC,153340.9,A,3248.004616,N,11656.137886,W,6.7,20.1,200410,,,A*4E
$GPRMC,153343.9,A,3248.010797,N,11656.128398,W,11.1,58.6,200410,,,A*72
$GPRMC,153346.9,A,3248.010223,N,11656.109591,W,19.6,91.2,200410,,,A*7F
$GPRMC,153349.9,A,3248.010525,N,11656.088388,W,18.3,87.6,200410,,,A*70
$GPRMC,153352.9,A,3248.003721,N,11656.077216,W,13.0,139.7,200410,,,A*45
$GPRMC,153355.9,A,3247.991670,N,11656.073326,W,17.0,171.8,200410,,,A*4B
$GPRMC,153358.9,A,3247.973804,N,11656.074118,W,19.2,178.7,200410,,,A*45
$GPRMC,153401.9,A,3247.950341,N,11656.072971,W,27.5,178.1,200410,,,A*48
$GPRMC,153404.9,A,3247.924787,N,11656.074693,W,29.6,180.6,200410,,,A*48
$GPRMC,153407.9,A,3247.898730,N,11656.074192,W,29.3,180.7,200410,,,A*43
$GPRMC,153410.9,A,3247.876687,N,11656.074874,W,25.1,180.8,200410,,,A*48
$GPRMC,153413.9,A,3247.856091,N,11656.072792,W,25.2,179.6,200410,,,A*42
$GPRMC,153416.9,A,3247.834585,N,11656.075199,W,27.1,182.1,200410,,,A*4B
$GPRMC,153419.9,A,3247.810040,N,11656.075056,W,27.3,179.7,200410,,,A*4C
$GPRMC,153422.9,A,3247.793353,N,11656.074862,W,17.1,165.9,200410,,,A*4D
$GPRMC,153425.9,A,3247.786492,N,11656.063387,W,15.9,112.0,200410,,,A*41
$GPRMC,153428.9,A,3247.786235,N,11656.043065,W,22.5,93.0,200410,,,A*7A
$GPRMC,153431.9,A,3247.787342,N,11656.018911,W,25.7,88.8,200410,,,A*71
$GPRMC,153434.9,A,3247.786884,N,11655.990222,W,29.4,90.7,200410,,,A*7C
$GPRMC,153437.9,A,3247.785511,N,11655.958472,W,33.1,92.1,200410,,,A*70
$GPRMC,153440.9,A,3247.785557,N,11655.923515,W,35.4,90.0,200410,,,A*7E
$GPRMC,153443.9,A,3247.786838,N,11655.885725,W,37.8,89.3,200410,,,A*73
$GPRMC,153446.9,A,3247.786494,N,11655.848744,W,38.4,90.6,200410,,,A*74
$GPRMC,153449.9,A,3247.788992,N,11655.811226,W,38.0,89.0,200410,,,A*79
$GPRMC,153452.9,A,3247.786925,N,11655.774550,W,37.6,90.6,200410,,,A*7C
$GPRMC,153455.9,A,3247.788110,N,11655.735676,W,38.8,89.0,200410,,,A*76
$GPRMC,153458.9,A,3247.788092,N,11655.697448,W,37.9,90.0,200410,,,A*70
$GPRMC,153501.9,A,3247.790352,N,11655.661366,W,34.2,87.6,200410,,,A*71
$GPRMC,153504.9,A,3247.788750,N,11655.634651,W,22.5,93.6,200410,,,A*7F
$GPRMC,153507.9,A,3247.788336,N,11655.623642,W,5.5,95.3,200410,,,A*4A
$GPRMC,153510.9,A,3247.787302,N,11655.620373,W,5.2,117.4,200410,,,A*7B
$GPRMC,153513.9,A,3247.778078,N,11655.617577,W,12.2,174.2,200410,,,A*45
$GPRMC,153516.9,A,3247.760441,N,11655.618434,W,21.7,182.4,200410,,,A*44
$GPRMC,153519.9,A,3247.737529,N,11655.616745,W,26.2,178.4,200410,,,A*4A
$GPRMC,153522.9,A,3247.713409,N,11655.617477,W,29.5,180.9,200410,,,A*46
$GPRMC,153525.9,A,3247.687188,N,11655.616413,W,30.4,179.2,200410,,,A*46
$GPRMC,153528.9,A,3247.663103,N,11655.617466,W,30.6,180.7,200410,,,A*40
$GPRMC,153531.9,A,3247.636049,N,11655.617369,W,29.8,181.0,200410,,,A*4F
$GPRMC,153534.9,A,3247.614017,N,11655.617210,W,25.5,178.8,200410,,,A*41
$GPRMC,153537.9,A,3247.591888,N,11655.616003,W,26.7,178.7,200410,,,A*4D
$GPRMC,153540.9,A,3247.577817,N,11655.616959,W,15.7,180.8,200410,,,A*4D
$GPRMC,153543.9,A,3247.572449,N,11655.617246,W,5.5,183.0,200410,,,A*70
$GPRMC,153546.9,A,3247.569617,N,11655.616587,W,6.4,167.6,200410,,,A*73
$GPRMC,153549.9,A,3247.563791,N,11655.609833,W,12.6,112.1,200410,,,A*47
$GPRMC,153552.9,A,3247.563678,N,11655.591470,W,22.0,90.9,200410,,,A*74
$GPRMC,153555.9,A,3247.564125,N,11655.563414,W,28.6,90.5,200410,,,A*74
$GPRMC,153558.9,A,3247.564822,N,11655.531938,W,32.4,89.9,200410,,,A*7E
$GPRMC,153601.9,A,3247.565319,N,11655.498113,W,34.3,89.6,200410,,,A*7E
$GPRMC,153604.9,A,3247.565201,N,11655.464371,W,32.6,90.3,200410,,,A*78
$GPRMC,153607.9,A,3247.566795,N,11655.432627,W,32.2,87.9,200410,,,A*7D
$GPRMC,153610.9,A,3247.567134,N,11655.402749,W,30.8,88.7,200410,,,A*74
$GPRMC,153613.9,A,3247.566186,N,11655.371069,W,30.1,90.9,200410,,,A*77
$GPRMC,153616.9,A,3247.564926,N,11655.342155,W,30.3,90.5,200410,,,A*72
$GPRMC,153619.9,A,3247.564686,N,11655.314734,W,28.7,91.4,200410,,,A*77
$GPRMC,153622.9,A,3247.565703,N,11655.290009,W,23.8,90.7,200410,,,A*70
$GPRMC,153625.9,A,3247.563165,N,11655.269411,W,18.6,92.3,200410,,,A*7C
$GPRMC,153628.9,A,3247.562694,N,11655.257122,W,8.6,89.3,200410,,,A*4A
$GPRMC,153640.9,A,3247.555285,N,11655.246490,W,14.4,133.9,200410,,,A*4D
$GPRMC,153643.9,A,3247.531233,N,11655.232803,W,26.5,154.4,200410,,,A*48
$GPRMC,153646.9,A,3247.508605,N,11655.221729,W,29.4,152.7,200410,,,A*48
$GPRMC,153649.9,A,3247.484778,N,11655.202176,W,35.2,143.0,200410,,,A*48
$GPRMC,153652.9,A,3247.462961,N,11655.176894,W,37.5,136.3,200410,,,A*4D
$GPRMC,153655.9,A,3247.438464,N,11655.149157,W,40.5,136.6,200410,,,A*42
$GPRMC,153658.9,A,3247.412937,N,11655.122848,W,41.3,139.5,200410,,,A*4D
$GPRMC,153701.9,A,3247.384495,N,11655.101830,W,40.6,150.5,200410,,,A*48
$GPRMC,153704.9,A,3247.351641,N,11655.086788,W,41.1,162.3,200410,,,A*4D
$GPRMC,153707.9,A,3247.318844,N,11655.076400,W,39.6,166.0,200410,,,A*4B
$GPRMC,153710.9,A,3247.291369,N,11655.070470,W,32.5,169.4,200410,,,A*4B
$GPRMC,153713.9,A,3247.275121,N,11655.068724,W,21.2,172.1,200410,,,A*4D
$GPRMC,153716.9,A,3247.264465,N,11655.066561,W,12.7,166.2,200410,,,A*43
$GPRMC,153804.9,A,3247.258512,N,11655.069742,W,7.2,172.4,200410,,,A*7F
$GPRMC,153807.9,A,3247.253980,N,11655.055695,W,14.7,107.5,200410,,,A*40
$GPRMC,153810.9,A,3247.255303,N,11655.032080,W,25.0,86.4,200410,,,A*7E
$GPRMC,153813.9,A,3247.255616,N,11655.001227,W,31.9,92.8,200410,,,A*76
$GPRMC,153816.9,A,3247.248989,N,11654.964547,W,37.2,103.9,200410,,,A*49
$GPRMC,153823.9,A,3247.213069,N,11654.883183,W,41.6,125.8,200410,,,A*42
$GPRMC,153826.9,A,3247.188548,N,11654.850211,W,44.7,130.6,200410,,,A*48
$GPRMC,153833.9,A,3247.155356,N,11654.762800,W,42.1,103.8,200410,,,A*4F
$GPRMC,153836.9,A,3247.148320,N,11654.722107,W,42.9,101.4,200410,,,A*4B
$GPRMC,153843.9,A,3247.172088,N,11654.618884,W,43.5,80.3,200410,,,A*79
$GPRMC,153846.9,A,3247.178341,N,11654.578581,W,41.7,79.3,200410,,,A*7B
$GPRMC,153849.9,A,3247.187469,N,11654.537715,W,41.1,75.5,200410,,,A*71
$GPRMC,153852.9,A,3247.197433,N,11654.500176,W,39.5,70.2,200410,,,A*7B
$GPRMC,153855.9,A,3247.212319,N,11654.464860,W,40.1,65.7,200410,,,A*7B
$GPRMC,153858.9,A,3247.224625,N,11654.430430,W,38.4,68.2,200410,,,A*73
$GPRMC,153901.9,A,3247.233929,N,11654.402249,W,29.8,68.3,200410,,,A*7F
$GPRMC,153904.9,A,3247.239372,N,11654.380881,W,17.4,77.3,200410,,,A*78
$GPRMC,153907.9,A,3247.238995,N,11654.375606,W,6.4,103.2,200410,,,A*71
$GPRMC,153910.9,A,3247.228620,N,11654.370692,W,14.0,162.3,200410,,,A*4E
$GPRMC,153913.9,A,3247.212131,N,11654.371304,W,22.1,180.7,200410,,,A*44
$GPRMC,153916.9,A,3247.187397,N,11654.372164,W,28.9,180.4,200410,,,A*46
$GPRMC,153919.9,A,3247.157533,N,11654.371234,W,37.1,179.5,200410,,,A*48
$GPRMC,153922.9,A,3247.124715,N,11654.371867,W,40.7,180.2,200410,,,A*49
$GPRMC,153925.9,A,3247.087176,N,11654.371973,W,43.9,180.9,200410,,,A*47
$GPRMC,153928.9,A,3247.050685,N,11654.370770,W,43.8,180.0,200410,,,A*4F
$GPRMC,153931.9,A,3247.012774,N,11654.370931,W,45.9,179.8,200410,,,A*4C
$GPRMC,153934.9,A,3246.972463,N,11654.370900,W,47.4,180.4,200410,,,A*45
$GPRMC,153937.9,A,3246.934814,N,11654.372242,W,47.2,180.9,200410,,,A*4C
$GPRMC,153940.9,A,3246.894382,N,11654.372394,W,48.0,181.0,200410,,,A*4C
$GPRMC,153943.9,A,3246.857900,N,11654.371471,W,43.8,179.4,200410,,,A*4F
$GPRMC,153946.9,A,3246.835238,N,11654.372306,W,26.9,180.5,200410,,,A*4F
$GPRMC,153949.9,A,3246.822237,N,11654.373227,W,15.0,184.3,200410,,,A*41
$GPRMC,153952.0,A,3246.820148,N,11654.371767,W,8.1,178.5,200410,,,A*70
$GPRMC,153955.9,A,3246.811381,N,11654.372976,W,15.0,180.8,200410,,,A*41
$GPRMC,153958.9,A,3246.794077,N,11654.373349,W,23.5,180.3,200410,,,A*48
$GPRMC,154001.9,A,3246.769068,N,11654.374613,W,30.4,180.1,200410,,,A*4A
$GPRMC,154004.9,A,3246.739505,N,11654.372773,W,35.6,178.9,200410,,,A*4D
$GPRMC,154007.9,A,3246.706572,N,11654.373279,W,37.8,181.2,200410,,,A*4D
$GPRMC,154010.9,A,3246.675458,N,11654.371504,W,38.9,178.5,200410,,,A*47
$GPRMC,154013.9,A,3246.645069,N,11654.372385,W,37.3,178.9,200410,,,A*44
$GPRMC,154016.9,A,3246.612140,N,11654.376720,W,38.3,190.4,200410,,,A*42
$GPRMC,154019.9,A,3246.583809,N,11654.393314,W,38.1,211.8,200410,,,A*4E
$GPRMC,154022.9,A,3246.557113,N,11654.420350,W,38.1,218.4,200410,,,A*47
$GPRMC,154025.9,A,3246.534251,N,11654.439677,W,34.1,210.6,200410,,,A*4E
$GPRMC,154028.9,A,3246.506083,N,11654.444728,W,35.9,187.7,200410,,,A*4B
$GPRMC,154031.9,A,3246.473888,N,11654.440251,W,40.3,168.7,200410,,,A*45
$GPRMC,154034.9,A,3246.437422,N,11654.428133,W,43.2,163.8,200410,,,A*43
$GPRMC,154037.9,A,3246.401086,N,11654.417005,W,43.9,166.7,200410,,,A*46
$GPRMC,154040.9,A,3246.367311,N,11654.414621,W,41.1,179.2,200410,,,A*4E
$GPRMC,154043.9,A,3246.335902,N,11654.424048,W,39.4,201.2,200410,,,A*4E
$GPRMC,154047.0,A,3246.311028,N,11654.449722,W,40.5,221.3,200410,,,A*48
$GPRMC,154050.9,A,3246.277291,N,11654.489084,W,42.8,223.0,200410,,,A*4F
$GPRMC,154053.9,A,3246.253768,N,11654.516082,W,40.1,223.7,200410,,,A*44
$GPRMC,154056.9,A,3246.230069,N,11654.541905,W,38.0,222.0,200410,,,A*4E
$GPRMC,154059.9,A,3246.206083,N,11654.568855,W,38.2,221.0,200410,,,A*4E
$GPRMC,154103.2,A,3246.182059,N,11654.595126,W,37.5,223.6,200410,,,A*40
$GPRMC,154106.2,A,3246.160782,N,11654.616855,W,34.0,219.3,200410,,,A*47
$GPRMC,154109.2,A,3246.137131,N,11654.635627,W,34.2,210.5,200410,,,A*43
$GPRMC,154112.9,A,3246.106854,N,11654.656276,W,35.0,212.0,200410,,,A*4B
$GPRMC,154115.9,A,3246.086067,N,11654.674729,W,32.6,223.0,200410,,,A*41
$GPRMC,154118.9,A,3246.073172,N,11654.701861,W,32.5,245.8,200410,,,A*48
$GPRMC,154121.9,A,3246.067600,N,11654.728763,W,28.1,246.5,200410,,,A*42
$GPRMC,154124.9,A,3246.057055,N,11654.755247,W,29.2,245.0,200410,,,A*4F
$GPRMC,154127.9,A,3246.047520,N,11654.780833,W,28.5,246.5,200410,,,A*4B
$GPRMC,154130.9,A,3246.032880,N,11654.804050,W,28.7,226.0,200410,,,A*47
$GPRMC,154133.9,A,3246.012626,N,11654.818911,W,29.6,219.3,200410,,,A*4A
$GPRMC,154136.9,A,3245.999418,N,11654.843906,W,30.9,245.5,200410,,,A*49
$GPRMC,154139.9,A,3245.993586,N,11654.870970,W,27.7,250.3,200410,,,A*41
$GPRMC,154142.9,A,3245.980249,N,11654.890811,W,21.7,233.4,200410,,,A*47
$GPRMC,154145.9,A,3245.956933,N,11654.898606,W,26.9,195.0,200410,,,A*4F
$GPRMC,154148.9,A,3245.925446,N,11654.898385,W,33.6,180.0,200410,,,A*48
$GPRMC,154151.9,A,3245.897423,N,11654.898309,W,31.5,182.0,200410,,,A*4C
$GPRMC,154154.9,A,3245.873158,N,11654.899133,W,26.4,181.6,200410,,,A*42
$GPRMC,154157.9,A,3245.857885,N,11654.903000,W,16.3,194.9,200410,,,A*42
$GPRMC,154200.9,A,3245.852875,N,11654.910467,W,8.4,245.0,200410,,,A*70
$GPRMC,154203.9,A,3245.858356,N,11654.919646,W,9.8,311.6,200410,,,A*70
$GPRMC,154206.9,A,3245.867667,N,11654.923420,W,9.5,341.3,200410,,,A*78
$GPRMC,154209.9,A,3245.880539,N,11654.922805,W,10.6,359.7,200410,,,A*4A
$GPRMC,154212.9,A,3245.887836,N,11654.924359,W,9.2,354.2,200410,,,A*75
$GPRMC,154215.9,A,3245.895189,N,11654.923945,W,8.9,0.6,200410,,,A*70
$GPRMC,154218.9,A,3245.901388,N,11654.923500,W,7.9,4.2,200410,,,A*70
$GPRMC,154221.9,A,3245.907621,N,11654.922570,W,6.4,3.1,200410,,,A*74
$GPRMC,154224.9,A,3245.913559,N,11654.921163,W,7.2,4.5,200410,,,A*79
$GPRMC,154227.9,A,3245.919660,N,11654.923154,W,5.9,338.7,200410,,,A*78
$GPRMC,154230.9,A,3245.922086,N,11654.926010,W,4.7,296.5,200410,,,A*74
$GPRMC,154236.9,A,3245.920372,N,11654.936246,W,5.1,244.4,200410,,,A*71
$GPRMC,154257.9,A,3245.911699,N,11654.933099,W,6.1,169.7,200410,,,A*7D
$GPRMC,154300.9,A,3245.904474,N,11654.930821,W,7.7,172.4,200410,,,A*7D
$GPRMC,154303.9,A,3245.895794,N,11654.930934,W,9.3,175.7,200410,,,A*71
$GPRMC,154306.9,A,3245.890930,N,11654.929383,W,6.9,154.3,200410,,,A*7D
$GPRMC,154309.9,A,3245.888770,N,11654.922762,W,6.4,131.1,200410,,,A*7D
$GPRMC,154312.9,A,3245.884611,N,11654.919817,W,5.9,160.3,200410,,,A*70
$GPRMC,154315.9,A,3245.878905,N,11654.920256,W,6.9,179.8,200410,,,A*7B
$GPRMC,154318.9,A,3245.872315,N,11654.920903,W,9.1,181.7,200410,,,A*73
$GPRMC,154321.9,A,3245.862686,N,11654.919934,W,10.4,162.6,200410,,,A*48
$GPRMC,154324.9,A,3245.854943,N,11654.912541,W,8.4,122.1,200410,,,A*71
$GPRMC,154333.9,A,3245.849659,N,11654.904610,W,5.7,131.3,200410,,,A*71
$GPRMC,154336.9,A,3245.841578,N,11654.901949,W,10.2,168.9,200410,,,A*4D
$GPRMC,154339.9,A,3245.816590,N,11654.901777,W,26.6,180.5,200410,,,A*4E
$GPRMC,154342.9,A,3245.795524,N,11654.903696,W,25.0,182.7,200410,,,A*40
$GPRMC,154345.9,A,3245.776454,N,11654.903578,W,24.1,179.8,200410,,,A*44
$GPRMC,154348.9,A,3245.758248,N,11654.903377,W,18.5,181.8,200410,,,A*4B
$GPRMC,154351.9,A,3245.746271,N,11654.905023,W,12.8,186.8,200410,,,A*42
$GPRMC,154354.9,A,3245.738439,N,11654.903716,W,6.7,170.1,200410,,,A*79
$GPRMC,154357.9,A,3245.736368,N,11654.904831,W,4.9,205.6,200410,,,A*70
$GPRMC,154400.9,A,3245.731294,N,11654.917148,W,15.6,252.2,200410,,,A*4C
$GPRMC,154403.9,A,3245.730992,N,11654.939029,W,24.4,266.2,200410,,,A*4E
$GPRMC,154406.9,A,3245.730367,N,11654.967560,W,29.2,268.9,200410,,,A*46
$GPRMC,154409.9,A,3245.731464,N,11654.998924,W,30.4,271.2,200410,,,A*4D
$GPRMC,154412.9,A,3245.730421,N,11655.029152,W,30.0,269.1,200410,,,A*42
$GPRMC,154417.9,A,3245.730590,N,11655.073777,W,28.4,270.1,200410,,,A*47
$GPRMC,154420.9,A,3245.728069,N,11655.103470,W,30.5,268.0,200410,,,A*4B
$GPRMC,154427.9,A,3245.728888,N,11655.180139,W,32.9,275.1,200410,,,A*4B
$GPRMC,154430.9,A,3245.734151,N,11655.214225,W,35.1,278.5,200410,,,A*4B
$GPRMC,154433.2,A,3245.743329,N,11655.240827,W,36.7,290.2,200410,,,A*43
$GPRMC,154436.2,A,3245.765203,N,11655.276568,W,41.8,307.2,200410,,,A*48
$GPRMC,154439.2,A,3245.791075,N,11655.305048,W,40.6,322.5,200410,,,A*42
$GPRMC,154442.2,A,3245.820717,N,11655.327638,W,43.3,331.1,200410,,,A*49
$GPRMC,154445.2,A,3245.853015,N,11655.348315,W,43.9,331.8,200410,,,A*4F
$GPRMC,154448.9,A,3245.890644,N,11655.372530,W,39.8,330.5,200410,,,A*4C
$GPRMC,154451.9,A,3245.919529,N,11655.390721,W,38.4,333.2,200410,,,A*4B
$GPRMC,154454.9,A,3245.948651,N,11655.406820,W,39.9,334.1,200410,,,A*48
$GPRMC,154457.9,A,3245.982232,N,11655.423150,W,43.0,332.4,200410,,,A*42
$GPRMC,154500.9,A,3246.013512,N,11655.446922,W,44.8,328.2,200410,,,A*4A
$GPRMC,154503.9,A,3246.044190,N,11655.478716,W,46.2,320.5,200410,,,A*46
$GPRMC,154506.9,A,3246.072550,N,11655.507023,W,45.0,318.9,200410,,,A*40
$GPRMC,154509.9,A,3246.094458,N,11655.540070,W,43.7,310.5,200410,,,A*4E
$GPRMC,154512.9,A,3246.115442,N,11655.573821,W,41.1,302.1,200410,,,A*48
$GPRMC,154515.9,A,3246.127026,N,11655.606004,W,31.7,291.5,200410,,,A*48
$GPRMC,154518.9,A,3246.130906,N,11655.629573,W,21.2,282.9,200410,,,A*4A
$GPRMC,154521.9,A,3246.132042,N,11655.643195,W,11.4,277.1,200410,,,A*4C
$GPRMC,154706.9,A,3246.130312,N,11655.659328,W,11.8,257.6,200410,,,A*49
$GPRMC,154709.9,A,3246.134065,N,11655.689975,W,30.2,272.3,200410,,,A*45
$GPRMC,154712.9,A,3246.136352,N,11655.725709,W,36.0,273.3,200410,,,A*4D
$GPRMC,154715.9,A,3246.139002,N,11655.762954,W,38.7,273.2,200410,,,A*4E
$GPRMC,154718.9,A,3246.139215,N,11655.805510,W,42.1,272.3,200410,,,A*4E
$GPRMC,154721.9,A,3246.141169,N,11655.850595,W,45.2,272.4,200410,,,A*4D
$GPRMC,154724.9,A,3246.144092,N,11655.890753,W,43.0,279.3,200410,,,A*44
$GPRMC,154727.9,A,3246.152250,N,11655.934163,W,43.8,283.8,200410,,,A*40
$GPRMC,154730.9,A,3246.168248,N,11655.973983,W,43.7,294.5,200410,,,A*47
$GPRMC,154733.9,A,3246.187713,N,11656.010499,W,43.7,301.0,200410,,,A*4F
$GPRMC,154736.9,A,3246.209684,N,11656.044045,W,44.7,305.8,200410,,,A*4F
$GPRMC,154739.9,A,3246.233772,N,11656.082186,W,46.3,307.4,200410,,,A*4D
$GPRMC,154742.9,A,3246.253351,N,11656.119676,W,45.6,302.3,200410,,,A*4D
$GPRMC,154745.9,A,3246.270579,N,11656.157378,W,45.6,297.2,200410,,,A*4A
$GPRMC,154748.9,A,3246.283521,N,11656.198998,W,44.2,289.6,200410,,,A*4F
$GPRMC,154751.9,A,3246.292237,N,11656.239393,W,42.6,283.9,200410,,,A*49
$GPRMC,154754.9,A,3246.293708,N,11656.280742,W,41.1,275.8,200410,,,A*42
$GPRMC,154757.9,A,3246.297436,N,11656.320632,W,40.8,275.9,200410,,,A*4F
$GPRMC,154800.9,A,3246.303589,N,11656.359958,W,41.1,281.0,200410,,,A*4C
$GPRMC,154803.9,A,3246.320196,N,11656.398297,W,42.7,298.8,200410,,,A*44
$GPRMC,154806.9,A,3246.338674,N,11656.432805,W,43.0,305.1,200410,,,A*4F
$GPRMC,154809.9,A,3246.363258,N,11656.465648,W,41.4,313.2,200410,,,A*43
$GPRMC,154812.9,A,3246.388429,N,11656.490073,W,39.1,319.6,200410,,,A*4C
$GPRMC,154815.9,A,3246.422117,N,11656.510043,W,42.4,332.2,200410,,,A*4A
$GPRMC,154818.9,A,3246.454457,N,11656.523381,W,41.6,339.2,200410,,,A*40
$GPRMC,154821.9,A,3246.489998,N,11656.538807,W,43.7,340.3,200410,,,A*47
$GPRMC,154824.9,A,3246.525406,N,11656.551501,W,44.4,340.4,200410,,,A*48
$GPRMC,154827.9,A,3246.563979,N,11656.574064,W,48.9,334.0,200410,,,A*4B
$GPRMC,154830.9,A,3246.600593,N,11656.596128,W,49.9,332.9,200410,,,A*48
$GPRMC,154833.9,A,3246.637980,N,11656.617602,W,50.4,333.3,200410,,,A*4A
$GPRMC,154836.9,A,3246.674025,N,11656.638286,W,47.4,333.3,200410,,,A*4D
$GPRMC,154839.9,A,3246.709883,N,11656.660827,W,49.5,332.9,200410,,,A*45
$GPRMC,154842.9,A,3246.741754,N,11656.684280,W,44.5,327.1,200410,,,A*4C
$GPRMC,154845.9,A,3246.768586,N,11656.709685,W,43.5,317.0,200410,,,A*4D
$GPRMC,154848.9,A,3246.788116,N,11656.744695,W,44.2,304.1,200410,,,A*48
$GPRMC,154851.9,A,3246.803236,N,11656.782453,W,42.4,294.8,200410,,,A*4E
$GPRMC,154854.9,A,3246.815521,N,11656.822166,W,41.6,288.1,200410,,,A*4E
$GPRMC,154857.9,A,3246.821859,N,11656.858914,W,38.0,280.4,200410,,,A*4D
$GPRMC,154900.9,A,3246.823815,N,11656.895166,W,37.5,272.5,200410,,,A*4E
$GPRMC,154903.9,A,3246.823315,N,11656.933369,W,37.5,268.8,200410,,,A*40
$GPRMC,154906.9,A,3246.824131,N,11656.967475,W,33.9,269.3,200410,,,A*4F
$GPRMC,154909.9,A,3246.824743,N,11656.997268,W,28.0,269.6,200410,,,A*40
$GPRMC,154912.9,A,3246.826035,N,11657.019718,W,19.7,273.8,200410,,,A*42
$GPRMC,154915.9,A,3246.825468,N,11657.030140,W,8.6,271.4,200410,,,A*75
$GPRMC,154948.9,A,3246.824019,N,11657.058606,W,23.8,268.8,200410,,,A*46
$GPRMC,154951.9,A,3246.826038,N,11657.090942,W,33.1,270.5,200410,,,A*48
$GPRMC,154954.9,A,3246.825125,N,11657.128272,W,39.8,269.7,200410,,,A*40
$GPRMC,154957.9,A,3246.823594,N,11657.170163,W,43.1,268.4,200410,,,A*43
$GPRMC,155000.9,A,3246.825627,N,11657.214924,W,45.7,270.5,200410,,,A*46
$GPRMC,155003.9,A,3246.825608,N,11657.260936,W,45.8,269.9,200410,,,A*43
$GPRMC,155006.9,A,3246.824109,N,11657.303174,W,39.2,270.2,200410,,,A*49
$GPRMC,155009.9,A,3246.825569,N,11657.335511,W,32.1,271.6,200410,,,A*4A
$GPRMC,155012.9,A,3246.824675,N,11657.366220,W,30.8,268.6,200410,,,A*4F
$GPRMC,155015.9,A,3246.826462,N,11657.398292,W,33.8,270.4,200410,,,A*4E
$GPRMC,155018.9,A,3246.824796,N,11657.433708,W,36.1,270.3,200410,,,A*42
$GPRMC,155021.9,A,3246.826049,N,11657.471830,W,40.6,270.3,200410,,,A*4B
$GPRMC,155024.9,A,3246.825923,N,11657.512732,W,40.4,270.1,200410,,,A*41
$GPRMC,155027.9,A,3246.825799,N,11657.550372,W,36.2,269.2,200410,,,A*47
$GPRMC,155030.9,A,3246.826633,N,11657.582933,W,32.3,269.7,200410,,,A*43
$GPRMC,155033.9,A,3246.825309,N,11657.613869,W,29.0,267.4,200410,,,A*4E
$GPRMC,155036.9,A,3246.825054,N,11657.629984,W,8.7,264.8,200410,,,A*70
$GPRMC,155100.9,A,3246.826936,N,11657.638829,W,12.5,272.5,200410,,,A*4F
$GPRMC,155103.9,A,3246.824660,N,11657.660521,W,22.8,268.7,200410,,,A*4D
$GPRMC,155106.9,A,3246.826840,N,11657.685316,W,24.3,271.6,200410,,,A*4B
$GPRMC,155109.9,A,3246.826351,N,11657.709423,W,24.7,270.4,200410,,,A*4C
$GPRMC,155112.9,A,3246.825447,N,11657.736158,W,30.6,267.9,200410,,,A*4F
$GPRMC,155115.9,A,3246.825674,N,11657.763780,W,25.4,270.7,200410,,,A*47
$GPRMC,155118.9,A,3246.825129,N,11657.787170,W,24.0,270.0,200410,,,A*44
$GPRMC,155121.9,A,3246.823807,N,11657.814068,W,29.0,269.7,200410,,,A*42
$GPRMC,155124.9,A,3246.825751,N,11657.842747,W,29.2,271.7,200410,,,A*4F
$GPRMC,155127.9,A,3246.826384,N,11657.872040,W,28.2,270.3,200410,,,A*44
$GPRMC,155130.9,A,3246.827079,N,11657.898084,W,26.2,269.3,200410,,,A*48
$GPRMC,155133.9,A,3246.826979,N,11657.921766,W,22.4,268.5,200410,,,A*4E
$GPRMC,155136.9,A,3246.825848,N,11657.941085,W,20.5,266.9,200410,,,A*46
$GPRMC,155139.9,A,3246.827445,N,11657.949105,W,8.8,274.5,200410,,,A*73
$GPRMC,155224.9,A,3246.822610,N,11657.963653,W,7.6,263.1,200410,,,A*74
$GPRMC,155227.9,A,3246.826789,N,11657.984530,W,19.6,273.6,200410,,,A*44
$GPRMC,155230.9,A,3246.827982,N,11658.009393,W,23.4,271.8,200410,,,A*4D
$GPRMC,155233.9,A,3246.827634,N,11658.033484,W,24.8,270.4,200410,,,A*42
$GPRMC,155236.9,A,3246.828542,N,11658.059285,W,27.8,271.1,200410,,,A*46
$GPRMC,155239.9,A,3246.826955,N,11658.089533,W,32.2,268.2,200410,,,A*4F
$GPRMC,155242.9,A,3246.826279,N,11658.122448,W,34.3,269.8,200410,,,A*47
$GPRMC,155245.9,A,3246.825022,N,11658.156423,W,33.7,270.5,200410,,,A*47
$GPRMC,155248.9,A,3246.825943,N,11658.190478,W,34.9,270.0,200410,,,A*4C
$GPRMC,155251.9,A,3246.826054,N,11658.226564,W,35.4,269.1,200410,,,A*4F
$GPRMC,155254.9,A,3246.826623,N,11658.263701,W,36.5,271.3,200410,,,A*45
$GPRMC,155257.9,A,3246.825282,N,11658.297549,W,34.8,268.3,200410,,,A*48
$GPRMC,155300.9,A,3246.825206,N,11658.332269,W,35.0,269.3,200410,,,A*44
$GPRMC,155303.9,A,3246.826177,N,11658.367577,W,37.2,271.7,200410,,,A*44
$GPRMC,155306.9,A,3246.826060,N,11658.405191,W,38.0,270.7,200410,,,A*45
$GPRMC,155309.9,A,3246.828126,N,11658.443763,W,37.8,277.6,200410,,,A*4F
$GPRMC,155312.9,A,3246.837362,N,11658.475179,W,33.1,290.8,200410,,,A*4B
$GPRMC,155315.9,A,3246.854004,N,11658.504573,W,36.3,303.0,200410,,,A*47
$GPRMC,155318.9,A,3246.871429,N,11658.535774,W,37.0,303.3,200410,,,A*40
$GPRMC,155321.9,A,3246.886797,N,11658.564159,W,34.2,302.2,200410,,,A*48
$GPRMC,155324.9,A,3246.901636,N,11658.590859,W,32.7,303.7,200410,,,A*4C
$GPRMC,155327.9,A,3246.919455,N,11658.621245,W,37.5,305.1,200410,,,A*48
$GPRMC,155330.9,A,3246.937098,N,11658.652834,W,39.9,303.3,200410,,,A*49
$GPRMC,155333.2,A,3246.952201,N,11658.679041,W,40.3,304.0,200410,,,A*43
$GPRMC,155336.2,A,3246.970350,N,11658.711787,W,38.4,303.6,200410,,,A*48
$GPRMC,155339.2,A,3246.983593,N,11658.735811,W,19.4,302.5,200410,,,A*45
$GPRMC,155342.9,A,3246.989678,N,11658.746904,W,6.6,303.9,200410,,,A*7E
$GPRMC,155430.9,A,3246.989724,N,11658.747586,W,6.4,304.6,200410,,,A*79
$GPRMC,155433.9,A,3246.988692,N,11658.777354,W,24.5,252.7,200410,,,A*4F
$GPRMC,155436.9,A,3246.974506,N,11658.805095,W,32.6,240.5,200410,,,A*46
$GPRMC,155439.9,A,3246.958703,N,11658.836688,W,36.9,243.2,200410,,,A*45
$GPRMC,155442.9,A,3246.945101,N,11658.871659,W,39.8,246.2,200410,,,A*45
$GPRMC,155445.0,A,3246.935963,N,11658.897795,W,42.2,247.4,200410,,,A*48
$GPRMC,155448.9,A,3246.915176,N,11658.933828,W,26.9,222.1,200410,,,A*4B
$GPRMC,155451.9,A,3246.902260,N,11658.939927,W,14.7,201.9,200410,,,A*43
$GPRMC,155454.9,A,3246.898344,N,11658.943105,W,5.4,201.3,200410,,,A*7F
$GPRMC,155500.9,A,3246.893783,N,11658.942427,W,4.8,208.5,200410,,,A*7D
$GPRMC,155503.9,A,3246.888413,N,11658.946603,W,6.3,211.3,200410,,,A*79
$GPRMC,155509.9,A,3246.881230,N,11658.949807,W,4.6,210.3,200410,,,A*7E
$GPRMC,155521.9,A,3246.867893,N,11658.957646,W,5.4,207.9,200410,,,A*74
$GPRMC,155524.9,A,3246.862641,N,11658.961338,W,7.1,210.1,200410,,,A*75
$GPRMC,155527.9,A,3246.859635,N,11658.962745,W,4.5,205.3,200410,,,A*71
$GPRMC,155536.9,A,3246.851380,N,11658.968898,W,4.9,207.6,200410,,,A*7C
$GPRMC,155539.9,A,3246.847988,N,11658.971737,W,5.4,217.1,200410,,,A*7E
$GPRMC,155542.9,A,3246.843284,N,11658.976132,W,6.4,214.8,200410,,,A*7C
$GPRMC,155545.9,A,3246.839000,N,11658.979929,W,6.7,213.3,200410,,,A*7A
$GPRMC,155548.9,A,3246.834028,N,11658.982478,W,5.9,211.4,200410,,,A*75
$GPRMC,155551.9,A,3246.832198,N,11658.984801,W,4.5,218.1,200410,,,A*74
$GPRMC,155609.9,A,3246.818765,N,11659.001688,W,6.1,223.5,200410,,,A*76
$GPRMC,155612.9,A,3246.813424,N,11659.006311,W,7.0,219.4,200410,,,A*7B
$GPRMC,155615.9,A,3246.809842,N,11659.011422,W,6.5,226.1,200410,,,A*77
$GPRMC,155618.9,A,3246.808112,N,11659.012840,W,4.6,221.0,200410,,,A*7B
$GPRMC,155621.9,A,3246.800097,N,11659.021622,W,15.0,229.2,200410,,,A*43
$GPRMC,155624.9,A,3246.787490,N,11659.040657,W,27.0,234.5,200410,,,A*4A
$GPRMC,155627.9,A,3246.772376,N,11659.068289,W,34.4,240.2,200410,,,A*43
$GPRMC,155630.9,A,3246.760844,N,11659.103948,W,40.4,249.4,200410,,,A*4A
$GPRMC,155633.9,A,3246.753072,N,11659.145157,W,44.6,257.8,200410,,,A*45
$GPRMC,155636.9,A,3246.748429,N,11659.193037,W,49.8,265.3,200410,,,A*45
$GPRMC,155639.9,A,3246.747111,N,11659.241655,W,51.5,267.9,200410,,,A*49
$GPRMC,155642.9,A,3246.746450,N,11659.295675,W,56.1,268.1,200410,,,A*4B
$GPRMC,155645.9,A,3246.747658,N,11659.355558,W,60.8,271.5,200410,,,A*46
$GPRMC,155648.9,A,3246.748280,N,11659.415414,W,60.1,271.6,200410,,,A*45
$GPRMC,155651.9,A,3246.751153,N,11659.474726,W,59.3,272.5,200410,,,A*45
$GPRMC,155654.9,A,3246.753290,N,11659.532739,W,59.1,271.6,200410,,,A*41
$GPRMC,155657.9,A,3246.757012,N,11659.592005,W,60.5,273.4,200410,,,A*42
$GPRMC,155700.9,A,3246.760473,N,11659.651031,W,60.3,272.6,200410,,,A*48
$GPRMC,155703.2,A,3246.762107,N,11659.698329,W,62.2,273.1,200410,,,A*4E
$GPRMC,155706.2,A,3246.764226,N,11659.759826,W,61.8,272.9,200410,,,A*45
$GPRMC,155709.2,A,3246.766926,N,11659.820809,W,61.2,273.1,200410,,,A*4C
$GPRMC,155712.2,A,3246.769085,N,11659.881658,W,61.3,272.1,200410,,,A*48
$GPRMC,155715.2,A,3246.767909,N,11659.941166,W,59.7,264.5,200410,,,A*47
$GPRMC,155718.9,A,3246.759137,N,11700.011556,W,58.2,258.4,200410,,,A*45
$GPRMC,155721.9,A,3246.743639,N,11700.068892,W,60.4,250.3,200410,,,A*44
$GPRMC,155724.9,A,3246.720679,N,11700.123391,W,60.2,243.1,200410,,,A*40
$GPRMC,155727.9,A,3246.691646,N,11700.173594,W,60.5,237.1,200410,,,A*46
$GPRMC,155730.9,A,3246.664558,N,11700.225211,W,61.6,239.0,200410,,,A*41
$GPRMC,155733.2,A,3246.647898,N,11700.266952,W,60.8,245.9,200410,,,A*4F
$GPRMC,155736.9,A,3246.622485,N,11700.333824,W,60.4,246.2,200410,,,A*47
$GPRMC,155739.9,A,3246.605472,N,11700.387559,W,58.4,248.1,200410,,,A*4B
$GPRMC,155742.9,A,3246.583645,N,11700.441981,W,61.8,246.1,200410,,,A*40
$GPRMC,155745.9,A,3246.564369,N,11700.501685,W,65.1,248.9,200410,,,A*40
$GPRMC,155748.9,A,3246.544154,N,11700.560910,W,64.7,247.6,200410,,,A*40
$GPRMC,155751.9,A,3246.524912,N,11700.614359,W,57.0,247.3,200410,,,A*41
$GPRMC,155754.9,A,3246.505810,N,11700.665936,W,55.9,246.5,200410,,,A*4D
$GPRMC,155757.9,A,3246.487067,N,11700.715116,W,53.4,246.9,200410,,,A*46
$GPRMC,155800.9,A,3246.470575,N,11700.761843,W,52.5,245.8,200410,,,A*4D
$GPRMC,155803.9,A,3246.449293,N,11700.812616,W,57.8,243.7,200410,,,A*4F
$GPRMC,155806.9,A,3246.430368,N,11700.866825,W,60.8,246.4,200410,,,A*4E
$GPRMC,155809.9,A,3246.409621,N,11700.922437,W,61.7,244.5,200410,,,A*40
$GPRMC,155812.9,A,3246.385104,N,11700.975580,W,60.8,240.1,200410,,,A*48
$GPRMC,155815.9,A,3246.358128,N,11701.026409,W,60.6,238.2,200410,,,A*4D
$GPRMC,155818.9,A,3246.331493,N,11701.078437,W,61.2,238.0,200410,,,A*4B
$GPRMC,155821.9,A,3246.304219,N,11701.127582,W,59.7,238.2,200410,,,A*4B
$GPRMC,155824.9,A,3246.282262,N,11701.179753,W,59.7,245.7,200410,,,A*47
$GPRMC,155827.9,A,3246.270168,N,11701.238451,W,62.5,254.6,200410,,,A*4C
$GPRMC,155830.9,A,3246.259030,N,11701.303649,W,68.3,259.5,200410,,,A*4D
$GPRMC,155833.9,A,3246.255610,N,11701.371064,W,69.7,266.0,200410,,,A*46
$GPRMC,155836.9,A,3246.257462,N,11701.439264,W,67.8,273.7,200410,,,A*4D
$GPRMC,155839.9,A,3246.270272,N,11701.508139,W,66.3,280.5,200410,,,A*4C
$GPRMC,155842.9,A,3246.293896,N,11701.565857,W,62.7,294.0,200410,,,A*47
$GPRMC,155845.9,A,3246.317973,N,11701.617189,W,62.9,297.3,200410,,,A*45
$GPRMC,155848.9,A,3246.347555,N,11701.673560,W,65.4,302.8,200410,,,A*48
$GPRMC,155851.9,A,3246.371727,N,11701.733512,W,67.7,296.3,200410,,,A*44
$GPRMC,155854.9,A,3246.399526,N,11701.795494,W,74.3,296.8,200410,,,A*4A
$GPRMC,155857.9,A,3246.423684,N,11701.857985,W,68.7,292.9,200410,,,A*44
$GPRMC,155900.9,A,3246.439546,N,11701.922519,W,68.4,283.8,200410,,,A*49
$GPRMC,155903.9,A,3246.446286,N,11701.987607,W,65.6,275.8,200410,,,A*4C
$GPRMC,155909.9,A,3246.431408,N,11702.112478,W,65.5,256.2,200410,,,A*43
$GPRMC,155912.9,A,3246.414115,N,11702.176536,W,66.7,253.3,200410,,,A*4B
$GPRMC,155917.9,A,3246.388965,N,11702.281476,W,66.6,254.2,200410,,,A*4A
$GPRMC,155921.9,A,3246.368679,N,11702.369146,W,69.3,256.1,200410,,,A*49
$GPRMC,155927.9,A,3246.359935,N,11702.503346,W,69.2,273.1,200410,,,A*44
$GPRMC,155930.9,A,3246.371781,N,11702.571478,W,68.6,282.2,200410,,,A*4E
$GPRMC,155933.9,A,3246.392838,N,11702.631966,W,66.3,291.7,200410,,,A*44
$GPRMC,155936.9,A,3246.417566,N,11702.690164,W,65.6,298.8,200410,,,A*4C
$GPRMC,155939.9,A,3246.446408,N,11702.744685,W,65.7,301.9,200410,,,A*4F
$GPRMC,155942.9,A,3246.475949,N,11702.800879,W,66.8,301.6,200410,,,A*4A
$GPRMC,155945.9,A,3246.504177,N,11702.857885,W,66.8,300.8,200410,,,A*41
$GPRMC,155948.9,A,3246.533871,N,11702.915135,W,67.5,300.3,200410,,,A*45
$GPRMC,155951.9,A,3246.559522,N,11702.974398,W,67.4,296.0,200410,,,A*44
$GPRMC,155954.9,A,3246.580931,N,11703.034911,W,65.7,292.6,200410,,,A*4F
$GPRMC,155957.9,A,3246.600729,N,11703.094922,W,67.4,289.9,200410,,,A*4E
$GPRMC,160000.9,A,3246.617359,N,11703.158925,W,66.6,285.2,200410,,,A*44
$GPRMC,160003.9,A,3246.631000,N,11703.222285,W,65.7,283.4,200410,,,A*41
$GPRMC,160006.9,A,3246.640350,N,11703.286045,W,64.8,281.5,200410,,,A*49
$GPRMC,160009.9,A,3246.651935,N,11703.349618,W,66.2,282.0,200410,,,A*4D
$GPRMC,160012.9,A,3246.664129,N,11703.413844,W,67.5,282.1,200410,,,A*4C
$GPRMC,160015.9,A,3246.673514,N,11703.480109,W,68.7,280.7,200410,,,A*44
$GPRMC,160018.9,A,3246.688656,N,11703.546417,W,68.1,285.2,200410,,,A*4F
$GPRMC,160021.9,A,3246.706295,N,11703.609778,W,67.9,288.4,200410,,,A*47
$GPRMC,160024.9,A,3246.725112,N,11703.672154,W,66.6,288.0,200410,,,A*41
$GPRMC,160027.9,A,3246.741705,N,11703.735152,W,66.6,288.2,200410,,,A*46
$GPRMC,160030.9,A,3246.759078,N,11703.797653,W,66.8,286.3,200410,,,A*4B
$GPRMC,160033.9,A,3246.768093,N,11703.863248,W,66.8,275.4,200410,,,A*4E
$GPRMC,160036.9,A,3246.767939,N,11703.930065,W,66.8,268.7,200410,,,A*48
$GPRMC,160039.9,A,3246.765710,N,11703.996970,W,68.9,268.7,200410,,,A*4E
$GPRMC,160042.9,A,3246.764387,N,11704.065071,W,69.2,267.9,200410,,,A*48
$GPRMC,160045.9,A,3246.761626,N,11704.134648,W,70.4,267.8,200410,,,A*42
$GPRMC,160048.9,A,3246.759561,N,11704.204142,W,71.0,268.4,200410,,,A*4F
$GPRMC,160051.9,A,3246.758496,N,11704.275815,W,71.5,269.5,200410,,,A*47
$GPRMC,160054.9,A,3246.758783,N,11704.345573,W,71.2,270.3,200410,,,A*43
$GPRMC,160057.9,A,3246.763352,N,11704.417960,W,71.4,273.5,200410,,,A*4D
$GPRMC,160100.9,A,3246.768979,N,11704.486524,W,69.5,275.3,200410,,,A*4A
$GPRMC,160103.9,A,3246.777654,N,11704.552224,W,66.0,278.6,200410,,,A*4A
$GPRMC,160106.9,A,3246.784697,N,11704.614992,W,63.7,278.5,200410,,,A*4A
$GPRMC,160109.9,A,3246.795408,N,11704.677212,W,64.7,280.0,200410,,,A*42
$GPRMC,160112.9,A,3246.806740,N,11704.741656,W,67.1,281.5,200410,,,A*43
$GPRMC,160115.9,A,3246.815946,N,11704.808891,W,68.4,280.1,200410,,,A*46
$GPRMC,160118.9,A,3246.825486,N,11704.874686,W,66.5,281.1,200410,,,A*44
$GPRMC,160121.9,A,3246.837444,N,11704.941699,W,70.2,281.7,200410,,,A*4C
$GPRMC,160124.9,A,3246.849915,N,11705.009842,W,71.7,281.3,200410,,,A*45
$GPRMC,160127.9,A,3246.861194,N,11705.079631,W,72.2,279.8,200410,,,A*4A
$GPRMC,160130.9,A,3246.871002,N,11705.150892,W,71.4,275.4,200410,,,A*4B
$GPRMC,160133.9,A,3246.868848,N,11705.221121,W,71.3,269.6,200410,,,A*4A
$GPRMC,160136.9,A,3246.862182,N,11705.291510,W,71.0,265.3,200410,,,A*4D
$GPRMC,160139.9,A,3246.853203,N,11705.358933,W,69.3,262.5,200410,,,A*48
$GPRMC,160142.9,A,3246.850957,N,11705.426855,W,67.4,265.0,200410,,,A*49
$GPRMC,160145.9,A,3246.844817,N,11705.490776,W,64.8,262.8,200410,,,A*4D
$GPRMC,160148.9,A,3246.836417,N,11705.555183,W,66.4,261.5,200410,,,A*4D
$GPRMC,160151.9,A,3246.825953,N,11705.618800,W,65.6,259.8,200410,,,A*45
$GPRMC,160154.9,A,3246.815759,N,11705.679700,W,61.6,261.0,200410,,,A*48
$GPRMC,160157.9,A,3246.803572,N,11705.742348,W,64.3,258.0,200410,,,A*4C
$GPRMC,160200.9,A,3246.792218,N,11705.805525,W,66.1,257.4,200410,,,A*4B
$GPRMC,160203.9,A,3246.781432,N,11705.867686,W,65.6,257.8,200410,,,A*42
$GPRMC,160206.9,A,3246.770834,N,11705.930748,W,66.3,258.1,200410,,,A*43
$GPRMC,160209.9,A,3246.759907,N,11705.996528,W,66.9,259.0,200410,,,A*44
$GPRMC,160212.9,A,3246.750464,N,11706.060753,W,65.6,259.8,200410,,,A*46
$GPRMC,160215.9,A,3246.742546,N,11706.125794,W,67.2,262.1,200410,,,A*4F
$GPRMC,160218.9,A,3246.734651,N,11706.192066,W,67.4,262.1,200410,,,A*46
$GPRMC,160221.9,A,3246.729794,N,11706.260122,W,67.5,265.2,200410,,,A*42
$GPRMC,160224.9,A,3246.730449,N,11706.325784,W,64.7,269.1,200410,,,A*48
$GPRMC,160227.9,A,3246.728266,N,11706.385902,W,58.6,268.0,200410,,,A*4D
$GPRMC,160230.9,A,3246.724718,N,11706.442696,W,58.1,267.3,200410,,,A*4E
$GPRMC,160233.9,A,3246.723367,N,11706.501863,W,60.0,268.4,200410,,,A*46
$GPRMC,160236.9,A,3246.722375,N,11706.561985,W,60.3,269.7,200410,,,A*4F
$GPRMC,160239.9,A,3246.721997,N,11706.617687,W,57.4,269.5,200410,,,A*4B
$GPRMC,160242.9,A,3246.724084,N,11706.675525,W,56.9,268.8,200410,,,A*46
$GPRMC,160245.9,A,3246.720795,N,11706.730128,W,56.2,267.5,200410,,,A*42
$GPRMC,160248.2,A,3246.719929,N,11706.775225,W,59.4,268.0,200410,,,A*4B
$GPRMC,160251.9,A,3246.719137,N,11706.848318,W,60.6,269.6,200410,,,A*4E
$GPRMC,160254.9,A,3246.719636,N,11706.907291,W,58.8,268.9,200410,,,A*4C
$GPRMC,160257.9,A,3246.717715,N,11706.962972,W,55.5,266.8,200410,,,A*4B
$GPRMC,160300.9,A,3246.711528,N,11707.018184,W,55.6,261.6,200410,,,A*4C
$GPRMC,160303.9,A,3246.700726,N,11707.070389,W,54.5,257.8,200410,,,A*4B
$GPRMC,160306.9,A,3246.690659,N,11707.120979,W,51.5,254.2,200410,,,A*42
$GPRMC,160309.9,A,3246.677803,N,11707.166568,W,48.4,250.7,200410,,,A*43
$GPRMC,160312.9,A,3246.658799,N,11707.212889,W,51.6,244.1,200410,,,A*43
$GPRMC,160315.9,A,3246.638037,N,11707.256319,W,50.9,239.9,200410,,,A*4F
$GPRMC,160318.9,A,3246.613567,N,11707.296449,W,50.1,235.4,200410,,,A*4C
$GPRMC,160321.9,A,3246.588330,N,11707.338332,W,52.1,233.9,200410,,,A*44
$GPRMC,160324.9,A,3246.563107,N,11707.380928,W,52.2,235.6,200410,,,A*4A
$GPRMC,160327.9,A,3246.536485,N,11707.423649,W,52.4,234.2,200410,,,A*43
$GPRMC,160330.9,A,3246.514260,N,11707.463188,W,46.5,234.9,200410,,,A*49
$GPRMC,160333.9,A,3246.493241,N,11707.499658,W,46.2,236.6,200410,,,A*42
$GPRMC,160336.9,A,3246.470997,N,11707.538002,W,47.2,236.2,200410,,,A*4C
$GPRMC,160339.9,A,3246.449244,N,11707.578683,W,50.0,238.3,200410,,,A*4C
$GPRMC,160342.9,A,3246.425357,N,11707.623462,W,54.4,238.3,200410,,,A*49
$GPRMC,160345.9,A,3246.398741,N,11707.672283,W,57.7,237.7,200410,,,A*4A
$GPRMC,160348.9,A,3246.377419,N,11707.718517,W,52.4,241.0,200410,,,A*4F
$GPRMC,160351.9,A,3246.360682,N,11707.763101,W,48.7,246.4,200410,,,A*45
$GPRMC,160354.9,A,3246.348737,N,11707.804373,W,45.5,252.1,200410,,,A*43
$GPRMC,160357.9,A,3246.337535,N,11707.847930,W,45.6,253.2,200410,,,A*43
$GPRMC,160400.9,A,3246.328308,N,11707.892722,W,46.3,255.6,200410,,,A*41
$GPRMC,160403.9,A,3246.321275,N,11707.931821,W,38.9,258.7,200410,,,A*4B
$GPRMC,160406.2,A,3246.315883,N,11707.963530,W,43.0,259.8,200410,,,A*40
$GPRMC,160409.9,A,3246.315893,N,11708.019474,W,44.4,268.9,200410,,,A*4F
$GPRMC,160412.9,A,3246.321653,N,11708.062060,W,41.8,276.7,200410,,,A*45
$GPRMC,160415.9,A,3246.316432,N,11708.100499,W,41.6,256.0,200410,,,A*4F
$GPRMC,160418.9,A,3246.299448,N,11708.139856,W,43.8,243.6,200410,,,A*42
$GPRMC,160421.9,A,3246.283534,N,11708.179266,W,44.1,243.0,200410,,,A*4C
$GPRMC,160424.9,A,3246.265455,N,11708.219143,W,45.2,242.4,200410,,,A*41
$GPRMC,160427.9,A,3246.247711,N,11708.259133,W,45.2,242.4,200410,,,A*42
$GPRMC,160430.9,A,3246.235229,N,11708.301867,W,45.2,250.2,200410,,,A*4E
$GPRMC,160433.9,A,3246.226448,N,11708.344596,W,45.4,253.5,200410,,,A*4E
$GPRMC,160436.9,A,3246.215006,N,11708.385869,W,42.6,252.2,200410,,,A*46
$GPRMC,160439.2,A,3246.208263,N,11708.413400,W,35.0,250.6,200410,,,A*44
$GPRMC,160442.9,A,3246.199039,N,11708.449218,W,27.0,255.7,200410,,,A*42
$GPRMC,160445.9,A,3246.201495,N,11708.471283,W,21.5,281.5,200410,,,A*44
$GPRMC,160448.9,A,3246.217359,N,11708.485292,W,21.1,330.8,200410,,,A*40
$GPRMC,160451.9,A,3246.245102,N,11708.482215,W,27.8,14.6,200410,,,A*7F
$GPRMC,160454.9,A,3246.263751,N,11708.466655,W,26.3,39.0,200410,,,A*77
$GPRMC,160457.9,A,3246.272984,N,11708.445062,W,24.5,68.7,200410,,,A*76
$GPRMC,160500.9,A,3246.271531,N,11708.426399,W,15.0,99.5,200410,,,A*7D
$GPRMC,160503.9,A,3246.266117,N,11708.416423,W,8.6,126.3,200410,,,A*74
$GPRMC,160509.9,A,3246.254939,N,11708.408383,W,14.1,151.2,200410,,,A*42
$GPRMC,160512.9,A,3246.238195,N,11708.400119,W,23.1,158.3,200410,,,A*49
$GPRMC,160515.9,A,3246.217122,N,11708.390742,W,27.1,164.2,200410,,,A*43
$GPRMC,160518.9,A,3246.193467,N,11708.385600,W,28.5,169.0,200410,,,A*42
$GPRMC,160521.9,A,3246.171396,N,11708.382999,W,26.0,173.3,200410,,,A*46
$GPRMC,160524.9,A,3246.152897,N,11708.378864,W,21.9,171.9,200410,,,A*48
$GPRMC,160527.9,A,3246.138648,N,11708.377454,W,15.4,173.8,200410,,,A*42
$GPRMC,160530.9,A,3246.127903,N,11708.376718,W,11.2,173.7,200410,,,A*4D
$GPRMC,160533.9,A,3246.118512,N,11708.375735,W,13.5,174.6,200410,,,A*41
$GPRMC,160536.9,A,3246.106972,N,11708.372426,W,15.6,166.2,200410,,,A*45
$GPRMC,160539.9,A,3246.087051,N,11708.367403,W,22.6,169.5,200410,,,A*45
$GPRMC,160542.9,A,3246.069615,N,11708.361935,W,23.2,167.7,200410,,,A*48
$GPRMC,160545.9,A,3246.053834,N,11708.359199,W,18.4,167.2,200410,,,A*45
$GPRMC,160548.9,A,3246.040849,N,11708.351194,W,16.7,141.3,200410,,,A*4D
$GPRMC,160551.9,A,3246.039709,N,11708.339846,W,13.1,93.6,200410,,,A*70
$GPRMC,160554.9,A,3246.046856,N,11708.329143,W,12.2,41.0,200410,,,A*7E
$GPRMC,160557.9,A,3246.061490,N,11708.327880,W,15.8,354.8,200410,,,A*44
$GPRMC,160600.9,A,3246.077266,N,11708.328993,W,18.5,356.5,200410,,,A*4E
$GPRMC,160603.2,A,3246.089708,N,11708.328456,W,19.7,4.3,200410,,,A*4F
$GPRMC,160606.2,A,3246.107959,N,11708.321094,W,24.6,33.3,200410,,,A*7F
$GPRMC,160609.2,A,3246.122343,N,11708.306141,W,21.0,44.4,200410,,,A*7E
