NMEA Sentence Code,UTC Time,Status,Latitude,Latitude Direction,Longitude,Longitude Direction,Speed (knots),Track Angle (degrees true),Date,MagneticVariation,Magnetic Variation Direction,[FAA Mode]-Optional,Checksum
$GPRMC,003757.5,A,3300.937407,N,11706.666530,W,6.3,188.5,220710,,,A*77
$GPRMC,003800.5,A,3300.932456,N,11706.668583,W,6.0,196.1,220710,,,A*75
$GPRMC,003803.5,A,3300.928505,N,11706.671025,W,5.2,199.5,220710,,,A*71
$GPRMC,003806.5,A,3300.924655,N,11706.671141,W,5.2,177.4,220710,,,A*7C
$GPRMC,003809.5,A,3300.921272,N,11706.664229,W,6.8,129.8,220710,,,A*70
$GPRMC,003812.5,A,3300.918759,N,11706.657965,W,6.4,115.0,220710,,,A*74
$GPRMC,003821.5,A,3300.911710,N,11706.649930,W,6.9,174.6,220710,,,A*73
$GPRMC,003824.5,A,3300.902774,N,11706.653743,W,11.2,198.9,220710,,,A*47
$GPRMC,003827.5,A,3300.892697,N,11706.662014,W,14.2,222.8,220710,,,A*41
$GPRMC,003830.5,A,3300.885550,N,11706.676370,W,16.6,243.7,220710,,,A*43
$GPRMC,003833.5,A,3300.882141,N,11706.690660,W,14.7,261.0,220710,,,A*4B
$GPRMC,003836.5,A,3300.883464,N,11706.705337,W,13.0,279.2,220710,,,A*4C
$GPRMC,003839.5,A,3300.887086,N,11706.712759,W,8.9,307.2,220710,,,A*7E
$GPRMC,003842.5,A,3300.895195,N,11706.715367,W,9.4,338.1,220710,,,A*7F
$GPRMC,003845.5,A,3300.908274,N,11706.718490,W,14.5,341.8,220710,,,A*49
$GPRMC,003848.5,A,3300.929148,N,11706.715873,W,20.7,0.2,220710,,,A*4E
$GPRMC,003851.5,A,3300.953431,N,11706.700674,W,24.1,22.8,220710,,,A*75
$GPRMC,003854.5,A,3300.971383,N,11706.688554,W,18.0,27.2,220710,,,A*7F
$GPRMC,003857.5,A,3300.980792,N,11706.680527,W,10.4,40.7,220710,,,A*72
$GPRMC,003906.5,A,3300.983718,N,11706.676722,W,5.8,69.1,220710,,,A*4D
$GPRMC,003909.5,A,3300.981010,N,11706.669107,W,8.3,109.5,220710,,,A*75
$GPRMC,003912.5,A,3300.974814,N,11706.655547,W,14.6,118.0,220710,,,A*4B
$GPRMC,003915.5,A,3300.964370,N,11706.631106,W,26.0,116.3,220710,,,A*4D
$GPRMC,003918.5,A,3300.957476,N,11706.599477,W,31.3,107.4,220710,,,A*41
$GPRMC,003921.5,A,3300.949348,N,11706.565229,W,34.5,104.2,220710,,,A*46
$GPRMC,003924.5,A,3300.941354,N,11706.529137,W,38.0,104.9,220710,,,A*40
$GPRMC,003927.5,A,3300.932727,N,11706.491853,W,37.7,106.1,220710,,,A*4C
$GPRMC,003930.5,A,3300.924657,N,11706.456377,W,35.7,108.4,220710,,,A*44
$GPRMC,003933.5,A,3300.915628,N,11706.420094,W,35.9,109.7,220710,,,A*4E
$GPRMC,003936.5,A,3300.904490,N,11706.384351,W,37.0,114.5,220710,,,A*4C
$GPRMC,003939.5,A,3300.890649,N,11706.350511,W,38.4,115.7,220710,,,A*4A
$GPRMC,003942.5,A,3300.874225,N,11706.316298,W,39.3,120.7,220710,,,A*46
$GPRMC,003945.5,A,3300.853137,N,11706.281452,W,42.8,123.9,220710,,,A*41
$GPRMC,003948.5,A,3300.833131,N,11706.246326,W,43.1,123.9,220710,,,A*4B
$GPRMC,003951.5,A,3300.811201,N,11706.209852,W,45.3,125.5,220710,,,A*4E
$GPRMC,003954.5,A,3300.789718,N,11706.175206,W,43.0,125.2,220710,,,A*49
$GPRMC,003957.5,A,3300.768792,N,11706.140645,W,43.2,124.8,220710,,,A*4B
$GPRMC,004000.5,A,3300.748067,N,11706.106695,W,43.8,123.8,220710,,,A*4A
$GPRMC,004003.5,A,3300.726274,N,11706.069000,W,45.3,121.4,220710,,,A*40
$GPRMC,004006.5,A,3300.708104,N,11706.027086,W,47.4,116.2,220710,,,A*4E
$GPRMC,004009.5,A,3300.690155,N,11705.984872,W,47.5,115.5,220710,,,A*40
$GPRMC,004012.5,A,3300.673941,N,11705.942720,W,46.2,115.2,220710,,,A*49
$GPRMC,004015.5,A,3300.655439,N,11705.902668,W,46.2,118.7,220710,,,A*49
$GPRMC,004018.5,A,3300.635326,N,11705.866297,W,44.6,123.5,220710,,,A*40
$GPRMC,004021.5,A,3300.611822,N,11705.831753,W,44.2,128.0,220710,,,A*46
$GPRMC,004024.5,A,3300.588565,N,11705.799167,W,43.1,131.2,220710,,,A*4C
$GPRMC,004027.5,A,3300.561601,N,11705.769140,W,43.2,137.2,220710,,,A*46
$GPRMC,004030.5,A,3300.532027,N,11705.740334,W,46.3,140.9,220710,,,A*41
$GPRMC,004033.5,A,3300.501182,N,11705.713953,W,44.7,144.0,220710,,,A*4A
$GPRMC,004036.5,A,3300.469898,N,11705.689938,W,44.9,144.9,220710,,,A*4A
$GPRMC,004039.5,A,3300.440849,N,11705.663524,W,43.9,144.7,220710,,,A*4E
$GPRMC,004042.5,A,3300.413280,N,11705.642630,W,35.2,144.4,220710,,,A*47
$GPRMC,004045.5,A,3300.397062,N,11705.626192,W,22.8,145.1,220710,,,A*40
$GPRMC,004048.5,A,3300.389122,N,11705.618506,W,9.9,142.5,220710,,,A*78
$GPRMC,004130.5,A,3300.384229,N,11705.614866,W,5.0,144.1,220710,,,A*73
$GPRMC,004133.5,A,3300.378234,N,11705.609840,W,12.1,142.5,220710,,,A*42
$GPRMC,004136.5,A,3300.367605,N,11705.601306,W,16.0,146.6,220710,,,A*4C
$GPRMC,004139.5,A,3300.357887,N,11705.592986,W,14.6,141.3,220710,,,A*49
$GPRMC,004142.5,A,3300.346729,N,11705.583857,W,15.2,145.4,220710,,,A*45
$GPRMC,004145.5,A,3300.337106,N,11705.576304,W,11.1,143.2,220710,,,A*4F
$GPRMC,004148.5,A,3300.332553,N,11705.572525,W,5.0,146.7,220710,,,A*76
$GPRMC,004336.5,A,3300.319303,N,11705.565140,W,5.8,174.2,220710,,,A*7A
$GPRMC,004339.5,A,3300.306708,N,11705.554313,W,12.9,148.4,220710,,,A*4C
$GPRMC,004342.5,A,3300.287095,N,11705.535946,W,22.9,143.6,220710,,,A*4C
$GPRMC,004345.5,A,3300.261851,N,11705.513581,W,32.4,144.8,220710,,,A*45
$GPRMC,004348.5,A,3300.235171,N,11705.488473,W,36.9,140.8,220710,,,A*40
$GPRMC,004351.5,A,3300.208243,N,11705.464138,W,39.1,141.3,220710,,,A*41
$GPRMC,004354.5,A,3300.180219,N,11705.437302,W,42.2,140.2,220710,,,A*4A
$GPRMC,004357.5,A,3300.152890,N,11705.406543,W,43.5,136.7,220710,,,A*4E
$GPRMC,004400.5,A,3300.129025,N,11705.374781,W,41.9,132.8,220710,,,A*4A
$GPRMC,004403.5,A,3300.105280,N,11705.343282,W,39.9,129.0,220710,,,A*45
$GPRMC,004406.5,A,3300.086674,N,11705.316827,W,34.9,129.7,220710,,,A*4A
$GPRMC,004409.5,A,3300.070403,N,11705.293982,W,29.8,128.9,220710,,,A*4E
$GPRMC,004412.5,A,3300.054775,N,11705.274591,W,25.6,131.2,220710,,,A*46
$GPRMC,004415.5,A,3300.045502,N,11705.262005,W,15.2,131.8,220710,,,A*41
$GPRMC,004418.5,A,3300.040981,N,11705.253639,W,9.6,124.3,220710,,,A*73
$GPRMC,004421.5,A,3300.038357,N,11705.247671,W,6.9,118.8,220710,,,A*7A
$GPRMC,004436.5,A,3300.029750,N,11705.238245,W,4.6,131.8,220710,,,A*72
$GPRMC,004439.5,A,3300.025177,N,11705.232772,W,9.0,127.8,220710,,,A*75
$GPRMC,004442.5,A,3300.018708,N,11705.223846,W,12.6,131.8,220710,,,A*4A
$GPRMC,004445.5,A,3300.010083,N,11705.211070,W,17.5,130.0,220710,,,A*42
$GPRMC,004448.5,A,3259.996670,N,11705.195466,W,22.7,134.2,220710,,,A*41
$GPRMC,004451.5,A,3259.978805,N,11705.175242,W,28.9,134.9,220710,,,A*44
$GPRMC,004454.5,A,3259.960056,N,11705.154087,W,29.1,133.1,220710,,,A*48
$GPRMC,004457.5,A,3259.945213,N,11705.135536,W,25.9,131.9,220710,,,A*49
$GPRMC,004500.5,A,3259.930632,N,11705.115759,W,24.8,132.1,220710,,,A*4D
$GPRMC,004503.5,A,3259.918240,N,11705.101940,W,18.4,133.5,220710,,,A*40
$GPRMC,004506.5,A,3259.911347,N,11705.089976,W,14.1,123.9,220710,,,A*4A
$GPRMC,004509.5,A,3259.906886,N,11705.080295,W,10.5,122.5,220710,,,A*47
$GPRMC,004512.5,A,3259.902048,N,11705.073967,W,8.2,130.3,220710,,,A*72
$GPRMC,004515.5,A,3259.898737,N,11705.068173,W,7.2,126.0,220710,,,A*74
$GPRMC,004518.5,A,3259.896366,N,11705.062869,W,5.5,131.2,220710,,,A*7E
$GPRMC,004530.5,A,3259.890916,N,11705.055331,W,6.3,124.0,220710,,,A*7E
$GPRMC,004533.5,A,3259.886191,N,11705.049331,W,8.3,131.2,220710,,,A*78
$GPRMC,004536.5,A,3259.879998,N,11705.042877,W,10.7,145.9,220710,,,A*4B
$GPRMC,004539.5,A,3259.866019,N,11705.041787,W,17.5,179.7,220710,,,A*4D
$GPRMC,004542.5,A,3259.846494,N,11705.043233,W,24.6,185.6,220710,,,A*4B
$GPRMC,004545.5,A,3259.822258,N,11705.046246,W,29.6,184.1,220710,,,A*44
$GPRMC,004548.5,A,3259.795276,N,11705.051241,W,33.8,186.5,220710,,,A*44
$GPRMC,004551.5,A,3259.765658,N,11705.054984,W,35.6,185.8,220710,,,A*4A
$GPRMC,004554.5,A,3259.733968,N,11705.057809,W,37.2,184.9,220710,,,A*41
$GPRMC,004557.5,A,3259.702998,N,11705.057146,W,39.3,180.5,220710,,,A*4A
$GPRMC,004600.5,A,3259.670480,N,11705.055602,W,38.5,177.4,220710,,,A*40
$GPRMC,004603.5,A,3259.636347,N,11705.051127,W,40.1,174.2,220710,,,A*47
$GPRMC,004606.5,A,3259.603139,N,11705.045636,W,39.0,174.8,220710,,,A*48
$GPRMC,004609.5,A,3259.569661,N,11705.040701,W,41.8,174.7,220710,,,A*4A
$GPRMC,004612.5,A,3259.532213,N,11705.035156,W,46.7,171.1,220710,,,A*42
$GPRMC,004615.5,A,3259.494419,N,11705.027139,W,47.6,169.6,220710,,,A*40
$GPRMC,004618.5,A,3259.453112,N,11705.019091,W,48.1,169.7,220710,,,A*4F
$GPRMC,004621.5,A,3259.413229,N,11705.010715,W,50.7,170.0,220710,,,A*48
$GPRMC,004624.5,A,3259.372153,N,11705.001178,W,51.5,169.8,220710,,,A*4D
$GPRMC,004627.5,A,3259.329704,N,11704.992259,W,51.8,171.2,220710,,,A*48
$GPRMC,004630.5,A,3259.286667,N,11704.986989,W,51.1,174.8,220710,,,A*4B
$GPRMC,004633.5,A,3259.241549,N,11704.984884,W,51.9,178.6,220710,,,A*48
$GPRMC,004636.5,A,3259.197648,N,11704.986370,W,52.2,182.0,220710,,,A*4E
$GPRMC,004639.5,A,3259.152904,N,11704.992622,W,53.0,186.4,220710,,,A*4B
$GPRMC,004642.5,A,3259.108359,N,11705.003318,W,51.9,190.3,220710,,,A*4D
$GPRMC,004645.5,A,3259.066378,N,11705.015108,W,51.6,194.0,220710,,,A*4C
$GPRMC,004648.5,A,3259.024246,N,11705.033568,W,52.6,198.3,220710,,,A*41
$GPRMC,004651.5,A,3258.984412,N,11705.053355,W,51.1,201.6,220710,,,A*40
$GPRMC,004654.5,A,3258.943241,N,11705.075765,W,55.6,204.8,220710,,,A*45
$GPRMC,004657.5,A,3258.898888,N,11705.101765,W,58.5,207.1,220710,,,A*48
$GPRMC,004700.5,A,3258.856625,N,11705.129193,W,58.1,208.1,220710,,,A*4E
$GPRMC,004703.5,A,3258.814560,N,11705.155959,W,58.5,208.8,220710,,,A*41
$GPRMC,004706.5,A,3258.771416,N,11705.182388,W,57.7,208.0,220710,,,A*41
$GPRMC,004709.5,A,3258.729150,N,11705.209250,W,58.1,208.0,220710,,,A*49
$GPRMC,004712.5,A,3258.684389,N,11705.238870,W,59.7,208.1,220710,,,A*4F
$GPRMC,004715.5,A,3258.640544,N,11705.265445,W,58.7,207.8,220710,,,A*42
$GPRMC,004718.5,A,3258.597212,N,11705.291704,W,57.5,208.1,220710,,,A*44
$GPRMC,004721.5,A,3258.555457,N,11705.318835,W,56.5,207.9,220710,,,A*4C
$GPRMC,004724.5,A,3258.514083,N,11705.345291,W,56.7,207.5,220710,,,A*43
$GPRMC,004727.5,A,3258.470879,N,11705.371829,W,57.7,208.0,220710,,,A*4B
$GPRMC,004730.5,A,3258.428342,N,11705.397375,W,58.5,207.7,220710,,,A*4C
$GPRMC,004733.5,A,3258.385045,N,11705.424381,W,58.1,207.6,220710,,,A*4A
$GPRMC,004736.5,A,3258.344342,N,11705.449383,W,54.8,208.9,220710,,,A*4A
$GPRMC,004739.5,A,3258.305088,N,11705.476017,W,54.6,209.1,220710,,,A*40
$GPRMC,004742.5,A,3258.266003,N,11705.501098,W,53.0,208.8,220710,,,A*44
$GPRMC,004745.5,A,3258.228049,N,11705.523466,W,52.0,207.9,220710,,,A*4D
$GPRMC,004748.5,A,3258.188791,N,11705.549135,W,53.3,208.6,220710,,,A*46
$GPRMC,004751.5,A,3258.149905,N,11705.574998,W,53.6,209.2,220710,,,A*41
$GPRMC,004754.5,A,3258.109241,N,11705.600635,W,53.4,208.1,220710,,,A*43
$GPRMC,004757.5,A,3258.069499,N,11705.625677,W,53.7,208.8,220710,,,A*4F
$GPRMC,004800.5,A,3258.031112,N,11705.650795,W,53.2,208.3,220710,,,A*48
$GPRMC,004803.5,A,3257.991620,N,11705.675378,W,53.7,208.0,220710,,,A*47
$GPRMC,004806.5,A,3257.952552,N,11705.701808,W,52.1,209.1,220710,,,A*42
$GPRMC,004809.5,A,3257.913259,N,11705.726389,W,54.1,208.5,220710,,,A*40
$GPRMC,004812.5,A,3257.873627,N,11705.750699,W,53.5,208.6,220710,,,A*45
$GPRMC,004815.5,A,3257.831008,N,11705.777021,W,56.6,206.9,220710,,,A*48
$GPRMC,004818.5,A,3257.790666,N,11705.803213,W,55.1,208.5,220710,,,A*46
$GPRMC,004821.5,A,3257.750133,N,11705.829828,W,55.5,208.2,220710,,,A*4E
$GPRMC,004824.5,A,3257.709703,N,11705.856301,W,55.7,208.6,220710,,,A*4C
$GPRMC,004827.5,A,3257.671531,N,11705.882075,W,54.2,209.3,220710,,,A*4B
$GPRMC,004830.5,A,3257.631561,N,11705.911127,W,56.4,212.2,220710,,,A*4E
$GPRMC,004833.5,A,3257.593292,N,11705.941896,W,54.1,214.0,220710,,,A*48
$GPRMC,004836.5,A,3257.555548,N,11705.970741,W,53.8,211.6,220710,,,A*4D
$GPRMC,004839.5,A,3257.516672,N,11705.998659,W,54.9,211.5,220710,,,A*44
$GPRMC,004842.5,A,3257.478107,N,11706.025868,W,54.0,209.5,220710,,,A*44
$GPRMC,004845.5,A,3257.438481,N,11706.049842,W,52.5,206.8,220710,,,A*4F
$GPRMC,004848.5,A,3257.398695,N,11706.070007,W,49.9,203.3,220710,,,A*43
$GPRMC,004851.5,A,3257.361493,N,11706.089370,W,48.3,202.8,220710,,,A*4D
$GPRMC,004854.5,A,3257.324327,N,11706.107191,W,48.8,202.8,220710,,,A*40
$GPRMC,004857.5,A,3257.289456,N,11706.127182,W,47.7,206.6,220710,,,A*4E
$GPRMC,004900.5,A,3257.253650,N,11706.151216,W,51.2,208.4,220710,,,A*4F
$GPRMC,004903.5,A,3257.214027,N,11706.172696,W,52.9,207.6,220710,,,A*41
$GPRMC,004906.5,A,3257.174838,N,11706.197239,W,52.3,208.0,220710,,,A*4E
$GPRMC,004909.5,A,3257.138371,N,11706.220443,W,49.9,209.6,220710,,,A*4C
$GPRMC,004912.5,A,3257.102057,N,11706.243371,W,49.6,209.5,220710,,,A*47
$GPRMC,004915.5,A,3257.065622,N,11706.269299,W,51.1,210.7,220710,,,A*4F
$GPRMC,004918.5,A,3257.030766,N,11706.293832,W,46.0,210.5,220710,,,A*48
$GPRMC,004921.5,A,3256.998564,N,11706.314404,W,44.0,209.4,220710,,,A*44
$GPRMC,004924.5,A,3256.967212,N,11706.333763,W,43.6,208.7,220710,,,A*43
$GPRMC,004927.5,A,3256.937613,N,11706.353837,W,40.6,208.7,220710,,,A*4B
$GPRMC,004930.5,A,3256.907388,N,11706.374396,W,43.1,209.1,220710,,,A*4F
$GPRMC,004933.5,A,3256.872309,N,11706.396979,W,47.9,209.3,220710,,,A*4F
$GPRMC,004936.5,A,3256.837159,N,11706.421668,W,49.0,210.2,220710,,,A*46
$GPRMC,004939.5,A,3256.800853,N,11706.448801,W,51.0,210.3,220710,,,A*48
$GPRMC,004942.5,A,3256.765585,N,11706.473139,W,49.4,210.5,220710,,,A*4F
$GPRMC,004945.5,A,3256.731877,N,11706.495270,W,46.5,209.2,220710,,,A*4E
$GPRMC,004948.5,A,3256.697613,N,11706.515768,W,47.7,207.5,220710,,,A*4D
$GPRMC,004951.5,A,3256.661166,N,11706.537529,W,47.4,206.2,220710,,,A*4B
$GPRMC,004954.5,A,3256.625135,N,11706.555817,W,46.6,202.8,220710,,,A*41
$GPRMC,004957.5,A,3256.586591,N,11706.573660,W,49.7,200.9,220710,,,A*45
$GPRMC,005000.5,A,3256.544522,N,11706.592490,W,51.9,199.7,220710,,,A*41
$GPRMC,005003.5,A,3256.503887,N,11706.607520,W,52.7,198.6,220710,,,A*4B
$GPRMC,005006.5,A,3256.460047,N,11706.624500,W,55.2,198.1,220710,,,A*48
$GPRMC,005009.5,A,3256.413758,N,11706.639392,W,56.4,194.9,220710,,,A*4A
$GPRMC,005012.5,A,3256.364350,N,11706.653948,W,60.4,193.6,220710,,,A*47
$GPRMC,005015.5,A,3256.314939,N,11706.667235,W,58.4,193.3,220710,,,A*4A
$GPRMC,005018.5,A,3256.268494,N,11706.680808,W,56.8,194.8,220710,,,A*44
$GPRMC,005021.5,A,3256.225534,N,11706.693631,W,54.3,195.0,220710,,,A*4A
$GPRMC,005024.5,A,3256.183996,N,11706.706773,W,52.2,195.3,220710,,,A*4A
$GPRMC,005027.5,A,3256.141548,N,11706.717373,W,52.2,193.7,220710,,,A*4E
$GPRMC,005030.5,A,3256.099997,N,11706.727981,W,50.2,193.4,220710,,,A*47
$GPRMC,005033.5,A,3256.059773,N,11706.740620,W,48.4,193.8,220710,,,A*4A
$GPRMC,005036.5,A,3256.023406,N,11706.750651,W,45.4,194.1,220710,,,A*47
$GPRMC,005039.5,A,3255.987823,N,11706.760455,W,44.1,194.0,220710,,,A*47
$GPRMC,005042.5,A,3255.952572,N,11706.771004,W,44.1,194.4,220710,,,A*4E
$GPRMC,005045.5,A,3255.914777,N,11706.780251,W,46.8,192.6,220710,,,A*4F
$GPRMC,005048.5,A,3255.874140,N,11706.792140,W,50.3,193.0,220710,,,A*4C
$GPRMC,005051.5,A,3255.831104,N,11706.808693,W,52.5,194.4,220710,,,A*47
$GPRMC,005054.5,A,3255.787559,N,11706.823179,W,52.5,193.5,220710,,,A*40
$GPRMC,005057.5,A,3255.745348,N,11706.836097,W,51.5,193.9,220710,,,A*41
$GPRMC,005100.5,A,3255.702292,N,11706.848017,W,52.9,193.8,220710,,,A*48
$GPRMC,005103.5,A,3255.658712,N,11706.861554,W,52.6,193.0,220710,,,A*46
$GPRMC,005106.5,A,3255.617210,N,11706.874336,W,52.2,192.3,220710,,,A*4F
$GPRMC,005109.5,A,3255.572915,N,11706.887348,W,52.1,192.8,220710,,,A*43
$GPRMC,005112.5,A,3255.530483,N,11706.897565,W,53.0,191.8,220710,,,A*46
$GPRMC,005115.5,A,3255.485894,N,11706.908498,W,53.6,191.1,220710,,,A*4F
$GPRMC,005118.5,A,3255.439550,N,11706.919073,W,55.4,190.5,220710,,,A*40
$GPRMC,005121.5,A,3255.392669,N,11706.930234,W,55.6,190.0,220710,,,A*48
$GPRMC,005124.5,A,3255.347235,N,11706.939003,W,54.9,189.0,220710,,,A*41
$GPRMC,005127.5,A,3255.301478,N,11706.947996,W,54.9,187.5,220710,,,A*48
$GPRMC,005130.5,A,3255.255503,N,11706.955835,W,54.9,187.2,220710,,,A*4F
$GPRMC,005133.5,A,3255.208085,N,11706.965745,W,56.3,189.2,220710,,,A*42
$GPRMC,005136.5,A,3255.162787,N,11706.972914,W,55.3,189.5,220710,,,A*45
$GPRMC,005139.5,A,3255.122125,N,11706.976860,W,52.5,188.3,220710,,,A*40
$GPRMC,005142.5,A,3255.079986,N,11706.981667,W,49.4,186.2,220710,,,A*47
$GPRMC,005145.5,A,3255.039843,N,11706.986291,W,48.6,185.5,220710,,,A*41
$GPRMC,005148.5,A,3255.001174,N,11706.988577,W,48.8,184.3,220710,,,A*42
$GPRMC,005151.5,A,3254.960526,N,11706.991359,W,50.5,184.8,220710,,,A*4B
$GPRMC,005154.5,A,3254.915536,N,11706.995835,W,53.6,184.1,220710,,,A*41
$GPRMC,005157.5,A,3254.871373,N,11706.999457,W,54.5,183.6,220710,,,A*46
$GPRMC,005200.5,A,3254.823851,N,11707.002477,W,54.7,182.6,220710,,,A*40
$GPRMC,005203.5,A,3254.777667,N,11707.005779,W,53.9,181.9,220710,,,A*49
$GPRMC,005206.5,A,3254.733188,N,11707.006798,W,53.3,181.5,220710,,,A*40
$GPRMC,005209.5,A,3254.686422,N,11707.007772,W,54.6,180.8,220710,,,A*4E
$GPRMC,005212.5,A,3254.641183,N,11707.007469,W,55.7,179.8,220710,,,A*4E
$GPRMC,005215.5,A,3254.594255,N,11707.007152,W,56.9,179.0,220710,,,A*42
$GPRMC,005218.5,A,3254.545806,N,11707.006117,W,57.9,179.0,220710,,,A*4E
$GPRMC,005221.5,A,3254.497806,N,11707.005230,W,58.5,178.6,220710,,,A*4B
$GPRMC,005224.5,A,3254.447837,N,11707.004470,W,59.5,178.9,220710,,,A*4C
$GPRMC,005227.5,A,3254.398788,N,11707.003605,W,58.7,179.3,220710,,,A*4E
$GPRMC,005230.5,A,3254.349422,N,11707.003032,W,59.5,179.6,220710,,,A*43
$GPRMC,005233.5,A,3254.299962,N,11707.003072,W,58.9,180.0,220710,,,A*4C
$GPRMC,005236.5,A,3254.250693,N,11707.002388,W,59.1,179.3,220710,,,A*46
$GPRMC,005239.5,A,3254.202291,N,11707.001433,W,57.7,179.6,220710,,,A*41
$GPRMC,005242.5,A,3254.152509,N,11707.003169,W,59.3,180.3,220710,,,A*4C
$GPRMC,005245.5,A,3254.102774,N,11707.002913,W,58.4,179.0,220710,,,A*41
$GPRMC,005248.5,A,3254.052947,N,11707.002999,W,59.6,179.4,220710,,,A*43
$GPRMC,005251.5,A,3254.003252,N,11707.002481,W,59.5,178.9,220710,,,A*4B
$GPRMC,005254.5,A,3253.954295,N,11707.001739,W,59.4,179.2,220710,,,A*41
$GPRMC,005257.5,A,3253.904751,N,11707.000246,W,58.2,177.8,220710,,,A*45
$GPRMC,005300.5,A,3253.855666,N,11706.996084,W,59.0,175.1,220710,,,A*45
$GPRMC,005303.5,A,3253.806670,N,11706.989844,W,59.4,172.8,220710,,,A*47
$GPRMC,005306.5,A,3253.757141,N,11706.981105,W,59.8,169.9,220710,,,A*4F
$GPRMC,005309.5,A,3253.706546,N,11706.967536,W,62.0,166.6,220710,,,A*4B
$GPRMC,005312.5,A,3253.657508,N,11706.952312,W,61.0,165.4,220710,,,A*4A
$GPRMC,005315.5,A,3253.607491,N,11706.935615,W,61.0,163.5,220710,,,A*4D
$GPRMC,005318.5,A,3253.558175,N,11706.917384,W,61.5,162.4,220710,,,A*4E
$GPRMC,005321.5,A,3253.509013,N,11706.897669,W,61.7,161.6,220710,,,A*4D
$GPRMC,005324.5,A,3253.460508,N,11706.877984,W,62.2,160.6,220710,,,A*4C
$GPRMC,005327.5,A,3253.413964,N,11706.858364,W,57.4,159.5,220710,,,A*4D
$GPRMC,005330.5,A,3253.371887,N,11706.837927,W,53.8,157.1,220710,,,A*42
$GPRMC,005333.5,A,3253.330051,N,11706.815299,W,54.9,155.3,220710,,,A*4F
$GPRMC,005336.5,A,3253.286884,N,11706.790796,W,57.3,154.1,220710,,,A*44
$GPRMC,005339.5,A,3253.242909,N,11706.763309,W,60.4,153.0,220710,,,A*4C
$GPRMC,005342.5,A,3253.196344,N,11706.737414,W,60.4,154.4,220710,,,A*40
$GPRMC,005345.5,A,3253.151745,N,11706.711468,W,59.1,154.1,220710,,,A*4C
$GPRMC,005348.5,A,3253.109923,N,11706.688157,W,54.3,153.9,220710,,,A*4A
$GPRMC,005351.5,A,3253.071479,N,11706.666158,W,51.4,153.8,220710,,,A*42
$GPRMC,005354.5,A,3253.033022,N,11706.643370,W,50.6,153.3,220710,,,A*4C
$GPRMC,005357.5,A,3252.994514,N,11706.622092,W,50.2,154.7,220710,,,A*45
$GPRMC,005400.5,A,3252.956810,N,11706.598186,W,49.4,152.9,220710,,,A*47
$GPRMC,005403.5,A,3252.912242,N,11706.575576,W,55.3,156.5,220710,,,A*43
$GPRMC,005406.5,A,3252.868185,N,11706.555149,W,56.6,159.0,220710,,,A*44
$GPRMC,005409.5,A,3252.821329,N,11706.535312,W,57.9,161.8,220710,,,A*45
$GPRMC,005412.5,A,3252.775779,N,11706.517288,W,56.6,163.4,220710,,,A*42
$GPRMC,005415.5,A,3252.730981,N,11706.502905,W,56.1,165.7,220710,,,A*45
$GPRMC,005418.5,A,3252.683208,N,11706.490335,W,56.9,167.4,220710,,,A*41
$GPRMC,005421.5,A,3252.635212,N,11706.479883,W,58.1,169.7,220710,,,A*47
$GPRMC,005424.5,A,3252.585853,N,11706.471825,W,58.3,171.7,220710,,,A*4A
$GPRMC,005427.5,A,3252.535940,N,11706.466107,W,57.7,173.5,220710,,,A*45
$GPRMC,005430.5,A,3252.487431,N,11706.462485,W,57.0,175.9,220710,,,A*46
$GPRMC,005433.5,A,3252.439458,N,11706.460694,W,57.0,178.4,220710,,,A*4F
$GPRMC,005436.5,A,3252.391452,N,11706.460878,W,57.3,179.3,220710,,,A*4C
$GPRMC,005439.5,A,3252.344429,N,11706.461212,W,55.9,181.3,220710,,,A*4F
$GPRMC,005442.5,A,3252.297586,N,11706.463809,W,55.7,182.9,220710,,,A*4D
$GPRMC,005445.5,A,3252.249373,N,11706.469409,W,58.0,186.0,220710,,,A*44
$GPRMC,005448.5,A,3252.202730,N,11706.477943,W,55.5,188.4,220710,,,A*4B
$GPRMC,005451.5,A,3252.156630,N,11706.490287,W,55.6,192.3,220710,,,A*45
$GPRMC,005454.5,A,3252.107889,N,11706.504967,W,57.9,195.1,220710,,,A*49
$GPRMC,005457.5,A,3252.060477,N,11706.521937,W,58.8,197.5,220710,,,A*4D
$GPRMC,005500.5,A,3252.015840,N,11706.540087,W,57.1,200.1,220710,,,A*4E
$GPRMC,005503.5,A,3251.973758,N,11706.560768,W,54.6,203.6,220710,,,A*45
$GPRMC,005506.5,A,3251.930939,N,11706.587479,W,56.6,207.7,220710,,,A*43
$GPRMC,005509.5,A,3251.889501,N,11706.615878,W,54.8,209.3,220710,,,A*4B
$GPRMC,005512.5,A,3251.850183,N,11706.643789,W,53.8,210.8,220710,,,A*4D
$GPRMC,005515.5,A,3251.812411,N,11706.670586,W,53.3,210.5,220710,,,A*49
$GPRMC,005518.5,A,3251.772452,N,11706.698141,W,55.3,209.8,220710,,,A*40
$GPRMC,005521.5,A,3251.730197,N,11706.727913,W,57.3,210.6,220710,,,A*4E
$GPRMC,005524.5,A,3251.688024,N,11706.756984,W,57.1,210.3,220710,,,A*4F
$GPRMC,005527.5,A,3251.646021,N,11706.785596,W,58.6,210.3,220710,,,A*42
$GPRMC,005530.5,A,3251.602737,N,11706.816823,W,60.0,210.4,220710,,,A*48
$GPRMC,005533.5,A,3251.557605,N,11706.848164,W,62.1,210.4,220710,,,A*4A
$GPRMC,005536.5,A,3251.511409,N,11706.882128,W,65.2,211.2,220710,,,A*4E
$GPRMC,005539.5,A,3251.463578,N,11706.915986,W,65.4,210.6,220710,,,A*42
$GPRMC,005542.5,A,3251.418032,N,11706.949486,W,64.0,212.8,220710,,,A*44
$GPRMC,005545.5,A,3251.376691,N,11706.990704,W,65.9,223.0,220710,,,A*4C
$GPRMC,005548.5,A,3251.341194,N,11707.043245,W,68.1,232.8,220710,,,A*4C
$GPRMC,005551.5,A,3251.315398,N,11707.100168,W,65.9,242.7,220710,,,A*4C
$GPRMC,005554.5,A,3251.296573,N,11707.156500,W,62.2,247.7,220710,,,A*40
$GPRMC,005557.5,A,3251.277175,N,11707.212185,W,61.3,246.0,220710,,,A*40
$GPRMC,005600.5,A,3251.253385,N,11707.265481,W,61.9,240.3,220710,,,A*44
$GPRMC,005603.5,A,3251.223618,N,11707.316234,W,62.1,234.0,220710,,,A*47
$GPRMC,005606.5,A,3251.189893,N,11707.364465,W,60.7,228.2,220710,,,A*40
$GPRMC,005609.5,A,3251.152786,N,11707.406435,W,62.4,222.7,220710,,,A*4A
$GPRMC,005612.5,A,3251.111429,N,11707.446256,W,64.0,219.4,220710,,,A*4F
$GPRMC,005615.5,A,3251.069940,N,11707.485109,W,64.6,218.0,220710,,,A*41
$GPRMC,005618.5,A,3251.026782,N,11707.523791,W,63.3,217.1,220710,,,A*41
$GPRMC,005621.5,A,3250.985503,N,11707.559232,W,62.2,217.0,220710,,,A*41
$GPRMC,005624.5,A,3250.944144,N,11707.594987,W,62.3,216.9,220710,,,A*43
$GPRMC,005627.5,A,3250.902553,N,11707.630884,W,61.1,216.5,220710,,,A*42
$GPRMC,005630.5,A,3250.861701,N,11707.665267,W,59.8,216.6,220710,,,A*43
$GPRMC,005633.5,A,3250.820004,N,11707.702417,W,61.8,216.8,220710,,,A*43
$GPRMC,005636.5,A,3250.778636,N,11707.739329,W,62.7,217.2,220710,,,A*46
$GPRMC,005639.5,A,3250.736723,N,11707.778054,W,62.2,217.9,220710,,,A*44
$GPRMC,005642.5,A,3250.696437,N,11707.814599,W,61.7,217.3,220710,,,A*48
$GPRMC,005645.5,A,3250.655606,N,11707.852541,W,59.3,217.4,220710,,,A*4F
$GPRMC,005648.5,A,3250.615780,N,11707.888491,W,59.5,217.2,220710,,,A*42
$GPRMC,005651.5,A,3250.578094,N,11707.923464,W,55.4,218.1,220710,,,A*4B
$GPRMC,005654.5,A,3250.543768,N,11707.952959,W,53.4,217.5,220710,,,A*4A
$GPRMC,005657.5,A,3250.509060,N,11707.985964,W,51.3,217.6,220710,,,A*4A
$GPRMC,005700.5,A,3250.474047,N,11708.017204,W,52.3,217.9,220710,,,A*4B
$GPRMC,005703.5,A,3250.438214,N,11708.049343,W,54.0,217.3,220710,,,A*42
$GPRMC,005706.5,A,3250.400114,N,11708.085372,W,57.5,217.3,220710,,,A*4B
$GPRMC,005709.5,A,3250.362704,N,11708.118947,W,56.6,217.5,220710,,,A*4D
$GPRMC,005712.5,A,3250.324572,N,11708.153815,W,57.5,217.3,220710,,,A*4B
$GPRMC,005715.5,A,3250.287087,N,11708.186222,W,55.3,216.9,220710,,,A*42
$GPRMC,005718.5,A,3250.249638,N,11708.218610,W,55.0,217.0,220710,,,A*45
$GPRMC,005721.5,A,3250.211833,N,11708.253678,W,56.1,217.2,220710,,,A*46
$GPRMC,005724.5,A,3250.172362,N,11708.288204,W,57.8,216.3,220710,,,A*4B
$GPRMC,005727.5,A,3250.133369,N,11708.322229,W,58.9,216.0,220710,,,A*45
$GPRMC,005730.5,A,3250.092180,N,11708.355708,W,59.7,215.5,220710,,,A*43
$GPRMC,005733.5,A,3250.050133,N,11708.390183,W,60.6,214.5,220710,,,A*40
$GPRMC,005736.5,A,3250.007864,N,11708.423698,W,61.2,212.7,220710,,,A*4F
$GPRMC,005739.5,A,3249.964514,N,11708.452590,W,60.8,209.2,220710,,,A*47
$GPRMC,005742.5,A,3249.918618,N,11708.480877,W,62.4,207.0,220710,,,A*46
$GPRMC,005745.5,A,3249.869813,N,11708.512053,W,64.1,205.8,220710,,,A*4E
$GPRMC,005748.5,A,3249.822875,N,11708.538285,W,62.0,204.7,220710,,,A*44
$GPRMC,005751.5,A,3249.776958,N,11708.564411,W,62.8,205.9,220710,,,A*49
$GPRMC,005754.5,A,3249.733727,N,11708.589245,W,56.1,205.9,220710,,,A*41
$GPRMC,005757.5,A,3249.696269,N,11708.608784,W,50.7,204.9,220710,,,A*40
$GPRMC,005800.5,A,3249.658180,N,11708.629217,W,49.8,204.9,220710,,,A*40
$GPRMC,005803.5,A,3249.619679,N,11708.647646,W,49.1,203.3,220710,,,A*4B
$GPRMC,005806.5,A,3249.582632,N,11708.669797,W,49.4,206.2,220710,,,A*40
$GPRMC,005809.5,A,3249.549547,N,11708.686968,W,44.0,205.5,220710,,,A*4B
$GPRMC,005812.5,A,3249.518530,N,11708.705057,W,41.7,205.8,220710,,,A*45
$GPRMC,005815.5,A,3249.489655,N,11708.725034,W,41.4,209.4,220710,,,A*4F
$GPRMC,005818.5,A,3249.461788,N,11708.744902,W,39.8,209.8,220710,,,A*41
$GPRMC,005821.5,A,3249.434937,N,11708.761014,W,38.2,208.2,220710,,,A*48
$GPRMC,005824.5,A,3249.406922,N,11708.778335,W,37.1,208.0,220710,,,A*4E
$GPRMC,005827.5,A,3249.385049,N,11708.795228,W,33.6,213.9,220710,,,A*4B
$GPRMC,005830.5,A,3249.368132,N,11708.820095,W,33.6,230.7,220710,,,A*49
$GPRMC,005833.5,A,3249.361439,N,11708.851969,W,33.0,248.7,220710,,,A*48
$GPRMC,005836.5,A,3249.366319,N,11708.885460,W,30.3,269.0,220710,,,A*46
$GPRMC,005839.5,A,3249.368380,N,11708.909337,W,23.4,273.1,220710,,,A*48
$GPRMC,005842.5,A,3249.370997,N,11708.926783,W,15.8,274.3,220710,,,A*4B
$GPRMC,005845.5,A,3249.367072,N,11708.941488,W,15.3,245.9,220710,,,A*42
$GPRMC,005848.5,A,3249.355993,N,11708.945091,W,14.7,191.2,220710,,,A*44
$GPRMC,005851.5,A,3249.341950,N,11708.945094,W,13.1,184.1,220710,,,A*45
$GPRMC,005854.5,A,3249.335897,N,11708.944545,W,5.7,185.5,220710,,,A*75
$GPRMC,005900.5,A,3249.330708,N,11708.943616,W,5.9,176.6,220710,,,A*7A
$GPRMC,005903.5,A,3249.325342,N,11708.943137,W,5.9,182.1,220710,,,A*7F
$GPRMC,005933.5,A,3249.318873,N,11708.945846,W,6.4,247.4,220710,,,A*73
$GPRMC,005936.5,A,3249.317206,N,11708.960409,W,14.2,271.2,220710,,,A*47
$GPRMC,005939.5,A,3249.314639,N,11708.991991,W,27.9,268.1,220710,,,A*41
$GPRMC,005942.5,A,3249.312677,N,11709.029718,W,34.3,267.8,220710,,,A*4B
$GPRMC,005945.5,A,3249.311951,N,11709.065537,W,34.2,267.8,220710,,,A*42
$GPRMC,005948.5,A,3249.313078,N,11709.098016,W,31.4,272.4,220710,,,A*40
$GPRMC,005951.5,A,3249.313476,N,11709.130935,W,31.0,269.8,220710,,,A*4B
$GPRMC,005954.5,A,3249.311695,N,11709.162064,W,29.4,266.1,220710,,,A*42
$GPRMC,005957.5,A,3249.311501,N,11709.189439,W,27.8,268.0,220710,,,A*4B
$GPRMC,010000.5,A,3249.311057,N,11709.216205,W,28.3,270.6,220710,,,A*45
$GPRMC,010003.5,A,3249.321476,N,11709.239913,W,26.4,285.8,220710,,,A*4E
$GPRMC,010006.5,A,3249.320866,N,11709.251578,W,17.8,286.1,220710,,,A*4C
$GPRMC,010009.5,A,3249.319289,N,11709.258052,W,12.1,288.5,220710,,,A*40
$GPRMC,010033.5,A,3249.311667,N,11709.252786,W,6.4,275.2,220710,,,A*74
$GPRMC,010036.5,A,3249.311503,N,11709.263974,W,12.1,272.2,220710,,,A*46
$GPRMC,010039.5,A,3249.310731,N,11709.278173,W,14.2,269.0,220710,,,A*43
$GPRMC,010042.5,A,3249.311114,N,11709.292349,W,14.3,269.2,220710,,,A*43
$GPRMC,010045.5,A,3249.312214,N,11709.309496,W,19.5,270.9,220710,,,A*4A
$GPRMC,010048.5,A,3249.312581,N,11709.331571,W,23.2,269.4,220710,,,A*44
$GPRMC,010051.5,A,3249.312676,N,11709.357040,W,25.0,270.4,220710,,,A*4C
$GPRMC,010054.5,A,3249.311272,N,11709.383043,W,25.3,269.7,220710,,,A*48
$GPRMC,010057.5,A,3249.312051,N,11709.405627,W,21.0,269.1,220710,,,A*47
$GPRMC,010100.5,A,3249.311570,N,11709.423772,W,18.5,268.3,220710,,,A*48
$GPRMC,010103.5,A,3249.310578,N,11709.445984,W,23.7,268.6,220710,,,A*4A
$GPRMC,010106.5,A,3249.309995,N,11709.472790,W,27.2,269.1,220710,,,A*40
$GPRMC,010109.5,A,3249.309787,N,11709.502388,W,29.4,267.1,220710,,,A*4F
$GPRMC,010112.5,A,3249.308915,N,11709.533148,W,32.5,268.9,220710,,,A*41
$GPRMC,010115.5,A,3249.308508,N,11709.570494,W,39.3,267.4,220710,,,A*4A
$GPRMC,010118.5,A,3249.308543,N,11709.615303,W,44.1,268.8,220710,,,A*4A
$GPRMC,010121.5,A,3249.307027,N,11709.661898,W,46.3,270.1,220710,,,A*42
$GPRMC,010124.5,A,3249.306880,N,11709.707525,W,45.0,269.3,220710,,,A*43
$GPRMC,010127.5,A,3249.305292,N,11709.751252,W,43.5,268.1,220710,,,A*4E
$GPRMC,010130.5,A,3249.302566,N,11709.792605,W,41.4,264.3,220710,,,A*47
$GPRMC,010133.5,A,3249.297477,N,11709.832763,W,41.6,259.0,220710,,,A*43
$GPRMC,010136.5,A,3249.288674,N,11709.872678,W,41.8,253.5,220710,,,A*47
$GPRMC,010139.5,A,3249.275771,N,11709.913079,W,45.3,248.8,220710,,,A*47
$GPRMC,010142.5,A,3249.260792,N,11709.954526,W,44.5,248.3,220710,,,A*42
$GPRMC,010145.5,A,3249.247668,N,11709.994063,W,42.7,248.9,220710,,,A*42
$GPRMC,010148.5,A,3249.237066,N,11710.034222,W,42.4,251.1,220710,,,A*4F
$GPRMC,010151.5,A,3249.230265,N,11710.075972,W,42.4,258.4,220710,,,A*46
$GPRMC,010154.5,A,3249.225340,N,11710.115736,W,41.2,264.4,220710,,,A*42
$GPRMC,010157.5,A,3249.224131,N,11710.151962,W,34.5,268.9,220710,,,A*4F
$GPRMC,010200.5,A,3249.223140,N,11710.179954,W,27.5,270.3,220710,,,A*41
$GPRMC,010203.5,A,3249.222913,N,11710.201331,W,23.3,268.1,220710,,,A*41
$GPRMC,010206.5,A,3249.222118,N,11710.215606,W,14.1,266.9,220710,,,A*43
$GPRMC,010209.5,A,3249.221499,N,11710.221082,W,4.7,282.0,220710,,,A*7A
$GPRMC,010239.5,A,3249.223024,N,11710.227742,W,7.8,284.9,220710,,,A*77
$GPRMC,010242.5,A,3249.222008,N,11710.244943,W,16.9,266.6,220710,,,A*4C
$GPRMC,010245.5,A,3249.221118,N,11710.267811,W,21.8,266.4,220710,,,A*48
$GPRMC,010248.5,A,3249.221236,N,11710.292779,W,23.9,269.1,220710,,,A*48
$GPRMC,010251.5,A,3249.221731,N,11710.316543,W,24.5,268.2,220710,,,A*4D
$GPRMC,010254.5,A,3249.221244,N,11710.342993,W,25.1,268.7,220710,,,A*4F
$GPRMC,010257.5,A,3249.221560,N,11710.369029,W,25.4,268.5,220710,,,A*4B
$GPRMC,010300.5,A,3249.221839,N,11710.397096,W,27.6,268.7,220710,,,A*4E
$GPRMC,010303.5,A,3249.221703,N,11710.424063,W,27.5,268.3,220710,,,A*49
$GPRMC,010306.5,A,3249.221800,N,11710.450162,W,25.9,271.7,220710,,,A*41
$GPRMC,010309.5,A,3249.223198,N,11710.472801,W,24.2,275.2,220710,,,A*43
$GPRMC,010312.5,A,3249.223228,N,11710.497454,W,25.3,271.2,220710,,,A*42
$GPRMC,010315.5,A,3249.222939,N,11710.521379,W,24.4,269.3,220710,,,A*45
$GPRMC,010318.5,A,3249.223840,N,11710.546567,W,25.7,271.9,220710,,,A*4F
$GPRMC,010321.5,A,3249.225354,N,11710.573034,W,27.7,272.3,220710,,,A*43
$GPRMC,010324.5,A,3249.226037,N,11710.599799,W,25.0,273.5,220710,,,A*45
$GPRMC,010327.5,A,3249.225751,N,11710.626435,W,26.9,271.3,220710,,,A*4E
$GPRMC,010330.5,A,3249.224787,N,11710.657238,W,31.5,269.8,220710,,,A*47
$GPRMC,010333.5,A,3249.223417,N,11710.688266,W,30.5,266.8,220710,,,A*4E
$GPRMC,010336.5,A,3249.221263,N,11710.717362,W,29.0,264.0,220710,,,A*49
$GPRMC,010339.5,A,3249.217443,N,11710.743725,W,26.5,260.4,220710,,,A*4B
$GPRMC,010342.5,A,3249.213583,N,11710.765183,W,21.0,259.0,220710,,,A*4C
$GPRMC,010345.5,A,3249.210099,N,11710.780162,W,14.2,252.8,220710,,,A*45
$GPRMC,010348.5,A,3249.207908,N,11710.787363,W,6.6,254.5,220710,,,A*77
$GPRMC,010503.5,A,3249.203369,N,11710.801014,W,7.5,243.3,220710,,,A*77
$GPRMC,010506.5,A,3249.199030,N,11710.814651,W,11.4,249.3,220710,,,A*42
$GPRMC,010509.5,A,3249.186657,N,11710.851248,W,30.2,247.7,220710,,,A*46
$GPRMC,010512.5,A,3249.172696,N,11710.890643,W,33.4,246.0,220710,,,A*4B
$GPRMC,010515.5,A,3249.161168,N,11710.924200,W,33.2,246.8,220710,,,A*4B
$GPRMC,010518.5,A,3249.148098,N,11710.959295,W,38.4,245.3,220710,,,A*40
$GPRMC,010521.5,A,3249.132111,N,11710.996935,W,40.3,244.0,220710,,,A*4F
$GPRMC,010524.5,A,3249.119744,N,11711.033262,W,36.4,246.1,220710,,,A*4E
$GPRMC,010527.5,A,3249.109599,N,11711.061078,W,28.0,246.9,220710,,,A*43
$GPRMC,010530.5,A,3249.102736,N,11711.081159,W,19.7,248.0,220710,,,A*47
$GPRMC,010533.5,A,3249.097807,N,11711.094715,W,14.5,249.0,220710,,,A*40
$GPRMC,010536.5,A,3249.093225,N,11711.107421,W,15.1,244.8,220710,,,A*44
$GPRMC,010539.5,A,3249.087114,N,11711.128621,W,24.1,246.5,220710,,,A*4D
$GPRMC,010542.5,A,3249.076161,N,11711.154672,W,30.7,245.2,220710,,,A*47
$GPRMC,010545.5,A,3249.062772,N,11711.189000,W,37.9,244.8,220710,,,A*40
$GPRMC,010548.5,A,3249.049852,N,11711.224212,W,39.8,245.9,220710,,,A*43
$GPRMC,010551.5,A,3249.036824,N,11711.261138,W,40.5,246.0,220710,,,A*41
$GPRMC,010554.5,A,3249.023534,N,11711.295666,W,40.4,246.4,220710,,,A*4E
$GPRMC,010557.5,A,3249.009750,N,11711.332946,W,41.9,247.2,220710,,,A*4F
$GPRMC,010600.5,A,3248.994572,N,11711.372391,W,44.7,246.4,220710,,,A*48
$GPRMC,010603.5,A,3248.979646,N,11711.416147,W,48.1,247.2,220710,,,A*4D
$GPRMC,010606.5,A,3248.965260,N,11711.459894,W,47.6,248.8,220710,,,A*44
$GPRMC,010609.5,A,3248.951259,N,11711.506387,W,48.7,248.6,220710,,,A*44
$GPRMC,010612.5,A,3248.933418,N,11711.550474,W,47.2,242.7,220710,,,A*40
$GPRMC,010615.5,A,3248.909613,N,11711.590501,W,49.6,232.2,220710,,,A*40
$GPRMC,010618.5,A,3248.879175,N,11711.627701,W,51.8,227.2,220710,,,A*42
$GPRMC,010621.5,A,3248.847504,N,11711.664577,W,50.7,227.7,220710,,,A*48
$GPRMC,010624.5,A,3248.812973,N,11711.698975,W,52.1,223.4,220710,,,A*4F
$GPRMC,010627.5,A,3248.783158,N,11711.737143,W,52.5,227.1,220710,,,A*46
$GPRMC,010630.5,A,3248.756711,N,11711.776273,W,50.6,233.5,220710,,,A*46
$GPRMC,010633.5,A,3248.734236,N,11711.818375,W,50.3,239.7,220710,,,A*4C
$GPRMC,010636.5,A,3248.719237,N,11711.862415,W,48.2,247.6,220710,,,A*4B
$GPRMC,010639.5,A,3248.708508,N,11711.908164,W,46.9,254.4,220710,,,A*44
$GPRMC,010642.5,A,3248.702273,N,11711.949141,W,43.2,258.5,220710,,,A*48
$GPRMC,010645.5,A,3248.701851,N,11711.984763,W,37.2,266.3,220710,,,A*49
$GPRMC,010648.5,A,3248.702923,N,11712.013090,W,28.2,270.6,220710,,,A*40
$GPRMC,010651.5,A,3248.704037,N,11712.032765,W,18.1,271.2,220710,,,A*49
$GPRMC,010654.5,A,3248.705329,N,11712.042796,W,9.7,271.1,220710,,,A*7F
$GPRMC,010730.5,A,3248.705521,N,11712.054862,W,8.0,257.5,220710,,,A*77
$GPRMC,010733.5,A,3248.696180,N,11712.061610,W,14.0,194.7,220710,,,A*4E
$GPRMC,010736.5,A,3248.678813,N,11712.061783,W,21.6,176.3,220710,,,A*4B
$GPRMC,010739.5,A,3248.653522,N,11712.062986,W,29.8,180.4,220710,,,A*42
$GPRMC,010742.5,A,3248.627524,N,11712.061446,W,30.2,176.8,220710,,,A*4E
$GPRMC,010745.5,A,3248.600850,N,11712.062987,W,30.3,181.7,220710,,,A*47
$GPRMC,010748.5,A,3248.578360,N,11712.064998,W,24.1,184.0,220710,,,A*43
$GPRMC,010751.5,A,3248.562066,N,11712.065571,W,19.9,180.3,220710,,,A*4E
$GPRMC,010754.5,A,3248.538951,N,11712.066633,W,28.5,179.9,220710,,,A*4D
$GPRMC,010757.5,A,3248.510363,N,11712.066508,W,34.5,179.3,220710,,,A*43
$GPRMC,010800.5,A,3248.478938,N,11712.067162,W,36.8,181.0,220710,,,A*47
$GPRMC,010803.5,A,3248.448410,N,11712.067675,W,36.7,181.8,220710,,,A*46
$GPRMC,010806.5,A,3248.416664,N,11712.068800,W,37.0,182.2,220710,,,A*45
$GPRMC,010809.5,A,3248.388948,N,11712.067326,W,34.9,178.1,220710,,,A*47
$GPRMC,010812.5,A,3248.361621,N,11712.064625,W,31.3,177.1,220710,,,A*4F
$GPRMC,010815.5,A,3248.341961,N,11712.066668,W,24.6,188.3,220710,,,A*49
$GPRMC,010818.5,A,3248.331856,N,11712.075152,W,18.4,208.7,220710,,,A*48
$GPRMC,010821.5,A,3248.332351,N,11712.094262,W,17.1,243.5,220710,,,A*45
$GPRMC,010824.5,A,3248.340073,N,11712.123376,W,23.6,271.6,220710,,,A*4D
$GPRMC,010827.5,A,3248.342069,N,11712.142010,W,16.1,269.7,220710,,,A*4A
$GPRMC,010830.5,A,3248.337537,N,11712.151900,W,10.7,231.4,220710,,,A*44
$GPRMC,010833.5,A,3248.327485,N,11712.153469,W,12.6,185.6,220710,,,A*43
$GPRMC,010836.5,A,3248.310483,N,11712.151375,W,20.9,172.6,220710,,,A*4A
$GPRMC,010839.5,A,3248.288651,N,11712.150560,W,25.3,177.5,220710,,,A*42
$GPRMC,010842.5,A,3248.268339,N,11712.153703,W,24.4,189.7,220710,,,A*4A
$GPRMC,010845.5,A,3248.252062,N,11712.162441,W,21.2,209.2,220710,,,A*43
$GPRMC,010848.5,A,3248.243401,N,11712.171720,W,12.9,219.1,220710,,,A*40
$GPRMC,010851.5,A,3248.238775,N,11712.176494,W,10.0,223.1,220710,,,A*4D
$GPRMC,010854.5,A,3248.229466,N,11712.187360,W,17.3,223.1,220710,,,A*4F
$GPRMC,010857.5,A,3248.214876,N,11712.199443,W,20.2,208.8,220710,,,A*43
$GPRMC,010900.5,A,3248.196728,N,11712.203156,W,23.0,187.4,220710,,,A*45
$GPRMC,010903.5,A,3248.176517,N,11712.199938,W,25.7,172.7,220710,,,A*4E
$GPRMC,010906.5,A,3248.156433,N,11712.195760,W,24.7,174.8,220710,,,A*49
$GPRMC,010909.5,A,3248.139848,N,11712.198671,W,20.9,197.8,220710,,,A*44
$GPRMC,010912.5,A,3248.125950,N,11712.207231,W,18.3,208.4,220710,,,A*46
$GPRMC,010915.5,A,3248.122822,N,11712.218925,W,11.1,235.1,220710,,,A*42
$GPRMC,010918.5,A,3248.124870,N,11712.231261,W,14.4,268.8,220710,,,A*4F
$GPRMC,010921.5,A,3248.125708,N,11712.253111,W,25.1,270.4,220710,,,A*46
$GPRMC,010924.5,A,3248.125727,N,11712.281044,W,27.5,270.2,220710,,,A*40
$GPRMC,010927.5,A,3248.123941,N,11712.306390,W,21.9,260.8,220710,,,A*4E
$GPRMC,010930.5,A,3248.119343,N,11712.319625,W,11.8,243.0,220710,,,A*47
$GPRMC,010933.5,A,3248.114592,N,11712.324404,W,9.8,213.5,220710,,,A*75
$GPRMC,010936.5,A,3248.103280,N,11712.320101,W,15.9,158.1,220710,,,A*42
$GPRMC,010939.5,A,3248.087246,N,11712.308750,W,22.7,151.7,220710,,,A*47
$GPRMC,010942.5,A,3248.067534,N,11712.297261,W,25.2,157.7,220710,,,A*43
$GPRMC,010945.5,A,3248.046483,N,11712.292313,W,26.4,170.7,220710,,,A*4B
$GPRMC,010948.5,A,3248.021839,N,11712.291540,W,27.2,178.7,220710,,,A*46
$GPRMC,010951.5,A,3247.999852,N,11712.292167,W,25.1,180.2,220710,,,A*47
$GPRMC,010954.5,A,3247.979763,N,11712.289694,W,25.8,168.3,220710,,,A*4E
