NMEA Sentence Code,UTC Time,Status,Latitude,Latitude Direction,Longitude,Longitude Direction,Speed (knots),Track Angle (degrees true),Date,MagneticVariation,Magnetic Variation Direction,[FAA Mode]-Optional,Checksum
$GPRMC,192936.000,A,3252.2370,N,11713.2229,W,29.16,245.04,191110,,,A*46
$GPRMC,192939.000,A,3252.2280,N,11713.2529,W,30.13,252.07,191110,,,A*48
$GPRMC,192942.000,A,3252.2241,N,11713.2841,W,31.10,261.91,191110,,,A*47
$GPRMC,192945.000,A,3252.2235,N,11713.3150,W,31.10,271.05,191110,,,A*47
$GPRMC,192948.000,A,3252.2286,N,11713.3443,W,30.62,281.60,191110,,,A*4D
$GPRMC,192951.000,A,3252.2367,N,11713.3713,W,29.65,287.93,191110,,,A*48
$GPRMC,192954.000,A,3252.2495,N,11713.3993,W,32.07,296.37,191110,,,A*41
$GPRMC,192957.000,A,3252.2627,N,11713.4286,W,32.56,297.42,191110,,,A*46
$GPRMC,193000.000,A,3252.2772,N,11713.4563,W,33.53,300.59,191110,,,A*40
$GPRMC,193003.000,A,3252.2933,N,11713.4852,W,34.99,299.88,191110,,,A*4B
$GPRMC,193006.000,A,3252.3065,N,11713.5145,W,34.02,299.53,191110,,,A*4F
$GPRMC,193009.000,A,3252.3200,N,11713.5448,W,34.50,298.83,191110,,,A*42
$GPRMC,193012.000,A,3252.3319,N,11713.5776,W,34.50,293.91,191110,,,A*47
$GPRMC,193015.000,A,3252.3413,N,11713.6098,W,34.02,288.98,191110,,,A*4D
$GPRMC,193018.000,A,3252.3471,N,11713.6420,W,33.53,282.30,191110,,,A*48
$GPRMC,193021.000,A,3252.3506,N,11713.6742,W,33.05,279.14,191110,,,A*45
$GPRMC,193024.000,A,3252.3590,N,11713.7067,W,31.59,292.15,191110,,,A*41
$GPRMC,193027.000,A,3252.3783,N,11713.7257,W,29.65,322.03,191110,,,A*48
$GPRMC,193030.000,A,3252.4085,N,11713.7295,W,34.02,350.16,191110,,,A*4A
$GPRMC,193033.000,A,3252.4430,N,11713.7305,W,40.34,357.89,191110,,,A*4C
$GPRMC,193036.000,A,3252.4858,N,11713.7257,W,47.14,01.76,191110,,,A*78
$GPRMC,193039.000,A,3252.5292,N,11713.7221,W,52.97,02.81,191110,,,A*7F
$GPRMC,193042.000,A,3252.5753,N,11713.7176,W,54.43,03.87,191110,,,A*72
$GPRMC,193045.000,A,3252.6200,N,11713.7134,W,53.94,03.87,191110,,,A*7E
$GPRMC,193048.000,A,3252.6654,N,11713.7096,W,54.92,03.16,191110,,,A*76
$GPRMC,193051.000,A,3252.7130,N,11713.7070,W,57.83,03.52,191110,,,A*71
$GPRMC,193054.000,A,3252.7642,N,11713.7031,W,61.72,03.52,191110,,,A*78
$GPRMC,193057.000,A,3252.8170,N,11713.6983,W,63.18,04.57,191110,,,A*7F
$GPRMC,193100.000,A,3252.8698,N,11713.6951,W,63.66,04.22,191110,,,A*79
$GPRMC,193103.000,A,3252.9238,N,11713.6919,W,64.15,03.16,191110,,,A*7A
$GPRMC,193106.000,A,3252.9773,N,11713.6880,W,65.61,03.16,191110,,,A*76
$GPRMC,193109.000,A,3253.0333,N,11713.6813,W,66.58,04.22,191110,,,A*72
$GPRMC,193112.000,A,3253.0886,N,11713.6758,W,67.07,04.57,191110,,,A*74
$GPRMC,193115.000,A,3253.1453,N,11713.6700,W,68.04,04.57,191110,,,A*77
$GPRMC,193118.000,A,3253.2013,N,11713.6639,W,68.52,04.92,191110,,,A*78
$GPRMC,193121.000,A,3253.2595,N,11713.6558,W,69.50,04.92,191110,,,A*7E
$GPRMC,193124.000,A,3253.3191,N,11713.6507,W,70.47,04.92,191110,,,A*7E
$GPRMC,193127.000,A,3253.3796,N,11713.6449,W,70.95,04.22,191110,,,A*73
$GPRMC,193130.000,A,3253.4382,N,11713.6417,W,72.44,04.92,191110,,,A*7D
$GPRMC,193133.000,A,3253.4977,N,11713.6381,W,72.41,04.22,191110,,,A*78
$GPRMC,193136.000,A,3253.5576,N,11713.6330,W,72.90,04.92,191110,,,A*7C
$GPRMC,193139.000,A,3253.6194,N,11713.6208,W,74.87,11.25,191110,,,A*7A
$GPRMC,193142.000,A,3253.6799,N,11713.6027,W,74.85,15.47,191110,,,A*70
$GPRMC,193145.000,A,3253.7401,N,11713.5799,W,74.84,17.58,191110,,,A*78
$GPRMC,193148.000,A,3253.7971,N,11713.5561,W,72.90,18.63,191110,,,A*7E
$GPRMC,193151.000,A,3253.8547,N,11713.5335,W,71.93,18.28,191110,,,A*78
$GPRMC,193154.000,A,3253.9120,N,11713.5104,W,71.44,17.93,191110,,,A*7C
$GPRMC,193157.000,A,3253.9680,N,11713.4888,W,70.47,18.28,191110,,,A*73
$GPRMC,193200.000,A,3254.0246,N,11713.4669,W,70.47,17.58,191110,,,A*7B
$GPRMC,193203.000,A,3254.0809,N,11713.4482,W,70.95,14.77,191110,,,A*7F
$GPRMC,193206.000,A,3254.1411,N,11713.4341,W,69.98,08.44,191110,,,A*7E
$GPRMC,193209.000,A,3254.1991,N,11713.4312,W,68.52,01.76,191110,,,A*7D
$GPRMC,193212.000,A,3254.2557,N,11713.4373,W,66.58,354.73,191110,,,A*47
$GPRMC,193215.000,A,3254.3095,N,11713.4492,W,65.12,345.94,191110,,,A*46
$GPRMC,193218.000,A,3254.3619,N,11713.4666,W,64.16,340.31,191110,,,A*4F
$GPRMC,193221.000,A,3254.4105,N,11713.4910,W,62.21,333.28,191110,,,A*48
$GPRMC,193224.000,A,3254.4566,N,11713.5210,W,61.73,328.01,191110,,,A*43
$GPRMC,193227.000,A,3254.5003,N,11713.5561,W,63.18,324.84,191110,,,A*48
$GPRMC,193230.000,A,3254.5431,N,11713.5918,W,61.23,324.84,191110,,,A*43
$GPRMC,193233.000,A,3254.5847,N,11713.6243,W,57.84,329.06,191110,,,A*44
$GPRMC,193236.000,A,3254.6265,N,11713.6510,W,57.35,332.93,191110,,,A*45
$GPRMC,193239.000,A,3254.6696,N,11713.6768,W,57.35,332.23,191110,,,A*44
$GPRMC,193242.000,A,3254.7115,N,11713.7022,W,55.90,332.93,191110,,,A*4B
$GPRMC,193245.000,A,3254.7527,N,11713.7283,W,56.37,331.52,191110,,,A*40
$GPRMC,193248.000,A,3254.7961,N,11713.7566,W,61.73,330.12,191110,,,A*4E
$GPRMC,193251.000,A,3254.8399,N,11713.7868,W,60.26,329.77,191110,,,A*4D
$GPRMC,193254.000,A,3254.8817,N,11713.8197,W,59.78,323.79,191110,,,A*46
$GPRMC,193257.000,A,3254.9213,N,11713.8580,W,61.72,319.92,191110,,,A*45
$GPRMC,193300.000,A,3254.9587,N,11713.9011,W,63.18,315.35,191110,,,A*4F
$GPRMC,193303.000,A,3254.9902,N,11713.9497,W,62.69,310.08,191110,,,A*4B
$GPRMC,193306.000,A,3255.0240,N,11713.9983,W,63.66,309.02,191110,,,A*4F
$GPRMC,193309.000,A,3255.0575,N,11714.0450,W,61.72,311.48,191110,,,A*4C
$GPRMC,193312.000,A,3255.0926,N,11714.0904,W,63.18,313.24,191110,,,A*46
$GPRMC,193315.000,A,3255.1331,N,11714.1351,W,67.56,319.22,191110,,,A*45
$GPRMC,193318.000,A,3255.1779,N,11714.1782,W,69.50,322.38,191110,,,A*41
$GPRMC,193321.000,A,3255.2258,N,11714.2185,W,71.47,327.30,191110,,,A*4E
$GPRMC,193324.000,A,3255.2773,N,11714.2551,W,71.47,331.52,191110,,,A*49
$GPRMC,193327.000,A,3255.3307,N,11714.2864,W,71.95,335.39,191110,,,A*41
$GPRMC,193330.000,A,3255.3861,N,11714.3131,W,72.44,339.96,191110,,,A*42
$GPRMC,193333.000,A,3255.4434,N,11714.3353,W,71.93,344.53,191110,,,A*46
$GPRMC,193336.000,A,3255.5013,N,11714.3530,W,70.96,345.59,191110,,,A*4F
$GPRMC,193339.000,A,3255.5577,N,11714.3713,W,69.02,344.53,191110,,,A*4A
$GPRMC,193342.000,A,3255.6121,N,11714.3897,W,66.59,344.18,191110,,,A*4F
$GPRMC,193345.000,A,3255.6648,N,11714.4074,W,64.64,344.53,191110,,,A*41
$GPRMC,193348.000,A,3255.7170,N,11714.4235,W,64.16,346.64,191110,,,A*45
$GPRMC,193351.000,A,3255.7691,N,11714.4376,W,64.64,347.70,191110,,,A*42
$GPRMC,193354.000,A,3255.8226,N,11714.4499,W,65.61,349.45,191110,,,A*4A
$GPRMC,193357.000,A,3255.8763,N,11714.4605,W,65.12,351.56,191110,,,A*45
$GPRMC,193400.000,A,3255.9294,N,11714.4685,W,64.15,354.02,191110,,,A*46
$GPRMC,193403.000,A,3255.9825,N,11714.4734,W,64.16,355.78,191110,,,A*41
$GPRMC,193406.000,A,3256.0356,N,11714.4766,W,64.67,356.48,191110,,,A*40
$GPRMC,193409.000,A,3256.0897,N,11714.4801,W,65.12,356.84,191110,,,A*44
$GPRMC,193412.000,A,3256.1438,N,11714.4837,W,65.12,356.84,191110,,,A*43
$GPRMC,193415.000,A,3256.1985,N,11714.4882,W,65.12,356.48,191110,,,A*41
$GPRMC,193418.000,A,3256.2526,N,11714.4911,W,65.12,357.19,191110,,,A*44
$GPRMC,193421.000,A,3256.3066,N,11714.4956,W,64.15,356.13,191110,,,A*40
$GPRMC,193424.000,A,3256.3601,N,11714.5004,W,64.15,355.08,191110,,,A*44
$GPRMC,193427.000,A,3256.4129,N,11714.5078,W,63.66,352.97,191110,,,A*44
$GPRMC,193430.000,A,3256.4644,N,11714.5171,W,62.69,351.56,191110,,,A*46
$GPRMC,193433.000,A,3256.5152,N,11714.5271,W,62.69,351.21,191110,,,A*47
$GPRMC,193436.000,A,3256.5680,N,11714.5368,W,63.66,351.21,191110,,,A*4D
$GPRMC,193439.000,A,3256.6201,N,11714.5474,W,63.66,350.86,191110,,,A*4A
$GPRMC,193442.000,A,3256.6726,N,11714.5567,W,63.18,351.21,191110,,,A*40
$GPRMC,193445.000,A,3256.7257,N,11714.5670,W,64.15,350.86,191110,,,A*46
$GPRMC,193448.000,A,3256.7785,N,11714.5764,W,63.66,351.21,191110,,,A*4A
$GPRMC,193451.000,A,3256.8306,N,11714.5857,W,63.66,351.21,191110,,,A*4D
$GPRMC,193454.000,A,3256.8831,N,11714.5960,W,63.67,351.21,191110,,,A*43
$GPRMC,193457.000,A,3256.9359,N,11714.6063,W,64.64,350.86,191110,,,A*45
$GPRMC,193500.000,A,3256.9900,N,11714.6156,W,65.12,351.21,191110,,,A*4B
$GPRMC,193503.000,A,3257.0444,N,11714.6246,W,65.61,351.21,191110,,,A*4B
$GPRMC,193506.000,A,3257.0981,N,11714.6362,W,66.58,350.51,191110,,,A*42
$GPRMC,193509.000,A,3257.1525,N,11714.6465,W,66.58,350.86,191110,,,A*44
$GPRMC,193512.000,A,3257.2063,N,11714.6578,W,65.61,350.86,191110,,,A*4E
$GPRMC,193515.000,A,3257.2616,N,11714.6691,W,66.58,350.51,191110,,,A*4A
$GPRMC,193518.000,A,3257.3154,N,11714.6797,W,65.61,350.86,191110,,,A*43
$GPRMC,193521.000,A,3257.3688,N,11714.6890,W,64.15,351.21,191110,,,A*49
$GPRMC,193524.000,A,3257.4219,N,11714.6987,W,63.66,350.86,191110,,,A*4F
$GPRMC,193527.000,A,3257.4728,N,11714.7087,W,61.72,351.21,191110,,,A*48
$GPRMC,193530.000,A,3257.5204,N,11714.7183,W,57.83,349.80,191110,,,A*48
$GPRMC,193533.000,A,3257.5680,N,11714.7309,W,59.29,347.70,191110,,,A*4C
$GPRMC,193536.000,A,3257.6170,N,11714.7437,W,60.78,346.29,191110,,,A*4B
$GPRMC,193539.000,A,3257.6659,N,11714.7589,W,59.81,344.18,191110,,,A*40
$GPRMC,193542.000,A,3257.7142,N,11714.7753,W,58.35,342.77,191110,,,A*44
$GPRMC,193545.000,A,3257.7605,N,11714.7927,W,57.86,342.42,191110,,,A*4B
$GPRMC,193548.000,A,3257.8062,N,11714.8097,W,56.89,342.42,191110,,,A*4D
$GPRMC,193551.000,A,3257.8513,N,11714.8265,W,56.41,342.42,191110,,,A*4D
$GPRMC,193554.000,A,3257.8960,N,11714.8435,W,55.92,342.42,191110,,,A*4E
$GPRMC,193557.000,A,3257.9408,N,11714.8603,W,57.38,342.42,191110,,,A*4A
$GPRMC,193600.000,A,3257.9874,N,11714.8780,W,59.32,342.42,191110,,,A*42
$GPRMC,193603.000,A,3258.0338,N,11714.8957,W,58.84,342.42,191110,,,A*4C
$GPRMC,193606.000,A,3258.0811,N,11714.9130,W,60.29,342.42,191110,,,A*4D
$GPRMC,193609.000,A,3258.1294,N,11714.9311,W,60.78,342.42,191110,,,A*41
$GPRMC,193612.000,A,3258.1773,N,11714.9494,W,60.78,342.42,191110,,,A*4D
$GPRMC,193615.000,A,3258.2259,N,11714.9681,W,61.24,342.07,191110,,,A*4B
$GPRMC,193618.000,A,3258.2748,N,11714.9864,W,62.21,342.42,191110,,,A*41
$GPRMC,193621.000,A,3258.3247,N,11715.0054,W,63.18,342.42,191110,,,A*48
$GPRMC,193624.000,A,3258.3753,N,11715.0244,W,63.18,342.42,191110,,,A*4E
$GPRMC,193627.000,A,3258.4248,N,11715.0428,W,61.72,342.42,191110,,,A*47
$GPRMC,193630.000,A,3258.4731,N,11715.0611,W,60.26,342.42,191110,,,A*42
$GPRMC,193633.000,A,3258.5208,N,11715.0788,W,60.75,342.42,191110,,,A*48
$GPRMC,193636.000,A,3258.5703,N,11715.0975,W,63.18,342.42,191110,,,A*47
$GPRMC,193639.000,A,3258.6212,N,11715.1168,W,64.16,342.07,191110,,,A*43
$GPRMC,193642.000,A,3258.6717,N,11715.1361,W,63.21,342.42,191110,,,A*46
$GPRMC,193645.000,A,3258.7226,N,11715.1551,W,64.18,342.42,191110,,,A*4F
$GPRMC,193648.000,A,3258.7734,N,11715.1744,W,63.69,342.42,191110,,,A*43
$GPRMC,193651.000,A,3258.8239,N,11715.1937,W,63.19,342.42,191110,,,A*41
$GPRMC,193654.000,A,3258.8725,N,11715.2117,W,60.78,342.42,191110,,,A*41
$GPRMC,193657.000,A,3258.9212,N,11715.2301,W,61.23,342.42,191110,,,A*48
$GPRMC,193700.000,A,3258.9710,N,11715.2484,W,63.69,342.42,191110,,,A*4A
$GPRMC,193703.000,A,3259.0229,N,11715.2677,W,66.12,343.48,191110,,,A*42
$GPRMC,193706.000,A,3259.0769,N,11715.2848,W,67.56,346.29,191110,,,A*47
$GPRMC,193709.000,A,3259.1323,N,11715.2964,W,67.55,350.86,191110,,,A*4D
$GPRMC,193712.000,A,3259.1877,N,11715.3044,W,66.58,352.62,191110,,,A*43
$GPRMC,193715.000,A,3259.2408,N,11715.3131,W,64.64,352.62,191110,,,A*4D
$GPRMC,193718.000,A,3259.2945,N,11715.3218,W,64.15,351.91,191110,,,A*45
$GPRMC,193721.000,A,3259.3470,N,11715.3295,W,64.15,352.62,191110,,,A*4F
$GPRMC,193724.000,A,3259.4004,N,11715.3373,W,63.66,352.62,191110,,,A*40
$GPRMC,193727.000,A,3259.4516,N,11715.3453,W,62.21,352.27,191110,,,A*43
$GPRMC,193730.000,A,3259.5037,N,11715.3537,W,63.66,352.27,191110,,,A*43
$GPRMC,193733.000,A,3259.5581,N,11715.3627,W,67.07,351.91,191110,,,A*47
$GPRMC,193736.000,A,3259.6135,N,11715.3736,W,66.58,351.91,191110,,,A*40
$GPRMC,193739.000,A,3259.6669,N,11715.3830,W,64.64,351.91,191110,,,A*45
$GPRMC,193742.000,A,3259.7197,N,11715.3907,W,63.18,352.27,191110,,,A*49
$GPRMC,193745.000,A,3259.7699,N,11715.3974,W,60.26,352.27,191110,,,A*4D
$GPRMC,193748.000,A,3259.8188,N,11715.4048,W,58.80,352.27,191110,,,A*4E
$GPRMC,193751.000,A,3259.8681,N,11715.4126,W,58.80,352.62,191110,,,A*40
$GPRMC,193754.000,A,3259.9157,N,11715.4206,W,58.32,352.62,191110,,,A*40
$GPRMC,193757.000,A,3259.9624,N,11715.4258,W,56.37,352.62,191110,,,A*40
$GPRMC,193800.000,A,3300.0084,N,11715.4332,W,54.92,352.27,191110,,,A*44
$GPRMC,193803.000,A,3300.0528,N,11715.4396,W,53.94,352.97,191110,,,A*40
$GPRMC,193806.000,A,3300.0966,N,11715.4483,W,53.94,351.91,191110,,,A*45
$GPRMC,193809.000,A,3300.1407,N,11715.4576,W,54.43,349.80,191110,,,A*4E
$GPRMC,193812.000,A,3300.1877,N,11715.4715,W,57.86,343.83,191110,,,A*4B
$GPRMC,193815.000,A,3300.2340,N,11715.4905,W,57.84,339.26,191110,,,A*4F
$GPRMC,193818.000,A,3300.2794,N,11715.5146,W,59.78,335.39,191110,,,A*4E
$GPRMC,193821.000,A,3300.3203,N,11715.5429,W,57.83,329.77,191110,,,A*4F
$GPRMC,193824.000,A,3300.3554,N,11715.5770,W,55.44,321.68,191110,,,A*4F
$GPRMC,193827.000,A,3300.3908,N,11715.6121,W,54.92,318.16,191110,,,A*41
$GPRMC,193830.000,A,3300.4236,N,11715.6491,W,54.95,316.05,191110,,,A*43
$GPRMC,193833.000,A,3300.4564,N,11715.6874,W,56.89,316.05,191110,,,A*48
$GPRMC,193836.000,A,3300.4922,N,11715.7274,W,61.75,318.16,191110,,,A*43
$GPRMC,193839.000,A,3300.5305,N,11715.7689,W,62.72,316.76,191110,,,A*48
$GPRMC,193842.000,A,3300.5685,N,11715.8110,W,61.75,316.41,191110,,,A*41
$GPRMC,193845.000,A,3300.6055,N,11715.8529,W,61.24,316.05,191110,,,A*44
$GPRMC,193848.000,A,3300.6422,N,11715.8957,W,61.72,316.05,191110,,,A*4B
$GPRMC,193851.000,A,3300.6785,N,11715.9369,W,60.27,316.41,191110,,,A*4A
$GPRMC,193854.000,A,3300.7155,N,11715.9787,W,61.72,316.41,191110,,,A*40
$GPRMC,193857.000,A,3300.7535,N,11716.0222,W,63.66,315.70,191110,,,A*47
$GPRMC,193900.000,A,3300.7931,N,11716.0676,W,66.58,316.05,191110,,,A*40
$GPRMC,193903.000,A,3300.8343,N,11716.1142,W,68.52,315.70,191110,,,A*47
$GPRMC,193906.000,A,3300.8771,N,11716.1635,W,68.53,314.65,191110,,,A*44
$GPRMC,193909.000,A,3300.9177,N,11716.2085,W,65.15,319.22,191110,,,A*45
$GPRMC,193912.000,A,3300.9608,N,11716.2485,W,65.61,323.79,191110,,,A*40
$GPRMC,193915.000,A,3301.0065,N,11716.2835,W,66.59,329.06,191110,,,A*4F
$GPRMC,193918.000,A,3301.0554,N,11716.3151,W,67.56,333.98,191110,,,A*4D
$GPRMC,193921.000,A,3301.1076,N,11716.3421,W,68.53,338.55,191110,,,A*41
$GPRMC,193924.000,A,3301.1613,N,11716.3640,W,69.01,342.77,191110,,,A*4F
$GPRMC,193927.000,A,3301.2180,N,11716.3798,W,69.01,348.05,191110,,,A*49
$GPRMC,193930.000,A,3301.2746,N,11716.3907,W,69.50,350.86,191110,,,A*4D
$GPRMC,193933.000,A,3301.3322,N,11716.4017,W,69.98,350.51,191110,,,A*48
$GPRMC,193936.000,A,3301.3905,N,11716.4136,W,70.95,350.16,191110,,,A*46
$GPRMC,193939.000,A,3301.4491,N,11716.4268,W,70.95,348.05,191110,,,A*4D
$GPRMC,193942.000,A,3301.5054,N,11716.4458,W,70.47,342.42,191110,,,A*4E
$GPRMC,193945.000,A,3301.5592,N,11716.4722,W,70.01,336.09,191110,,,A*46
$GPRMC,193948.000,A,3301.6110,N,11716.5034,W,69.52,331.17,191110,,,A*41
$GPRMC,193951.000,A,3301.6612,N,11716.5372,W,69.04,330.47,191110,,,A*4A
$GPRMC,193954.000,A,3301.7108,N,11716.5710,W,67.58,330.47,191110,,,A*45
$GPRMC,193957.000,A,3301.7590,N,11716.6038,W,66.12,330.47,191110,,,A*42
$GPRMC,194000.000,A,3301.8073,N,11716.6363,W,66.10,330.82,191110,,,A*4F
$GPRMC,194003.000,A,3301.8559,N,11716.6678,W,67.07,330.47,191110,,,A*40
$GPRMC,194006.000,A,3301.9052,N,11716.7010,W,68.04,330.47,191110,,,A*4F
$GPRMC,194009.000,A,3301.9547,N,11716.7345,W,69.01,330.82,191110,,,A*4F
$GPRMC,194012.000,A,3302.0043,N,11716.7683,W,68.04,330.12,191110,,,A*4C
$GPRMC,194015.000,A,3302.0526,N,11716.8011,W,65.61,330.47,191110,,,A*41
$GPRMC,194018.000,A,3302.1002,N,11716.8330,W,65.13,330.47,191110,,,A*4B
$GPRMC,194021.000,A,3302.1475,N,11716.8648,W,65.61,330.47,191110,,,A*4A
$GPRMC,194024.000,A,3302.1955,N,11716.8964,W,65.13,330.47,191110,,,A*44
$GPRMC,194027.000,A,3302.2422,N,11716.9279,W,63.67,330.47,191110,,,A*4A
$GPRMC,194030.000,A,3302.2885,N,11716.9591,W,65.13,330.47,191110,,,A*49
$GPRMC,194033.000,A,3302.3361,N,11716.9913,W,65.61,330.47,191110,,,A*49
$GPRMC,194036.000,A,3302.3831,N,11717.0229,W,64.16,330.82,191110,,,A*40
$GPRMC,194039.000,A,3302.4298,N,11717.0534,W,62.21,330.82,191110,,,A*48
$GPRMC,194042.000,A,3302.4752,N,11717.0824,W,61.24,333.63,191110,,,A*41
$GPRMC,194045.000,A,3302.5222,N,11717.1072,W,61.24,338.20,191110,,,A*43
$GPRMC,194048.000,A,3302.5701,N,11717.1278,W,60.76,342.42,191110,,,A*4D
$GPRMC,194051.000,A,3302.6187,N,11717.1449,W,61.23,344.53,191110,,,A*4D
$GPRMC,194054.000,A,3302.6686,N,11717.1600,W,61.72,345.59,191110,,,A*4E
$GPRMC,194057.000,A,3302.7182,N,11717.1751,W,61.72,345.59,191110,,,A*4A
$GPRMC,194100.000,A,3302.7684,N,11717.1906,W,62.69,345.94,191110,,,A*4C
$GPRMC,194103.000,A,3302.8202,N,11717.2057,W,63.66,345.94,191110,,,A*4A
$GPRMC,194106.000,A,3302.8730,N,11717.2211,W,65.12,345.94,191110,,,A*4E
$GPRMC,194109.000,A,3302.9264,N,11717.2366,W,64.15,345.59,191110,,,A*42
$GPRMC,194112.000,A,3302.9767,N,11717.2520,W,62.21,345.94,191110,,,A*4A
$GPRMC,194115.000,A,3303.0265,N,11717.2672,W,60.75,345.59,191110,,,A*44
$GPRMC,194118.000,A,3303.0761,N,11717.2829,W,62.21,345.94,191110,,,A*4A
$GPRMC,194121.000,A,3303.1276,N,11717.2981,W,65.13,345.59,191110,,,A*46
$GPRMC,194124.000,A,3303.1807,N,11717.3142,W,66.10,345.59,191110,,,A*49
$GPRMC,194127.000,A,3303.2332,N,11717.3299,W,63.66,345.94,191110,,,A*44
$GPRMC,194130.000,A,3303.2850,N,11717.3454,W,63.66,345.59,191110,,,A*4B
$GPRMC,194133.000,A,3303.3371,N,11717.3615,W,64.64,345.94,191110,,,A*42
$GPRMC,194136.000,A,3303.3886,N,11717.3766,W,63.66,345.59,191110,,,A*45
$GPRMC,194139.000,A,3303.4392,N,11717.3917,W,61.73,345.94,191110,,,A*4C
$GPRMC,194142.000,A,3303.4897,N,11717.4072,W,62.69,345.59,191110,,,A*4A
$GPRMC,194145.000,A,3303.5412,N,11717.4213,W,64.15,345.94,191110,,,A*44
$GPRMC,194148.000,A,3303.5943,N,11717.4381,W,66.59,345.59,191110,,,A*41
$GPRMC,194151.000,A,3303.6487,N,11717.4542,W,68.52,345.94,191110,,,A*42
$GPRMC,194154.000,A,3303.7041,N,11717.4703,W,67.55,345.94,191110,,,A*47
$GPRMC,194157.000,A,3303.7569,N,11717.4867,W,64.64,345.59,191110,,,A*46
$GPRMC,194200.000,A,3303.8074,N,11717.5018,W,62.21,345.94,191110,,,A*46
$GPRMC,194203.000,A,3303.8560,N,11717.5169,W,60.26,345.59,191110,,,A*46
$GPRMC,194206.000,A,3303.9059,N,11717.5317,W,61.72,345.59,191110,,,A*46
$GPRMC,194209.000,A,3303.9567,N,11717.5475,W,62.21,345.59,191110,,,A*47
$GPRMC,194212.000,A,3304.0069,N,11717.5633,W,62.21,345.59,191110,,,A*48
$GPRMC,194215.000,A,3304.0575,N,11717.5778,W,62.70,345.59,191110,,,A*4D
$GPRMC,194218.000,A,3304.1080,N,11717.5932,W,63.19,345.59,191110,,,A*40
$GPRMC,194221.000,A,3304.1595,N,11717.6093,W,63.67,345.59,191110,,,A*43
$GPRMC,194224.000,A,3304.2116,N,11717.6248,W,63.67,345.94,191110,,,A*4F
$GPRMC,194227.000,A,3304.2625,N,11717.6399,W,63.19,345.94,191110,,,A*4F
$GPRMC,194230.000,A,3304.3134,N,11717.6547,W,62.21,345.59,191110,,,A*41
$GPRMC,194233.000,A,3304.3636,N,11717.6698,W,61.24,345.94,191110,,,A*41
$GPRMC,194236.000,A,3304.4138,N,11717.6846,W,62.69,345.94,191110,,,A*4D
$GPRMC,194239.000,A,3304.4646,N,11717.6997,W,62.21,345.59,191110,,,A*4C
$GPRMC,194242.000,A,3304.5148,N,11717.7152,W,61.73,345.59,191110,,,A*4C
$GPRMC,194245.000,A,3304.5644,N,11717.7297,W,60.75,345.59,191110,,,A*4D
$GPRMC,194248.000,A,3304.6127,N,11717.7442,W,59.78,345.94,191110,,,A*49
$GPRMC,194251.000,A,3304.6610,N,11717.7586,W,59.29,345.94,191110,,,A*4F
$GPRMC,194254.000,A,3304.7089,N,11717.7735,W,58.80,345.59,191110,,,A*44
$GPRMC,194257.000,A,3304.7575,N,11717.7879,W,59.78,345.94,191110,,,A*41
$GPRMC,194300.000,A,3304.8068,N,11717.8027,W,60.76,345.94,191110,,,A*4C
$GPRMC,194303.000,A,3304.8567,N,11717.8179,W,61.72,345.59,191110,,,A*4B
$GPRMC,194306.000,A,3304.9066,N,11717.8330,W,61.73,345.59,191110,,,A*45
$GPRMC,194309.000,A,3304.9564,N,11717.8481,W,61.23,345.59,191110,,,A*45
$GPRMC,194312.000,A,3305.0041,N,11717.8649,W,59.30,342.42,191110,,,A*47
$GPRMC,194315.000,A,3305.0501,N,11717.8845,W,58.32,339.26,191110,,,A*4E
$GPRMC,194318.000,A,3305.0952,N,11717.9070,W,58.80,336.09,191110,,,A*4D
$GPRMC,194321.000,A,3305.1377,N,11717.9344,W,58.33,331.17,191110,,,A*4F
$GPRMC,194324.000,A,3305.1805,N,11717.9624,W,57.83,331.17,191110,,,A*43
$GPRMC,194327.000,A,3305.2233,N,11717.9904,W,59.29,331.17,191110,,,A*4F
$GPRMC,194330.000,A,3305.2667,N,11718.0194,W,59.78,330.82,191110,,,A*42
$GPRMC,194333.000,A,3305.3095,N,11718.0474,W,58.80,331.17,191110,,,A*4B
$GPRMC,194336.000,A,3305.3527,N,11718.0754,W,59.29,331.52,191110,,,A*40
$GPRMC,194339.000,A,3305.3971,N,11718.1047,W,60.76,331.17,191110,,,A*45
$GPRMC,194342.000,A,3305.4412,N,11718.1330,W,59.29,331.52,191110,,,A*44
$GPRMC,194345.000,A,3305.4820,N,11718.1590,W,54.44,331.17,191110,,,A*45
$GPRMC,194348.000,A,3305.5216,N,11718.1851,W,55.90,331.17,191110,,,A*4E
$GPRMC,194351.000,A,3305.5625,N,11718.2125,W,56.87,331.17,191110,,,A*4E
$GPRMC,194354.000,A,3305.6044,N,11718.2395,W,57.35,331.52,191110,,,A*49
$GPRMC,194357.000,A,3305.6468,N,11718.2675,W,59.30,331.17,191110,,,A*41
$GPRMC,194400.000,A,3305.6906,N,11718.2958,W,60.76,331.17,191110,,,A*49
$GPRMC,194403.000,A,3305.7354,N,11718.3258,W,60.75,330.82,191110,,,A*42
$GPRMC,194406.000,A,3305.7795,N,11718.3544,W,59.30,331.52,191110,,,A*43
$GPRMC,194409.000,A,3305.8229,N,11718.3827,W,57.83,331.88,191110,,,A*48
$GPRMC,194412.000,A,3305.8625,N,11718.4107,W,56.87,331.17,191110,,,A*45
$GPRMC,194415.000,A,3305.9050,N,11718.4381,W,58.33,331.17,191110,,,A*4A
$GPRMC,194418.000,A,3305.9478,N,11718.4651,W,57.35,331.17,191110,,,A*48
$GPRMC,194421.000,A,3305.9903,N,11718.4928,W,58.32,331.17,191110,,,A*4A
$GPRMC,194424.000,A,3306.0344,N,11718.5215,W,60.75,331.17,191110,,,A*40
$GPRMC,194427.000,A,3306.0804,N,11718.5504,W,61.72,331.52,191110,,,A*4C
$GPRMC,194430.000,A,3306.1255,N,11718.5797,W,62.69,331.52,191110,,,A*44
$GPRMC,194433.000,A,3306.1718,N,11718.6100,W,63.18,331.17,191110,,,A*46
$GPRMC,194436.000,A,3306.2178,N,11718.6415,W,63.66,330.47,191110,,,A*4C
$GPRMC,194439.000,A,3306.2645,N,11718.6705,W,63.18,331.52,191110,,,A*44
$GPRMC,194442.000,A,3306.3112,N,11718.6995,W,61.72,331.17,191110,,,A*44
$GPRMC,194445.000,A,3306.3566,N,11718.7294,W,61.72,331.17,191110,,,A*4F
$GPRMC,194448.000,A,3306.4019,N,11718.7593,W,61.72,331.17,191110,,,A*48
$GPRMC,194451.000,A,3306.4470,N,11718.7886,W,61.72,331.17,191110,,,A*42
$GPRMC,194454.000,A,3306.4908,N,11718.8169,W,60.26,331.17,191110,,,A*42
$GPRMC,194457.000,A,3306.5345,N,11718.8446,W,58.80,332.93,191110,,,A*43
$GPRMC,194500.000,A,3306.5780,N,11718.8713,W,58.32,332.58,191110,,,A*40
$GPRMC,194503.000,A,3306.6205,N,11718.8981,W,57.35,333.28,191110,,,A*43
$GPRMC,194506.000,A,3306.6639,N,11718.9228,W,59.29,333.28,191110,,,A*47
$GPRMC,194509.000,A,3306.7087,N,11718.9499,W,61.23,333.28,191110,,,A*47
$GPRMC,194512.000,A,3306.7547,N,11718.9772,W,62.21,333.28,191110,,,A*43
$GPRMC,194515.000,A,3306.8001,N,11719.0046,W,60.26,333.28,191110,,,A*41
$GPRMC,194518.000,A,3306.8442,N,11719.0307,W,58.32,333.28,191110,,,A*47
$GPRMC,194521.000,A,3306.8876,N,11719.0564,W,57.83,333.28,191110,,,A*40
$GPRMC,194524.000,A,3306.9308,N,11719.0828,W,59.29,333.28,191110,,,A*4D
$GPRMC,194527.000,A,3306.9755,N,11719.1095,W,60.26,332.93,191110,,,A*49
$GPRMC,194530.000,A,3307.0202,N,11719.1362,W,60.75,333.28,191110,,,A*4C
$GPRMC,194533.000,A,3307.0653,N,11719.1636,W,60.26,333.28,191110,,,A*4D
$GPRMC,194536.000,A,3307.1110,N,11719.1903,W,61.72,333.28,191110,,,A*40
$GPRMC,194539.000,A,3307.1564,N,11719.2180,W,60.75,333.28,191110,,,A*4E
$GPRMC,194542.000,A,3307.2005,N,11719.2444,W,58.80,333.28,191110,,,A*4F
$GPRMC,194545.000,A,3307.2455,N,11719.2717,W,61.72,332.93,191110,,,A*4A
$GPRMC,194548.000,A,3307.2916,N,11719.2991,W,61.72,333.28,191110,,,A*4C
$GPRMC,194551.000,A,3307.3379,N,11719.3268,W,62.21,332.93,191110,,,A*4E
$GPRMC,194554.000,A,3307.3843,N,11719.3548,W,62.21,333.28,191110,,,A*4D
$GPRMC,194557.000,A,3307.4309,N,11719.3828,W,62.69,333.28,191110,,,A*4B
$GPRMC,194600.000,A,3307.4776,N,11719.4108,W,62.21,333.28,191110,,,A*46
$GPRMC,194603.000,A,3307.5243,N,11719.4385,W,62.69,333.28,191110,,,A*4C
$GPRMC,194606.000,A,3307.5710,N,11719.4668,W,62.21,333.28,191110,,,A*40
$GPRMC,194609.000,A,3307.6167,N,11719.4941,W,61.72,333.28,191110,,,A*4B
$GPRMC,194612.000,A,3307.6633,N,11719.5221,W,62.69,333.28,191110,,,A*42
$GPRMC,194615.000,A,3307.7094,N,11719.5498,W,61.23,333.28,191110,,,A*46
$GPRMC,194618.000,A,3307.7554,N,11719.5775,W,62.21,332.93,191110,,,A*42
$GPRMC,194621.000,A,3307.8017,N,11719.6055,W,61.72,333.28,191110,,,A*47
$GPRMC,194624.000,A,3307.8478,N,11719.6329,W,60.75,332.93,191110,,,A*40
$GPRMC,194627.000,A,3307.8928,N,11719.6596,W,60.26,333.28,191110,,,A*4E
$GPRMC,194630.000,A,3307.9382,N,11719.6863,W,60.76,333.28,191110,,,A*41
$GPRMC,194633.000,A,3307.9833,N,11719.7127,W,60.27,334.34,191110,,,A*45
$GPRMC,194636.000,A,3308.0296,N,11719.7378,W,60.75,336.45,191110,,,A*48
$GPRMC,194639.000,A,3308.0756,N,11719.7610,W,60.26,337.15,191110,,,A*47
$GPRMC,194642.000,A,3308.1223,N,11719.7851,W,61.23,336.80,191110,,,A*4F
$GPRMC,194645.000,A,3308.1706,N,11719.8093,W,64.16,337.15,191110,,,A*4D
$GPRMC,194648.000,A,3308.2208,N,11719.8344,W,65.13,336.80,191110,,,A*48
$GPRMC,194651.000,A,3308.2700,N,11719.8595,W,63.66,337.15,191110,,,A*4E
$GPRMC,194654.000,A,3308.3183,N,11719.8836,W,61.72,336.80,191110,,,A*49
$GPRMC,194657.000,A,3308.3647,N,11719.9074,W,59.29,336.80,191110,,,A*4F
$GPRMC,194700.000,A,3308.4097,N,11719.9303,W,59.29,336.80,191110,,,A*43
$GPRMC,194703.000,A,3308.4554,N,11719.9534,W,59.30,336.80,191110,,,A*40
$GPRMC,194706.000,A,3308.5008,N,11719.9763,W,58.33,338.20,191110,,,A*4E
$GPRMC,194709.000,A,3308.5475,N,11719.9943,W,59.78,344.18,191110,,,A*4D
$GPRMC,194712.000,A,3308.5977,N,11720.0066,W,61.72,350.86,191110,,,A*46
$GPRMC,194715.000,A,3308.6486,N,11720.0111,W,60.75,356.48,191110,,,A*42
$GPRMC,194718.000,A,3308.7001,N,11720.0140,W,61.23,356.84,191110,,,A*43
$GPRMC,194721.000,A,3308.7506,N,11720.0169,W,61.23,356.84,191110,,,A*40
$GPRMC,194724.000,A,3308.8005,N,11720.0191,W,58.33,355.78,191110,,,A*40
$GPRMC,194727.000,A,3308.8478,N,11720.0284,W,55.89,348.40,191110,,,A*41
$GPRMC,194730.000,A,3308.8912,N,11720.0445,W,53.94,340.31,191110,,,A*49
$GPRMC,194733.000,A,3308.9334,N,11720.0664,W,55.90,333.98,191110,,,A*41
$GPRMC,194736.000,A,3308.9762,N,11720.0912,W,57.83,334.34,191110,,,A*4C
$GPRMC,194739.000,A,3309.0206,N,11720.1173,W,61.73,334.34,191110,,,A*48
$GPRMC,194742.000,A,3309.0670,N,11720.1443,W,62.70,334.34,191110,,,A*47
$GPRMC,194745.000,A,3309.1140,N,11720.1720,W,63.67,333.98,191110,,,A*45
$GPRMC,194748.000,A,3309.1616,N,11720.2000,W,63.19,333.98,191110,,,A*43
$GPRMC,194751.000,A,3309.2086,N,11720.2274,W,62.72,333.98,191110,,,A*4A
$GPRMC,194754.000,A,3309.2559,N,11720.2547,W,63.21,333.98,191110,,,A*48
$GPRMC,194757.000,A,3309.3036,N,11720.2814,W,64.18,335.74,191110,,,A*44
$GPRMC,194800.000,A,3309.3525,N,11720.3069,W,63.67,336.80,191110,,,A*4A
$GPRMC,194803.000,A,3309.4008,N,11720.3316,W,62.70,336.80,191110,,,A*48
$GPRMC,194806.000,A,3309.4490,N,11720.3561,W,63.66,336.80,191110,,,A*48
$GPRMC,194809.000,A,3309.4983,N,11720.3812,W,64.15,337.15,191110,,,A*4F
$GPRMC,194812.000,A,3309.5482,N,11720.4060,W,64.15,336.80,191110,,,A*4F
$GPRMC,194815.000,A,3309.5968,N,11720.4305,W,63.18,336.80,191110,,,A*4B
$GPRMC,194818.000,A,3309.6444,N,11720.4556,W,62.69,336.80,191110,,,A*41
$GPRMC,194821.000,A,3309.6930,N,11720.4797,W,62.69,336.80,191110,,,A*4A
$GPRMC,194824.000,A,3309.7403,N,11720.5042,W,61.24,337.15,191110,,,A*4A
$GPRMC,194827.000,A,3309.7873,N,11720.5277,W,59.78,336.80,191110,,,A*49
$GPRMC,194830.000,A,3309.8327,N,11720.5515,W,59.78,337.15,191110,,,A*44
$GPRMC,194833.000,A,3309.8794,N,11720.5750,W,60.76,336.80,191110,,,A*41
$GPRMC,194836.000,A,3309.9257,N,11720.5988,W,59.78,336.45,191110,,,A*49
$GPRMC,194839.000,A,3309.9714,N,11720.6216,W,58.32,337.15,191110,,,A*40
$GPRMC,194842.000,A,3310.0155,N,11720.6442,W,57.83,336.80,191110,,,A*41
$GPRMC,194845.000,A,3310.0596,N,11720.6667,W,57.35,336.45,191110,,,A*4C
$GPRMC,194848.000,A,3310.1031,N,11720.6905,W,57.35,333.63,191110,,,A*42
$GPRMC,194851.000,A,3310.1459,N,11720.7169,W,57.83,332.23,191110,,,A*4B
$GPRMC,194854.000,A,3310.1887,N,11720.7443,W,58.32,331.17,191110,,,A*4D
$GPRMC,194857.000,A,3310.2254,N,11720.7745,W,56.87,327.66,191110,,,A*4D
$GPRMC,194900.000,A,3310.2646,N,11720.8051,W,56.38,327.66,191110,,,A*40
$GPRMC,194903.000,A,3310.3046,N,11720.8344,W,56.87,327.66,191110,,,A*47
$GPRMC,194906.000,A,3310.3448,N,11720.8650,W,57.84,327.66,191110,,,A*4A
$GPRMC,194909.000,A,3310.3857,N,11720.8955,W,57.84,327.66,191110,,,A*4D
$GPRMC,194912.000,A,3310.4275,N,11720.9271,W,59.81,327.66,191110,,,A*4D
$GPRMC,194915.000,A,3310.4693,N,11720.9583,W,60.27,327.66,191110,,,A*4A
$GPRMC,194918.000,A,3310.5125,N,11720.9908,W,61.73,328.01,191110,,,A*4D
$GPRMC,194921.000,A,3310.5553,N,11721.0233,W,60.29,327.66,191110,,,A*49
$GPRMC,194924.000,A,3310.5981,N,11721.0555,W,59.78,327.66,191110,,,A*46
$GPRMC,194927.000,A,3310.6396,N,11721.0877,W,59.29,326.25,191110,,,A*45
$GPRMC,194930.000,A,3310.6802,N,11721.1209,W,59.81,325.20,191110,,,A*43
$GPRMC,194933.000,A,3310.7214,N,11721.1553,W,60.27,325.20,191110,,,A*42
$GPRMC,194936.000,A,3310.7626,N,11721.1894,W,59.30,325.20,191110,,,A*48
$GPRMC,194939.000,A,3310.8034,N,11721.2238,W,59.78,324.84,191110,,,A*41
$GPRMC,194942.000,A,3310.8443,N,11721.2580,W,61.24,324.84,191110,,,A*4F
$GPRMC,194945.000,A,3310.8871,N,11721.2937,W,63.67,324.84,191110,,,A*40
$GPRMC,194948.000,A,3310.9309,N,11721.3294,W,63.67,325.20,191110,,,A*44
$GPRMC,194951.000,A,3310.9740,N,11721.3651,W,62.21,325.20,191110,,,A*4B
$GPRMC,194954.000,A,3311.0162,N,11721.3999,W,60.27,324.84,191110,,,A*40
$GPRMC,194957.000,A,3311.0571,N,11721.4347,W,60.75,324.84,191110,,,A*4C
$GPRMC,195000.000,A,3311.0989,N,11721.4691,W,61.24,325.20,191110,,,A*49
$GPRMC,195003.000,A,3311.1408,N,11721.5039,W,61.24,325.20,191110,,,A*4A
$GPRMC,195006.000,A,3311.1829,N,11721.5386,W,61.73,324.84,191110,,,A*4A
$GPRMC,195009.000,A,3311.2254,N,11721.5737,W,61.73,325.55,191110,,,A*45
$GPRMC,195012.000,A,3311.2685,N,11721.6094,W,65.61,325.20,191110,,,A*4F
$GPRMC,195015.000,A,3311.3159,N,11721.6477,W,70.49,326.60,191110,,,A*4F
$GPRMC,195018.000,A,3311.3645,N,11721.6860,W,69.50,325.90,191110,,,A*4E
$GPRMC,195021.000,A,3311.4114,N,11721.7243,W,68.07,324.84,191110,,,A*4D
$GPRMC,195024.000,A,3311.4575,N,11721.7633,W,67.09,324.84,191110,,,A*49
$GPRMC,195027.000,A,3311.5029,N,11721.8019,W,67.09,324.49,191110,,,A*47
$GPRMC,195030.000,A,3311.5492,N,11721.8412,W,68.04,323.79,191110,,,A*4C
$GPRMC,195033.000,A,3311.5956,N,11721.8808,W,68.55,324.49,191110,,,A*4D
$GPRMC,195036.000,A,3311.6425,N,11721.9204,W,68.07,325.55,191110,,,A*4E
$GPRMC,195039.000,A,3311.6883,N,11721.9580,W,66.61,325.20,191110,,,A*46
$GPRMC,195042.000,A,3311.7336,N,11721.9957,W,66.12,325.20,191110,,,A*4C
$GPRMC,195045.000,A,3311.7787,N,11722.0330,W,65.64,325.20,191110,,,A*46
$GPRMC,195048.000,A,3311.8231,N,11722.0697,W,64.67,324.84,191110,,,A*49
$GPRMC,195051.000,A,3311.8669,N,11722.1067,W,63.67,323.79,191110,,,A*42
$GPRMC,195054.000,A,3311.9081,N,11722.1463,W,62.69,317.81,191110,,,A*49
$GPRMC,195057.000,A,3311.9448,N,11722.1904,W,62.70,311.48,191110,,,A*4C
$GPRMC,195100.000,A,3311.9776,N,11722.2390,W,62.70,305.86,191110,,,A*42
$GPRMC,195103.000,A,3312.0063,N,11722.2924,W,64.64,300.94,191110,,,A*48
$GPRMC,195106.000,A,3312.0317,N,11722.3501,W,66.09,296.37,191110,,,A*49
$GPRMC,195109.000,A,3312.0532,N,11722.4135,W,70.01,291.80,191110,,,A*47
$GPRMC,195112.000,A,3312.0755,N,11722.4782,W,69.50,292.15,191110,,,A*47
$GPRMC,195115.000,A,3312.0970,N,11722.5412,W,68.52,291.80,191110,,,A*4E
$GPRMC,195118.000,A,3312.1170,N,11722.6046,W,67.07,291.09,191110,,,A*42
$GPRMC,195121.000,A,3312.1379,N,11722.6661,W,66.58,292.50,191110,,,A*44
$GPRMC,195124.000,A,3312.1604,N,11722.7273,W,68.53,292.85,191110,,,A*45
$GPRMC,195127.000,A,3312.1833,N,11722.7907,W,68.55,292.15,191110,,,A*4B
$GPRMC,195130.000,A,3312.2068,N,11722.8531,W,69.50,296.37,191110,,,A*4E
$GPRMC,195133.000,A,3312.2380,N,11722.9114,W,69.04,304.80,191110,,,A*4D
$GPRMC,195136.000,A,3312.2728,N,11722.9645,W,67.58,311.48,191110,,,A*4A
$GPRMC,195139.000,A,3312.3127,N,11723.0121,W,67.56,317.81,191110,,,A*4D
$GPRMC,195142.000,A,3312.3571,N,11723.0543,W,68.53,324.84,191110,,,A*49
$GPRMC,195145.000,A,3312.4050,N,11723.0897,W,68.04,330.82,191110,,,A*4A
$GPRMC,195148.000,A,3312.4553,N,11723.1219,W,68.04,332.23,191110,,,A*45
$GPRMC,195151.000,A,3312.5055,N,11723.1531,W,67.55,332.23,191110,,,A*49
$GPRMC,195154.000,A,3312.5554,N,11723.1840,W,67.07,332.23,191110,,,A*44
$GPRMC,195157.000,A,3312.6052,N,11723.2152,W,68.04,332.23,191110,,,A*42
$GPRMC,195200.000,A,3312.6558,N,11723.2468,W,69.50,331.88,191110,,,A*42
$GPRMC,195203.000,A,3312.7076,N,11723.2799,W,71.44,332.23,191110,,,A*4A
$GPRMC,195206.000,A,3312.7607,N,11723.3131,W,71.93,331.88,191110,,,A*42
$GPRMC,195209.000,A,3312.8138,N,11723.3472,W,72.42,331.17,191110,,,A*42
$GPRMC,195212.000,A,3312.8676,N,11723.3781,W,70.47,338.91,191110,,,A*4A
$GPRMC,195215.000,A,3312.9229,N,11723.3984,W,68.52,344.88,191110,,,A*47
$GPRMC,195218.000,A,3312.9776,N,11723.4145,W,67.07,345.94,191110,,,A*44
$GPRMC,195221.000,A,3313.0330,N,11723.4309,W,68.52,345.94,191110,,,A*45
$GPRMC,195224.000,A,3313.0877,N,11723.4473,W,66.58,345.94,191110,,,A*46
$GPRMC,195227.000,A,3313.1408,N,11723.4631,W,63.66,345.94,191110,,,A*4C
$GPRMC,195230.000,A,3313.1917,N,11723.4785,W,62.69,345.94,191110,,,A*49
$GPRMC,195233.000,A,3313.2425,N,11723.4936,W,62.69,345.94,191110,,,A*43
$GPRMC,195236.000,A,3313.2934,N,11723.5091,W,63.66,345.59,191110,,,A*41
$GPRMC,195239.000,A,3313.3449,N,11723.5268,W,64.64,341.02,191110,,,A*43
$GPRMC,195242.000,A,3313.3954,N,11723.5519,W,65.61,332.93,191110,,,A*47
$GPRMC,195245.000,A,3313.4424,N,11723.5860,W,65.61,325.20,191110,,,A*40
$GPRMC,195248.000,A,3313.4859,N,11723.6269,W,66.58,318.52,191110,,,A*49
$GPRMC,195251.000,A,3313.5271,N,11723.6723,W,68.04,317.11,191110,,,A*44
$GPRMC,195254.000,A,3313.5683,N,11723.7180,W,67.07,317.11,191110,,,A*4A
$GPRMC,195257.000,A,3313.6088,N,11723.7634,W,66.59,317.11,191110,,,A*45
$GPRMC,195300.000,A,3313.6491,N,11723.8084,W,66.10,316.76,191110,,,A*45
$GPRMC,195303.000,A,3313.6893,N,11723.8528,W,65.64,317.11,191110,,,A*4B
$GPRMC,195306.000,A,3313.7292,N,11723.8969,W,65.19,317.11,191110,,,A*47
$GPRMC,195309.000,A,3313.7694,N,11723.9414,W,66.58,316.76,191110,,,A*4A
$GPRMC,195312.000,A,3313.8100,N,11723.9861,W,66.12,317.11,191110,,,A*45
$GPRMC,195315.000,A,3313.8505,N,11724.0308,W,65.61,317.11,191110,,,A*4E
$GPRMC,195318.000,A,3313.8898,N,11724.0749,W,63.66,317.11,191110,,,A*4A
$GPRMC,195321.000,A,3313.9284,N,11724.1174,W,63.18,318.16,191110,,,A*4E
$GPRMC,195324.000,A,3313.9687,N,11724.1573,W,62.21,321.68,191110,,,A*47
$GPRMC,195327.000,A,3314.0089,N,11724.1943,W,60.27,322.38,191110,,,A*4F
$GPRMC,195330.000,A,3314.0485,N,11724.2307,W,60.27,322.38,191110,,,A*48
$GPRMC,195333.000,A,3314.0881,N,11724.2668,W,58.33,322.38,191110,,,A*41
$GPRMC,195336.000,A,3314.1267,N,11724.3022,W,59.30,322.73,191110,,,A*43
$GPRMC,195339.000,A,3314.1663,N,11724.3385,W,60.76,322.38,191110,,,A*45
$GPRMC,195342.000,A,3314.2068,N,11724.3759,W,61.73,322.38,191110,,,A*46
$GPRMC,195345.000,A,3314.2468,N,11724.4148,W,61.75,317.81,191110,,,A*46
$GPRMC,195348.000,A,3314.2825,N,11724.4586,W,61.75,310.43,191110,,,A*41
$GPRMC,195351.000,A,3314.3134,N,11724.5078,W,62.24,303.40,191110,,,A*42
$GPRMC,195354.000,A,3314.3391,N,11724.5619,W,62.72,296.02,191110,,,A*43
$GPRMC,195357.000,A,3314.3604,N,11724.6182,W,61.24,292.85,191110,,,A*44
$GPRMC,195400.000,A,3314.3781,N,11724.6752,W,60.75,290.74,191110,,,A*4F
$GPRMC,195403.000,A,3314.3980,N,11724.7322,W,62.69,292.85,191110,,,A*42
$GPRMC,195406.000,A,3314.4238,N,11724.7875,W,64.16,301.99,191110,,,A*49
$GPRMC,195409.000,A,3314.4540,N,11724.8390,W,63.19,307.62,191110,,,A*4B
$GPRMC,195412.000,A,3314.4894,N,11724.8847,W,62.24,316.76,191110,,,A*4E
$GPRMC,195415.000,A,3314.5297,N,11724.9247,W,63.19,323.79,191110,,,A*4C
$GPRMC,195418.000,A,3314.5741,N,11724.9581,W,63.66,331.17,191110,,,A*41
$GPRMC,195421.000,A,3314.6224,N,11724.9852,W,63.18,337.85,191110,,,A*49
$GPRMC,195424.000,A,3314.6710,N,11725.0071,W,61.72,339.26,191110,,,A*46
$GPRMC,195427.000,A,3314.7189,N,11725.0286,W,60.26,339.26,191110,,,A*48
$GPRMC,195430.000,A,3314.7656,N,11725.0495,W,60.26,339.61,191110,,,A*4C
$GPRMC,195433.000,A,3314.8132,N,11725.0711,W,61.23,338.91,191110,,,A*40
$GPRMC,195436.000,A,3314.8606,N,11725.0952,W,61.72,335.04,191110,,,A*49
$GPRMC,195439.000,A,3314.9056,N,11725.1271,W,63.18,326.95,191110,,,A*4B
$GPRMC,195442.000,A,3314.9500,N,11725.1625,W,64.64,326.25,191110,,,A*43
$GPRMC,195445.000,A,3314.9948,N,11725.1979,W,63.66,326.60,191110,,,A*46
$GPRMC,195448.000,A,3315.0385,N,11725.2330,W,63.18,325.90,191110,,,A*49
$GPRMC,195451.000,A,3315.0830,N,11725.2681,W,63.66,326.60,191110,,,A*4E
$GPRMC,195454.000,A,3315.1274,N,11725.3035,W,64.64,326.60,191110,,,A*4D
$GPRMC,195457.000,A,3315.1724,N,11725.3392,W,64.64,326.25,191110,,,A*41
$GPRMC,195500.000,A,3315.2169,N,11725.3753,W,64.67,325.90,191110,,,A*49
$GPRMC,195503.000,A,3315.2610,N,11725.4103,W,64.15,326.25,191110,,,A*4F
$GPRMC,195506.000,A,3315.3057,N,11725.4458,W,65.12,326.25,191110,,,A*43
$GPRMC,195509.000,A,3315.3508,N,11725.4818,W,65.12,326.60,191110,,,A*4A
$GPRMC,195512.000,A,3315.3961,N,11725.5172,W,65.12,326.25,191110,,,A*46
$GPRMC,195515.000,A,3315.4418,N,11725.5536,W,65.61,325.90,191110,,,A*48
$GPRMC,195518.000,A,3315.4869,N,11725.5893,W,63.66,326.60,191110,,,A*40
$GPRMC,195521.000,A,3315.5313,N,11725.6241,W,63.18,326.60,191110,,,A*42
$GPRMC,195524.000,A,3315.5751,N,11725.6588,W,62.69,326.25,191110,,,A*41
$GPRMC,195527.000,A,3315.6185,N,11725.6933,W,62.69,326.25,191110,,,A*42
$GPRMC,195530.000,A,3315.6620,N,11725.7271,W,61.23,326.95,191110,,,A*46
$GPRMC,195533.000,A,3315.7035,N,11725.7599,W,60.26,326.25,191110,,,A*48
$GPRMC,195536.000,A,3315.7463,N,11725.7934,W,61.72,326.25,191110,,,A*41
$GPRMC,195539.000,A,3315.7898,N,11725.8281,W,63.66,326.25,191110,,,A*4B
$GPRMC,195542.000,A,3315.8339,N,11725.8642,W,63.66,325.20,191110,,,A*45
$GPRMC,195545.000,A,3315.8748,N,11725.9018,W,62.21,318.16,191110,,,A*41
$GPRMC,195548.000,A,3315.9118,N,11725.9466,W,63.69,311.84,191110,,,A*4C
$GPRMC,195551.000,A,3315.9472,N,11725.9942,W,65.13,311.48,191110,,,A*4D
$GPRMC,195554.000,A,3315.9832,N,11726.0428,W,64.64,311.48,191110,,,A*4A
$GPRMC,195557.000,A,3316.0189,N,11726.0908,W,64.15,311.48,191110,,,A*43
$GPRMC,195600.000,A,3316.0547,N,11726.1378,W,62.21,311.48,191110,,,A*49
$GPRMC,195603.000,A,3316.0885,N,11726.1838,W,61.23,311.48,191110,,,A*47
$GPRMC,195606.000,A,3316.1229,N,11726.2301,W,62.69,311.13,191110,,,A*4E
$GPRMC,195609.000,A,3316.1577,N,11726.2775,W,63.66,311.48,191110,,,A*4A
$GPRMC,195612.000,A,3316.1928,N,11726.3251,W,64.15,311.48,191110,,,A*47
$GPRMC,195615.000,A,3316.2282,N,11726.3727,W,64.15,311.48,191110,,,A*4C
$GPRMC,195618.000,A,3316.2639,N,11726.4207,W,65.61,311.48,191110,,,A*47
$GPRMC,195621.000,A,3316.3003,N,11726.4699,W,66.12,311.48,191110,,,A*47
$GPRMC,195624.000,A,3316.3369,N,11726.5185,W,66.12,314.30,191110,,,A*4C
$GPRMC,195627.000,A,3316.3769,N,11726.5620,W,65.13,321.68,191110,,,A*4A
$GPRMC,195630.000,A,3316.4210,N,11726.5987,W,63.19,326.95,191110,,,A*4B
$GPRMC,195633.000,A,3316.4647,N,11726.6321,W,62.21,327.30,191110,,,A*4F
$GPRMC,195636.000,A,3316.5088,N,11726.6659,W,63.18,327.30,191110,,,A*4F
$GPRMC,195639.000,A,3316.5526,N,11726.6994,W,62.21,327.30,191110,,,A*44
$GPRMC,195642.000,A,3316.5957,N,11726.7322,W,61.72,327.66,191110,,,A*42
$GPRMC,195645.000,A,3316.6389,N,11726.7648,W,59.78,327.66,191110,,,A*47
$GPRMC,195648.000,A,3316.6810,N,11726.7966,W,60.27,327.30,191110,,,A*41
$GPRMC,195651.000,A,3316.7245,N,11726.8298,W,63.67,327.30,191110,,,A*40
$GPRMC,195654.000,A,3316.7699,N,11726.8642,W,64.15,327.30,191110,,,A*41
$GPRMC,195657.000,A,3316.8149,N,11726.8987,W,64.18,327.66,191110,,,A*4F
$GPRMC,195700.000,A,3316.8603,N,11726.9331,W,65.15,327.66,191110,,,A*4F
$GPRMC,195703.000,A,3316.9057,N,11726.9675,W,63.67,327.66,191110,,,A*4C
$GPRMC,195706.000,A,3316.9501,N,11727.0013,W,62.70,327.66,191110,,,A*46
$GPRMC,195709.000,A,3316.9942,N,11727.0351,W,64.15,327.66,191110,,,A*42
$GPRMC,195712.000,A,3317.0399,N,11727.0699,W,64.15,327.30,191110,,,A*4E
$GPRMC,195715.000,A,3317.0856,N,11727.1040,W,64.15,327.66,191110,,,A*41
$GPRMC,195718.000,A,3317.1310,N,11727.1381,W,64.15,327.66,191110,,,A*4A
$GPRMC,195721.000,A,3317.1757,N,11727.1716,W,63.18,327.66,191110,,,A*47
$GPRMC,195724.000,A,3317.2211,N,11727.2060,W,65.13,327.66,191110,,,A*4E
$GPRMC,195727.000,A,3317.2665,N,11727.2405,W,65.61,327.66,191110,,,A*48
$GPRMC,195730.000,A,3317.3116,N,11727.2749,W,63.67,327.66,191110,,,A*47
$GPRMC,195733.000,A,3317.3560,N,11727.3087,W,63.19,327.66,191110,,,A*4C
$GPRMC,195736.000,A,3317.4007,N,11727.3428,W,64.16,327.30,191110,,,A*40
$GPRMC,195739.000,A,3317.4458,N,11727.3776,W,64.64,327.66,191110,,,A*4F
$GPRMC,195742.000,A,3317.4912,N,11727.4120,W,63.67,327.66,191110,,,A*46
$GPRMC,195745.000,A,3317.5365,N,11727.4458,W,64.16,327.66,191110,,,A*41
$GPRMC,195748.000,A,3317.5822,N,11727.4806,W,65.61,327.30,191110,,,A*41
$GPRMC,195751.000,A,3317.6273,N,11727.5163,W,64.64,324.84,191110,,,A*47
$GPRMC,195754.000,A,3317.6691,N,11727.5575,W,65.61,316.76,191110,,,A*41
$GPRMC,195757.000,A,3317.7084,N,11727.6035,W,66.58,314.30,191110,,,A*4A
$GPRMC,195800.000,A,3317.7474,N,11727.6512,W,66.58,314.65,191110,,,A*4C
$GPRMC,195803.000,A,3317.7860,N,11727.6978,W,65.61,314.30,191110,,,A*4F
$GPRMC,195806.000,A,3317.8236,N,11727.7435,W,63.69,314.30,191110,,,A*47
$GPRMC,195809.000,A,3317.8603,N,11727.7886,W,63.21,314.65,191110,,,A*42
$GPRMC,195812.000,A,3317.8977,N,11727.8333,W,63.69,314.65,191110,,,A*42
$GPRMC,195815.000,A,3317.9347,N,11727.8784,W,63.21,314.30,191110,,,A*49
$GPRMC,195818.000,A,3317.9714,N,11727.9228,W,62.70,314.30,191110,,,A*41
$GPRMC,195821.000,A,3318.0084,N,11727.9676,W,63.18,314.65,191110,,,A*43
$GPRMC,195824.000,A,3318.0454,N,11728.0133,W,64.15,314.30,191110,,,A*45
$GPRMC,195827.000,A,3318.0834,N,11728.0587,W,64.64,314.30,191110,,,A*41
$GPRMC,195830.000,A,3318.1210,N,11728.1047,W,64.64,314.65,191110,,,A*42
$GPRMC,195833.000,A,3318.1593,N,11728.1504,W,64.15,314.65,191110,,,A*49
$GPRMC,195836.000,A,3318.1967,N,11728.1958,W,63.66,314.30,191110,,,A*4D
$GPRMC,195839.000,A,3318.2331,N,11728.2402,W,61.72,314.65,191110,,,A*4E
$GPRMC,195842.000,A,3318.2691,N,11728.2827,W,61.24,314.65,191110,,,A*45
$GPRMC,195845.000,A,3318.3055,N,11728.3264,W,62.21,314.30,191110,,,A*47
$GPRMC,195848.000,A,3318.3425,N,11728.3702,W,62.70,314.30,191110,,,A*48
$GPRMC,195851.000,A,3318.3795,N,11728.4150,W,63.67,314.30,191110,,,A*49
$GPRMC,195854.000,A,3318.4175,N,11728.4610,W,67.07,315.00,191110,,,A*40
$GPRMC,195857.000,A,3318.4577,N,11728.5080,W,68.53,315.70,191110,,,A*42
$GPRMC,195900.000,A,3318.4986,N,11728.5566,W,69.99,314.65,191110,,,A*4C
$GPRMC,195903.000,A,3318.5398,N,11728.6071,W,71.45,314.65,191110,,,A*43
$GPRMC,195906.000,A,3318.5816,N,11728.6586,W,72.90,314.30,191110,,,A*4D
$GPRMC,195909.000,A,3318.6248,N,11728.7111,W,74.84,314.30,191110,,,A*48
$GPRMC,195912.000,A,3318.6692,N,11728.7645,W,75.33,314.65,191110,,,A*4A
$GPRMC,195915.000,A,3318.7152,N,11728.8157,W,75.33,318.87,191110,,,A*4C
$GPRMC,195918.000,A,3318.7674,N,11728.8585,W,74.85,328.36,191110,,,A*4C
$GPRMC,195921.000,A,3318.8227,N,11728.8904,W,72.92,338.91,191110,,,A*42
$GPRMC,195924.000,A,3318.8810,N,11728.9110,W,71.95,347.34,191110,,,A*46
$GPRMC,195927.000,A,3318.9399,N,11728.9219,W,70.98,354.73,191110,,,A*49
$GPRMC,195930.000,A,3318.9981,N,11728.9277,W,70.47,355.43,191110,,,A*44
$GPRMC,195933.000,A,3319.0564,N,11728.9332,W,69.98,355.43,191110,,,A*42
$GPRMC,195936.000,A,3319.1140,N,11728.9386,W,69.50,355.43,191110,,,A*4F
$GPRMC,195939.000,A,3319.1719,N,11728.9454,W,69.50,352.27,191110,,,A*47
$GPRMC,195942.000,A,3319.2279,N,11728.9608,W,69.50,344.88,191110,,,A*42
$GPRMC,195945.000,A,3319.2817,N,11728.9863,W,68.53,336.09,191110,,,A*4A
$GPRMC,195948.000,A,3319.3316,N,11729.0197,W,69.02,327.30,191110,,,A*49
$GPRMC,195951.000,A,3319.3783,N,11729.0603,W,68.53,319.22,191110,,,A*48
$GPRMC,195954.000,A,3319.4191,N,11729.1086,W,69.50,312.19,191110,,,A*44
$GPRMC,195957.000,A,3319.4571,N,11729.1614,W,70.47,310.78,191110,,,A*4B
$GPRMC,200000.000,A,3319.4964,N,11729.2158,W,73.39,310.43,191110,,,A*49
$GPRMC,200003.000,A,3319.5360,N,11729.2724,W,75.33,309.73,191110,,,A*4F
$GPRMC,200006.000,A,3319.5768,N,11729.3297,W,74.85,310.78,191110,,,A*45
$GPRMC,200009.000,A,3319.6174,N,11729.3860,W,74.85,310.78,191110,,,A*40
$GPRMC,200012.000,A,3319.6589,N,11729.4424,W,74.85,311.13,191110,,,A*4B
$GPRMC,200015.000,A,3319.6998,N,11729.4987,W,74.84,310.78,191110,,,A*49
$GPRMC,200018.000,A,3319.7400,N,11729.5547,W,74.36,310.78,191110,,,A*41
$GPRMC,200021.000,A,3319.7803,N,11729.6100,W,73.87,310.78,191110,,,A*4D
$GPRMC,200024.000,A,3319.8211,N,11729.6660,W,74.36,310.78,191110,,,A*42
$GPRMC,200027.000,A,3319.8617,N,11729.7221,W,74.85,310.78,191110,,,A*4B
$GPRMC,200030.000,A,3319.9019,N,11729.7781,W,74.84,310.78,191110,,,A*4A
$GPRMC,200033.000,A,3319.9434,N,11729.8347,W,75.81,311.13,191110,,,A*4B
$GPRMC,200036.000,A,3319.9853,N,11729.8917,W,76.30,311.13,191110,,,A*45
$GPRMC,200039.000,A,3320.0278,N,11729.9493,W,76.79,311.13,191110,,,A*47
$GPRMC,200042.000,A,3320.0709,N,11730.0059,W,77.27,311.13,191110,,,A*41
$GPRMC,200045.000,A,3320.1131,N,11730.0645,W,77.27,311.13,191110,,,A*41
$GPRMC,200048.000,A,3320.1552,N,11730.1218,W,77.27,311.48,191110,,,A*4E
$GPRMC,200051.000,A,3320.1971,N,11730.1807,W,77.27,310.78,191110,,,A*4D
$GPRMC,200054.000,A,3320.2392,N,11730.2380,W,76.79,311.13,191110,,,A*4D
$GPRMC,200057.000,A,3320.2811,N,11730.2959,W,76.79,311.13,191110,,,A*40
$GPRMC,200100.000,A,3320.3232,N,11730.3542,W,76.79,310.78,191110,,,A*42
$GPRMC,200103.000,A,3320.3651,N,11730.4115,W,76.79,310.78,191110,,,A*41
$GPRMC,200106.000,A,3320.4076,N,11730.4685,W,76.79,310.78,191110,,,A*4E
$GPRMC,200109.000,A,3320.4491,N,11730.5261,W,76.30,310.78,191110,,,A*4E
$GPRMC,200112.000,A,3320.4906,N,11730.5827,W,76.30,310.78,191110,,,A*4F
$GPRMC,200115.000,A,3320.5321,N,11730.6407,W,76.30,309.73,191110,,,A*48
$GPRMC,200118.000,A,3320.5727,N,11730.6992,W,76.30,310.43,191110,,,A*4D
$GPRMC,200121.000,A,3320.6142,N,11730.7562,W,75.33,311.13,191110,,,A*47
$GPRMC,200124.000,A,3320.6554,N,11730.8135,W,75.33,310.78,191110,,,A*44
$GPRMC,200127.000,A,3320.6956,N,11730.8695,W,73.87,310.78,191110,,,A*4D
$GPRMC,200130.000,A,3320.7359,N,11730.9242,W,72.90,311.13,191110,,,A*4B
$GPRMC,200133.000,A,3320.7751,N,11730.9789,W,72.42,310.78,191110,,,A*45
$GPRMC,200136.000,A,3320.8147,N,11731.0337,W,72.42,311.13,191110,,,A*4B
$GPRMC,200139.000,A,3320.8543,N,11731.0880,W,71.93,310.43,191110,,,A*48
$GPRMC,200142.000,A,3320.8926,N,11731.1424,W,71.93,310.08,191110,,,A*47
$GPRMC,200145.000,A,3320.9316,N,11731.1975,W,71.93,309.38,191110,,,A*4A
$GPRMC,200148.000,A,3320.9705,N,11731.2525,W,72.41,309.73,191110,,,A*48
$GPRMC,200151.000,A,3321.0085,N,11731.3072,W,69.98,309.73,191110,,,A*4F
$GPRMC,200154.000,A,3321.0452,N,11731.3597,W,68.04,309.38,191110,,,A*41
$GPRMC,200157.000,A,3321.0812,N,11731.4122,W,68.04,309.38,191110,,,A*47
$GPRMC,200200.000,A,3321.1176,N,11731.4643,W,68.04,309.02,191110,,,A*45
$GPRMC,200203.000,A,3321.1540,N,11731.5158,W,67.55,309.38,191110,,,A*49
$GPRMC,200206.000,A,3321.1907,N,11731.5683,W,67.55,309.38,191110,,,A*42
$GPRMC,200209.000,A,3321.2261,N,11731.6198,W,67.07,309.38,191110,,,A*4C
$GPRMC,200212.000,A,3321.2615,N,11731.6713,W,67.07,308.67,191110,,,A*4F
$GPRMC,200215.000,A,3321.2956,N,11731.7241,W,67.55,308.67,191110,,,A*44
$GPRMC,200218.000,A,3321.3310,N,11731.7765,W,68.52,308.67,191110,,,A*4B
$GPRMC,200221.000,A,3321.3671,N,11731.8303,W,70.95,308.67,191110,,,A*4A
$GPRMC,200224.000,A,3321.4044,N,11731.8856,W,71.44,308.67,191110,,,A*4E
$GPRMC,200227.000,A,3321.4424,N,11731.9416,W,71.93,309.02,191110,,,A*4E
$GPRMC,200230.000,A,3321.4804,N,11731.9970,W,71.93,309.38,191110,,,A*42
$GPRMC,200233.000,A,3321.5190,N,11732.0536,W,74.36,309.02,191110,,,A*43
$GPRMC,200236.000,A,3321.5582,N,11732.1119,W,75.84,309.38,191110,,,A*48
$GPRMC,200239.000,A,3321.5985,N,11732.1708,W,76.79,309.02,191110,,,A*42
$GPRMC,200242.000,A,3321.6390,N,11732.2300,W,77.27,309.02,191110,,,A*46
$GPRMC,200245.000,A,3321.6796,N,11732.2892,W,77.28,309.38,191110,,,A*45
$GPRMC,200248.000,A,3321.7205,N,11732.3491,W,77.30,309.02,191110,,,A*48
$GPRMC,200251.000,A,3321.7613,N,11732.4087,W,77.28,309.38,191110,,,A*47
$GPRMC,200254.000,A,3321.8022,N,11732.4679,W,76.79,309.02,191110,,,A*42
$GPRMC,200257.000,A,3321.8428,N,11732.5271,W,77.28,309.02,191110,,,A*47
$GPRMC,200300.000,A,3321.8836,N,11732.5870,W,77.76,309.73,191110,,,A*41
$GPRMC,200303.000,A,3321.9245,N,11732.6465,W,77.28,309.38,191110,,,A*42
$GPRMC,200306.000,A,3321.9654,N,11732.7061,W,77.30,309.38,191110,,,A*4B
$GPRMC,200309.000,A,3322.0063,N,11732.7659,W,77.76,309.38,191110,,,A*43
$GPRMC,200312.000,A,3322.0462,N,11732.8264,W,77.30,306.56,191110,,,A*4C
$GPRMC,200315.000,A,3322.0826,N,11732.8895,W,76.79,303.05,191110,,,A*4C
$GPRMC,200318.000,A,3322.1176,N,11732.9536,W,76.31,303.05,191110,,,A*45
$GPRMC,200321.000,A,3322.1521,N,11733.0170,W,75.33,303.05,191110,,,A*46
$GPRMC,200324.000,A,3322.1865,N,11733.0785,W,72.42,303.05,191110,,,A*43
$GPRMC,200327.000,A,3322.2190,N,11733.1383,W,70.47,303.05,191110,,,A*44
$GPRMC,200330.000,A,3322.2509,N,11733.1959,W,69.50,303.05,191110,,,A*45
$GPRMC,200333.000,A,3322.2828,N,11733.2545,W,69.99,303.05,191110,,,A*4F
$GPRMC,200336.000,A,3322.3143,N,11733.3121,W,68.53,303.05,191110,,,A*4F
$GPRMC,200339.000,A,3322.3452,N,11733.3685,W,67.56,303.40,191110,,,A*47
$GPRMC,200342.000,A,3322.3761,N,11733.4251,W,68.52,303.05,191110,,,A*48
$GPRMC,200345.000,A,3322.4076,N,11733.4830,W,70.47,303.05,191110,,,A*49
$GPRMC,200348.000,A,3322.4398,N,11733.5426,W,71.45,303.05,191110,,,A*4E
$GPRMC,200351.000,A,3322.4720,N,11733.6015,W,69.50,303.05,191110,,,A*4B
$GPRMC,200354.000,A,3322.5045,N,11733.6594,W,70.47,305.86,191110,,,A*44
$GPRMC,200357.000,A,3322.5428,N,11733.7138,W,73.87,314.30,191110,,,A*49
$GPRMC,200400.000,A,3322.5885,N,11733.7653,W,76.30,317.46,191110,,,A*46
$GPRMC,200403.000,A,3322.6355,N,11733.8171,W,76.31,316.41,191110,,,A*4F
$GPRMC,200406.000,A,3322.6790,N,11733.8702,W,73.41,311.13,191110,,,A*47
$GPRMC,200409.000,A,3322.7157,N,11733.9272,W,70.98,304.10,191110,,,A*47
$GPRMC,200412.000,A,3322.7459,N,11733.9881,W,70.98,297.42,191110,,,A*4C
$GPRMC,200415.000,A,3322.7710,N,11734.0515,W,69.99,294.61,191110,,,A*40
$GPRMC,200418.000,A,3322.7955,N,11734.1149,W,69.98,294.96,191110,,,A*47
$GPRMC,200421.000,A,3322.8200,N,11734.1773,W,68.52,294.96,191110,,,A*41
$GPRMC,200424.000,A,3322.8444,N,11734.2391,W,69.50,295.66,191110,,,A*44
$GPRMC,200427.000,A,3322.8711,N,11734.3028,W,73.38,296.02,191110,,,A*40
$GPRMC,200430.000,A,3322.8978,N,11734.3698,W,74.85,294.96,191110,,,A*44
$GPRMC,200433.000,A,3322.9239,N,11734.4377,W,75.33,294.26,191110,,,A*4C
$GPRMC,200436.000,A,3322.9500,N,11734.5069,W,76.79,293.91,191110,,,A*4F
$GPRMC,200439.000,A,3322.9761,N,11734.5771,W,77.28,294.61,191110,,,A*46
$GPRMC,200442.000,A,3323.0034,N,11734.6472,W,77.76,294.96,191110,,,A*45
$GPRMC,200445.000,A,3323.0305,N,11734.7174,W,77.28,294.61,191110,,,A*42
$GPRMC,200448.000,A,3323.0578,N,11734.7879,W,78.24,294.96,191110,,,A*4C
$GPRMC,200451.000,A,3323.0855,N,11734.8590,W,79.22,294.96,191110,,,A*44
$GPRMC,200454.000,A,3323.1135,N,11734.9308,W,79.70,294.96,191110,,,A*4E
$GPRMC,200457.000,A,3323.1418,N,11735.0029,W,80.19,295.31,191110,,,A*4A
$GPRMC,200500.000,A,3323.1747,N,11735.0721,W,80.68,301.64,191110,,,A*45
$GPRMC,200503.000,A,3323.2130,N,11735.1381,W,81.16,307.62,191110,,,A*44
$GPRMC,200506.000,A,3323.2570,N,11735.1989,W,81.17,313.59,191110,,,A*4F
$GPRMC,200509.000,A,3323.3060,N,11735.2543,W,80.67,318.52,191110,,,A*4A
$GPRMC,200512.000,A,3323.3594,N,11735.3038,W,80.67,324.49,191110,,,A*43
$GPRMC,200515.000,A,3323.4151,N,11735.3486,W,79.70,326.60,191110,,,A*46
$GPRMC,200518.000,A,3323.4708,N,11735.3917,W,78.75,326.95,191110,,,A*4A
$GPRMC,200521.000,A,3323.5252,N,11735.4342,W,77.30,326.95,191110,,,A*48
$GPRMC,200524.000,A,3323.5792,N,11735.4760,W,76.32,326.95,191110,,,A*43
$GPRMC,200527.000,A,3323.6320,N,11735.5169,W,74.87,327.30,191110,,,A*42
$GPRMC,200530.000,A,3323.6829,N,11735.5542,W,67.07,329.41,191110,,,A*49
$GPRMC,200533.000,A,3323.7302,N,11735.5868,W,64.15,330.12,191110,,,A*42
$GPRMC,200536.000,A,3323.7762,N,11735.6157,W,61.72,332.58,191110,,,A*4B
$GPRMC,200539.000,A,3323.8216,N,11735.6428,W,60.26,333.63,191110,,,A*49
$GPRMC,200542.000,A,3323.8670,N,11735.6669,W,59.78,335.74,191110,,,A*47
$GPRMC,200545.000,A,3323.9140,N,11735.6898,W,60.75,336.80,191110,,,A*4A
$GPRMC,200548.000,A,3323.9606,N,11735.7129,W,60.27,337.15,191110,,,A*4A
$GPRMC,200551.000,A,3324.0086,N,11735.7364,W,60.76,337.85,191110,,,A*44
$GPRMC,200554.000,A,3324.0550,N,11735.7596,W,61.23,337.50,191110,,,A*4D
$GPRMC,200557.000,A,3324.1026,N,11735.7834,W,61.24,337.15,191110,,,A*48
$GPRMC,200600.000,A,3324.1502,N,11735.8069,W,61.23,337.50,191110,,,A*43
$GPRMC,200603.000,A,3324.1969,N,11735.8311,W,60.75,336.80,191110,,,A*43
$GPRMC,200606.000,A,3324.2432,N,11735.8542,W,60.26,337.15,191110,,,A*4D
$GPRMC,200609.000,A,3324.2896,N,11735.8768,W,60.75,337.50,191110,,,A*4D
$GPRMC,200612.000,A,3324.3363,N,11735.9006,W,60.75,337.50,191110,,,A*49
$GPRMC,200615.000,A,3324.3833,N,11735.9237,W,61.23,337.15,191110,,,A*43
$GPRMC,200618.000,A,3324.4306,N,11735.9482,W,62.21,336.80,191110,,,A*40
$GPRMC,200621.000,A,3324.4798,N,11735.9727,W,63.67,337.50,191110,,,A*4A
$GPRMC,200624.000,A,3324.5300,N,11735.9975,W,65.13,337.15,191110,,,A*46
$GPRMC,200627.000,A,3324.5809,N,11736.0222,W,67.07,337.15,191110,,,A*43
$GPRMC,200630.000,A,3324.6330,N,11736.0480,W,67.55,337.15,191110,,,A*4E
$GPRMC,200633.000,A,3324.6845,N,11736.0741,W,65.12,337.15,191110,,,A*4B
$GPRMC,200636.000,A,3324.7338,N,11736.0988,W,63.66,337.15,191110,,,A*40
$GPRMC,200639.000,A,3324.7824,N,11736.1246,W,64.15,337.15,191110,,,A*42
$GPRMC,200642.000,A,3324.8313,N,11736.1494,W,63.21,337.50,191110,,,A*46
$GPRMC,200645.000,A,3324.8789,N,11736.1729,W,62.21,337.50,191110,,,A*42
$GPRMC,200648.000,A,3324.9266,N,11736.1967,W,61.24,337.50,191110,,,A*48
$GPRMC,200651.000,A,3324.9742,N,11736.2205,W,62.70,337.15,191110,,,A*4C
$GPRMC,200654.000,A,3325.0222,N,11736.2440,W,62.70,337.50,191110,,,A*44
$GPRMC,200657.000,A,3325.0695,N,11736.2681,W,62.21,336.80,191110,,,A*48
$GPRMC,200700.000,A,3325.1174,N,11736.2949,W,63.67,333.63,191110,,,A*42
$GPRMC,200703.000,A,3325.1622,N,11736.3296,W,64.67,324.84,191110,,,A*45
$GPRMC,200706.000,A,3325.2063,N,11736.3673,W,64.67,323.79,191110,,,A*4A
$GPRMC,200709.000,A,3325.2497,N,11736.4043,W,63.67,325.20,191110,,,A*45
$GPRMC,200712.000,A,3325.2935,N,11736.4358,W,60.75,330.47,191110,,,A*46
$GPRMC,200715.000,A,3325.3389,N,11736.4593,W,59.29,337.50,191110,,,A*4E
$GPRMC,200718.000,A,3325.3852,N,11736.4815,W,59.78,338.20,191110,,,A*41
$GPRMC,200721.000,A,3325.4300,N,11736.5044,W,57.84,337.15,191110,,,A*49
$GPRMC,200724.000,A,3325.4737,N,11736.5285,W,57.83,333.98,191110,,,A*45
$GPRMC,200727.000,A,3325.5162,N,11736.5559,W,57.83,330.82,191110,,,A*4F
$GPRMC,200730.000,A,3325.5577,N,11736.5842,W,58.33,330.47,191110,,,A*43
$GPRMC,200733.000,A,3325.6002,N,11736.6132,W,58.32,330.47,191110,,,A*48
$GPRMC,200736.000,A,3325.6421,N,11736.6418,W,57.35,329.77,191110,,,A*46
$GPRMC,200739.000,A,3325.6823,N,11736.6724,W,56.38,326.60,191110,,,A*4E
$GPRMC,200742.000,A,3325.7212,N,11736.7049,W,57.84,323.79,191110,,,A*4D
$GPRMC,200745.000,A,3325.7595,N,11736.7406,W,58.81,319.92,191110,,,A*4B
$GPRMC,200748.000,A,3325.7953,N,11736.7796,W,57.35,316.41,191110,,,A*4B
$GPRMC,200751.000,A,3325.8294,N,11736.8205,W,57.84,314.30,191110,,,A*42
$GPRMC,200754.000,A,3325.8635,N,11736.8623,W,59.30,315.00,191110,,,A*4B
$GPRMC,200757.000,A,3325.9015,N,11736.9035,W,61.72,319.22,191110,,,A*4C
$GPRMC,200800.000,A,3325.9437,N,11736.9376,W,60.76,326.25,191110,,,A*4F
$GPRMC,200803.000,A,3325.9878,N,11736.9682,W,61.30,331.17,191110,,,A*41
$GPRMC,200806.000,A,3326.0331,N,11736.9978,W,62.21,330.82,191110,,,A*4C
$GPRMC,200809.000,A,3326.0798,N,11737.0290,W,65.19,330.82,191110,,,A*4D
$GPRMC,200812.000,A,3326.1281,N,11737.0609,W,66.64,328.71,191110,,,A*43
$GPRMC,200815.000,A,3326.1735,N,11737.0976,W,66.16,322.03,191110,,,A*43
$GPRMC,200818.000,A,3326.2169,N,11737.1391,W,67.55,319.57,191110,,,A*4F
$GPRMC,200821.000,A,3326.2526,N,11737.1880,W,66.16,309.38,191110,,,A*4F
$GPRMC,200824.000,A,3326.2855,N,11737.2421,W,67.56,303.75,191110,,,A*41
$GPRMC,200827.000,A,3326.3164,N,11737.3000,W,69.50,302.34,191110,,,A*42
$GPRMC,200830.000,A,3326.3476,N,11737.3586,W,68.55,302.70,191110,,,A*4D
$GPRMC,200833.000,A,3326.3775,N,11737.4143,W,64.67,303.05,191110,,,A*4A
$GPRMC,200836.000,A,3326.4068,N,11737.4668,W,61.75,303.40,191110,,,A*4A
$GPRMC,200839.000,A,3326.4348,N,11737.5173,W,60.76,303.40,191110,,,A*4A
$GPRMC,200842.000,A,3326.4648,N,11737.5669,W,62.72,307.97,191110,,,A*47
$GPRMC,200845.000,A,3326.4998,N,11737.6151,W,65.15,313.95,191110,,,A*4C
$GPRMC,200848.000,A,3326.5385,N,11737.6615,W,66.12,315.00,191110,,,A*4F
$GPRMC,200851.000,A,3326.5771,N,11737.7075,W,64.18,315.00,191110,,,A*41
$GPRMC,200854.000,A,3326.6138,N,11737.7519,W,62.21,315.00,191110,,,A*4F
$GPRMC,200857.000,A,3326.6501,N,11737.7951,W,60.27,315.00,191110,,,A*46
$GPRMC,200900.000,A,3326.6852,N,11737.8376,W,60.27,315.00,191110,,,A*4E
$GPRMC,200903.000,A,3326.7210,N,11737.8813,W,62.21,313.24,191110,,,A*4C
$GPRMC,200906.000,A,3326.7538,N,11737.9312,W,64.67,305.86,191110,,,A*44
$GPRMC,200909.000,A,3326.7837,N,11737.9863,W,67.09,301.29,191110,,,A*4E
$GPRMC,200912.000,A,3326.8133,N,11738.0439,W,69.01,300.94,191110,,,A*42
$GPRMC,200915.000,A,3326.8429,N,11738.1025,W,69.04,301.29,191110,,,A*41
$GPRMC,200918.000,A,3326.8732,N,11738.1620,W,70.49,301.29,191110,,,A*47
$GPRMC,200921.000,A,3326.9038,N,11738.2206,W,68.55,303.05,191110,,,A*4A
$GPRMC,200924.000,A,3326.9366,N,11738.2750,W,66.59,309.02,191110,,,A*4E
$GPRMC,200927.000,A,3326.9717,N,11738.3249,W,64.64,310.43,191110,,,A*42
$GPRMC,200930.000,A,3327.0071,N,11738.3744,W,65.64,310.43,191110,,,A*42
$GPRMC,200933.000,A,3327.0422,N,11738.4237,W,64.67,310.78,191110,,,A*4F
$GPRMC,200936.000,A,3327.0769,N,11738.4726,W,63.69,310.08,191110,,,A*4D
$GPRMC,200939.000,A,3327.1101,N,11738.5225,W,65.15,307.62,191110,,,A*4B
$GPRMC,200942.000,A,3327.1429,N,11738.5753,W,66.12,304.80,191110,,,A*47
$GPRMC,200945.000,A,3327.1729,N,11738.6293,W,65.13,302.34,191110,,,A*42
$GPRMC,200948.000,A,3327.2015,N,11738.6850,W,65.61,299.88,191110,,,A*40
$GPRMC,200951.000,A,3327.2276,N,11738.7423,W,65.15,297.77,191110,,,A*4B
$GPRMC,200954.000,A,3327.2527,N,11738.7996,W,64.18,297.07,191110,,,A*45
$GPRMC,200957.000,A,3327.2768,N,11738.8556,W,62.21,297.07,191110,,,A*4C
$GPRMC,201000.000,A,3327.3000,N,11738.9094,W,60.27,297.07,191110,,,A*40
$GPRMC,201003.000,A,3327.3232,N,11738.9631,W,60.29,297.07,191110,,,A*47
$GPRMC,201006.000,A,3327.3463,N,11739.0172,W,61.75,297.42,191110,,,A*41
$GPRMC,201009.000,A,3327.3702,N,11739.0722,W,62.72,298.48,191110,,,A*48
$GPRMC,201012.000,A,3327.3966,N,11739.1263,W,62.24,301.29,191110,,,A*4A
$GPRMC,201015.000,A,3327.4242,N,11739.1781,W,62.70,303.75,191110,,,A*44
$GPRMC,201018.000,A,3327.4545,N,11739.2299,W,63.67,305.86,191110,,,A*4B
$GPRMC,201021.000,A,3327.4854,N,11739.2808,W,63.19,305.51,191110,,,A*4D
$GPRMC,201024.000,A,3327.5160,N,11739.3313,W,61.73,305.86,191110,,,A*43
$GPRMC,201027.000,A,3327.5453,N,11739.3806,W,60.75,305.51,191110,,,A*47
$GPRMC,201030.000,A,3327.5736,N,11739.4308,W,60.27,301.29,191110,,,A*4F
$GPRMC,201033.000,A,3327.5984,N,11739.4829,W,60.26,298.48,191110,,,A*44
$GPRMC,201036.000,A,3327.6209,N,11739.5380,W,62.21,296.37,191110,,,A*46
$GPRMC,201039.000,A,3327.6444,N,11739.5946,W,63.69,297.07,191110,,,A*49
$GPRMC,201042.000,A,3327.6711,N,11739.6497,W,63.19,305.16,191110,,,A*49
$GPRMC,201045.000,A,3327.7036,N,11739.6992,W,64.15,309.73,191110,,,A*41
$GPRMC,201048.000,A,3327.7377,N,11739.7488,W,65.12,309.38,191110,,,A*44
$GPRMC,201051.000,A,3327.7722,N,11739.7993,W,65.12,309.02,191110,,,A*46
$GPRMC,201054.000,A,3327.8069,N,11739.8495,W,65.12,309.38,191110,,,A*49
$GPRMC,201057.000,A,3327.8414,N,11739.8997,W,65.12,309.02,191110,,,A*42
$GPRMC,201100.000,A,3327.8755,N,11739.9500,W,64.64,309.38,191110,,,A*4D
$GPRMC,201103.000,A,3327.9093,N,11739.9992,W,62.70,309.38,191110,,,A*46
