NMEA Sentence Code,UTC Time,Status,Latitude,Latitude Direction,Longitude,Longitude Direction,Speed (knots),Track Angle (degrees true),Date,MagneticVariation,Magnetic Variation Direction,[FAA Mode]-Optional,Checksum
$GPRMC,041715.4,A,3309.743070,N,11720.621658,W,21.9,55.4,100310,,,A*76
$GPRMC,041718.4,A,3309.752590,N,11720.604335,W,19.9,54.2,100310,,,A*75
$GPRMC,041721.4,A,3309.760384,N,11720.590644,W,15.5,55.9,100310,,,A*7A
$GPRMC,041724.4,A,3309.767175,N,11720.579824,W,13.1,55.7,100310,,,A*77
$GPRMC,041727.4,A,3309.770271,N,11720.572972,W,9.0,61.9,100310,,,A*4F
$GPRMC,041730.4,A,3309.772229,N,11720.563955,W,10.4,85.3,100310,,,A*7F
$GPRMC,041733.4,A,3309.767634,N,11720.550442,W,14.9,113.7,100310,,,A*48
$GPRMC,041736.4,A,3309.755071,N,11720.539427,W,19.2,138.0,100310,,,A*4F
$GPRMC,041739.4,A,3309.734210,N,11720.530573,W,24.2,152.9,100310,,,A*40
$GPRMC,041742.4,A,3309.713222,N,11720.517635,W,27.3,153.6,100310,,,A*40
$GPRMC,041745.4,A,3309.689823,N,11720.503375,W,30.9,153.2,100310,,,A*42
$GPRMC,041748.4,A,3309.662869,N,11720.488837,W,36.0,154.6,100310,,,A*47
$GPRMC,041751.4,A,3309.631359,N,11720.472677,W,41.3,155.0,100310,,,A*4A
$GPRMC,041754.4,A,3309.596828,N,11720.454208,W,45.6,155.5,100310,,,A*40
$GPRMC,041757.4,A,3309.560222,N,11720.434772,W,48.1,155.2,100310,,,A*49
$GPRMC,041800.4,A,3309.521818,N,11720.413727,W,50.0,155.9,100310,,,A*44
$GPRMC,041803.4,A,3309.482601,N,11720.394692,W,50.5,156.5,100310,,,A*44
$GPRMC,041806.4,A,3309.442949,N,11720.373888,W,50.8,156.6,100310,,,A*4C
$GPRMC,041809.4,A,3309.404463,N,11720.353871,W,50.0,156.3,100310,,,A*4D
$GPRMC,041812.4,A,3309.367182,N,11720.331432,W,49.7,156.2,100310,,,A*4E
$GPRMC,041815.4,A,3309.329922,N,11720.312393,W,49.8,156.8,100310,,,A*49
$GPRMC,041818.4,A,3309.291454,N,11720.291533,W,51.6,155.7,100310,,,A*47
$GPRMC,041821.4,A,3309.250715,N,11720.268883,W,54.5,154.4,100310,,,A*42
$GPRMC,041824.4,A,3309.207982,N,11720.244308,W,56.6,154.0,100310,,,A*46
$GPRMC,041827.4,A,3309.165997,N,11720.218212,W,56.8,153.4,100310,,,A*48
$GPRMC,041830.4,A,3309.124643,N,11720.193428,W,55.6,153.3,100310,,,A*48
$GPRMC,041833.4,A,3309.082317,N,11720.170775,W,54.7,154.1,100310,,,A*41
$GPRMC,041836.4,A,3309.042470,N,11720.148006,W,53.6,154.1,100310,,,A*40
$GPRMC,041839.4,A,3309.002201,N,11720.123700,W,54.1,153.0,100310,,,A*41
$GPRMC,041842.4,A,3308.962184,N,11720.099022,W,54.1,153.2,100310,,,A*48
$GPRMC,041845.4,A,3308.920530,N,11720.076766,W,54.5,154.3,100310,,,A*46
$GPRMC,041848.4,A,3308.876837,N,11720.056180,W,54.8,158.0,100310,,,A*4D
$GPRMC,041851.4,A,3308.833971,N,11720.038425,W,53.5,162.7,100310,,,A*41
$GPRMC,041854.4,A,3308.790070,N,11720.027896,W,53.4,168.8,100310,,,A*44
$GPRMC,041857.4,A,3308.743086,N,11720.022957,W,55.1,174.5,100310,,,A*4A
$GPRMC,041900.4,A,3308.695469,N,11720.021140,W,56.2,177.0,100310,,,A*4D
$GPRMC,041903.4,A,3308.650605,N,11720.022393,W,55.0,178.6,100310,,,A*48
$GPRMC,041906.4,A,3308.601666,N,11720.023796,W,52.5,177.0,100310,,,A*47
$GPRMC,041909.4,A,3308.559529,N,11720.017037,W,49.3,169.9,100310,,,A*4F
$GPRMC,041912.4,A,3308.518701,N,11720.003445,W,49.2,162.2,100310,,,A*4D
$GPRMC,041915.4,A,3308.479921,N,11719.982725,W,51.1,157.8,100310,,,A*49
$GPRMC,041918.4,A,3308.439208,N,11719.962903,W,52.6,157.3,100310,,,A*4B
$GPRMC,041921.4,A,3308.398853,N,11719.941972,W,53.8,156.9,100310,,,A*4A
$GPRMC,041924.4,A,3308.356212,N,11719.920323,W,54.8,156.8,100310,,,A*4D
$GPRMC,041927.4,A,3308.313179,N,11719.898600,W,55.3,157.0,100310,,,A*44
$GPRMC,041930.4,A,3308.270506,N,11719.877069,W,54.9,156.7,100310,,,A*4F
$GPRMC,041933.4,A,3308.229257,N,11719.855701,W,54.6,156.6,100310,,,A*44
$GPRMC,041936.4,A,3308.186802,N,11719.833377,W,55.2,156.8,100310,,,A*43
$GPRMC,041939.4,A,3308.143929,N,11719.811084,W,55.5,156.4,100310,,,A*49
$GPRMC,041942.4,A,3308.103142,N,11719.791664,W,53.6,156.9,100310,,,A*43
$GPRMC,041945.4,A,3308.062326,N,11719.772362,W,52.1,157.0,100310,,,A*42
$GPRMC,041948.4,A,3308.022508,N,11719.751844,W,51.9,155.9,100310,,,A*4F
$GPRMC,041951.4,A,3307.983896,N,11719.730005,W,51.2,155.0,100310,,,A*48
$GPRMC,041954.4,A,3307.945065,N,11719.707676,W,52.0,153.8,100310,,,A*4A
$GPRMC,041957.4,A,3307.904997,N,11719.683654,W,52.9,153.4,100310,,,A*40
$GPRMC,042000.4,A,3307.866077,N,11719.661463,W,52.0,153.6,100310,,,A*4B
$GPRMC,042003.4,A,3307.827203,N,11719.637807,W,52.1,153.3,100310,,,A*45
$GPRMC,042006.4,A,3307.790270,N,11719.614766,W,51.1,153.2,100310,,,A*4C
$GPRMC,042009.4,A,3307.751802,N,11719.592749,W,51.0,152.9,100310,,,A*4A
$GPRMC,042012.4,A,3307.712071,N,11719.569177,W,52.6,152.8,100310,,,A*40
$GPRMC,042015.4,A,3307.671500,N,11719.545555,W,54.1,153.0,100310,,,A*42
$GPRMC,042018.4,A,3307.630806,N,11719.521352,W,55.1,153.1,100310,,,A*42
$GPRMC,042021.4,A,3307.589798,N,11719.496134,W,56.2,153.1,100310,,,A*4E
$GPRMC,042024.4,A,3307.548290,N,11719.470309,W,56.6,153.1,100310,,,A*4B
$GPRMC,042027.4,A,3307.505352,N,11719.445402,W,57.0,153.4,100310,,,A*46
$GPRMC,042030.4,A,3307.460969,N,11719.419938,W,58.0,153.1,100310,,,A*47
$GPRMC,042033.4,A,3307.416827,N,11719.393738,W,58.5,153.1,100310,,,A*40
$GPRMC,042036.4,A,3307.373904,N,11719.367968,W,57.4,153.2,100310,,,A*4C
$GPRMC,042039.4,A,3307.333393,N,11719.343304,W,54.5,152.8,100310,,,A*4C
$GPRMC,042042.4,A,3307.293522,N,11719.319168,W,53.0,153.7,100310,,,A*4C
$GPRMC,042045.4,A,3307.255596,N,11719.295938,W,51.3,153.1,100310,,,A*41
$GPRMC,042048.4,A,3307.216245,N,11719.273809,W,52.3,153.0,100310,,,A*4B
$GPRMC,042051.4,A,3307.176570,N,11719.248558,W,53.9,153.1,100310,,,A*4C
$GPRMC,042054.4,A,3307.136000,N,11719.224919,W,54.2,153.8,100310,,,A*49
$GPRMC,042057.4,A,3307.095861,N,11719.200556,W,53.1,153.3,100310,,,A*43
$GPRMC,042100.4,A,3307.056731,N,11719.177740,W,51.9,153.1,100310,,,A*4B
$GPRMC,042103.4,A,3307.018580,N,11719.153193,W,52.1,152.5,100310,,,A*4A
$GPRMC,042106.4,A,3306.979799,N,11719.128824,W,53.3,153.0,100310,,,A*44
$GPRMC,042109.4,A,3306.940409,N,11719.104660,W,54.3,153.3,100310,,,A*4F
$GPRMC,042112.4,A,3306.898933,N,11719.080431,W,54.5,153.4,100310,,,A*4F
$GPRMC,042115.4,A,3306.859238,N,11719.055836,W,54.0,153.2,100310,,,A*45
$GPRMC,042118.4,A,3306.818481,N,11719.032849,W,52.8,153.3,100310,,,A*4F
$GPRMC,042121.4,A,3306.779958,N,11719.010366,W,51.7,153.5,100310,,,A*48
$GPRMC,042124.4,A,3306.742435,N,11718.987619,W,51.5,152.9,100310,,,A*47
$GPRMC,042127.4,A,3306.703028,N,11718.964913,W,51.6,153.4,100310,,,A*4E
$GPRMC,042130.4,A,3306.664123,N,11718.941161,W,51.8,153.1,100310,,,A*43
$GPRMC,042133.4,A,3306.623932,N,11718.917174,W,53.2,153.8,100310,,,A*4D
$GPRMC,042136.4,A,3306.585235,N,11718.894981,W,51.6,153.6,100310,,,A*4B
$GPRMC,042139.4,A,3306.547425,N,11718.872001,W,51.0,153.3,100310,,,A*47
$GPRMC,042142.4,A,3306.510251,N,11718.849615,W,49.2,152.8,100310,,,A*46
$GPRMC,042145.4,A,3306.475883,N,11718.827885,W,47.7,152.0,100310,,,A*4A
$GPRMC,042148.4,A,3306.440332,N,11718.805209,W,48.4,152.1,100310,,,A*43
$GPRMC,042151.4,A,3306.403548,N,11718.781837,W,49.9,151.2,100310,,,A*4F
$GPRMC,042154.4,A,3306.367205,N,11718.757086,W,49.6,150.9,100310,,,A*4D
$GPRMC,042157.4,A,3306.330206,N,11718.733519,W,50.6,151.5,100310,,,A*4B
$GPRMC,042200.4,A,3306.293103,N,11718.709099,W,51.4,150.9,100310,,,A*4E
$GPRMC,042203.4,A,3306.254639,N,11718.683365,W,53.0,151.3,100310,,,A*46
$GPRMC,042206.4,A,3306.214413,N,11718.657814,W,54.3,151.2,100310,,,A*4C
$GPRMC,042209.4,A,3306.174029,N,11718.631111,W,54.9,151.1,100310,,,A*4E
$GPRMC,042212.4,A,3306.133228,N,11718.604614,W,55.4,151.2,100310,,,A*4F
$GPRMC,042215.4,A,3306.093291,N,11718.577665,W,55.8,150.9,100310,,,A*46
$GPRMC,042218.4,A,3306.053193,N,11718.551175,W,55.6,151.1,100310,,,A*43
$GPRMC,042221.4,A,3306.011793,N,11718.524730,W,56.2,151.5,100310,,,A*4F
$GPRMC,042224.4,A,3305.970971,N,11718.498788,W,55.8,151.1,100310,,,A*4D
$GPRMC,042227.4,A,3305.929475,N,11718.471811,W,56.3,151.4,100310,,,A*4E
$GPRMC,042230.4,A,3305.887730,N,11718.444158,W,57.7,150.9,100310,,,A*44
$GPRMC,042233.4,A,3305.844636,N,11718.415892,W,59.3,151.1,100310,,,A*47
$GPRMC,042236.4,A,3305.800918,N,11718.386793,W,59.3,150.9,100310,,,A*4B
$GPRMC,042239.4,A,3305.757142,N,11718.357942,W,59.7,151.4,100310,,,A*48
$GPRMC,042242.4,A,3305.714195,N,11718.330052,W,58.5,150.9,100310,,,A*4F
$GPRMC,042245.4,A,3305.671200,N,11718.302651,W,58.7,151.6,100310,,,A*4D
$GPRMC,042248.4,A,3305.628829,N,11718.274343,W,58.8,151.3,100310,,,A*41
$GPRMC,042251.4,A,3305.584895,N,11718.245840,W,59.8,151.3,100310,,,A*40
$GPRMC,042254.4,A,3305.542560,N,11718.218163,W,58.4,150.8,100310,,,A*4F
$GPRMC,042257.4,A,3305.499559,N,11718.190061,W,59.2,151.1,100310,,,A*4E
$GPRMC,042300.4,A,3305.456381,N,11718.161915,W,58.9,151.3,100310,,,A*41
$GPRMC,042303.4,A,3305.413211,N,11718.134198,W,58.1,151.2,100310,,,A*4F
$GPRMC,042306.4,A,3305.371136,N,11718.106199,W,58.0,151.2,100310,,,A*4E
$GPRMC,042309.4,A,3305.328696,N,11718.078629,W,58.3,151.1,100310,,,A*44
$GPRMC,042312.4,A,3305.286886,N,11718.051366,W,58.2,151.2,100310,,,A*43
$GPRMC,042315.4,A,3305.244861,N,11718.023611,W,57.2,151.1,100310,,,A*4F
$GPRMC,042318.4,A,3305.202901,N,11717.996523,W,57.2,151.0,100310,,,A*4C
$GPRMC,042321.4,A,3305.160981,N,11717.969101,W,57.6,151.2,100310,,,A*4B
$GPRMC,042324.4,A,3305.119656,N,11717.942780,W,55.9,151.6,100310,,,A*4A
$GPRMC,042327.4,A,3305.079572,N,11717.917896,W,54.7,153.5,100310,,,A*4D
$GPRMC,042330.4,A,3305.040191,N,11717.895962,W,53.3,156.4,100310,,,A*4E
$GPRMC,042333.4,A,3304.997050,N,11717.878080,W,54.1,161.2,100310,,,A*42
$GPRMC,042336.4,A,3304.952356,N,11717.863293,W,54.5,165.0,100310,,,A*43
$GPRMC,042339.4,A,3304.908964,N,11717.849781,W,54.0,165.4,100310,,,A*47
$GPRMC,042342.4,A,3304.850228,N,11717.833198,W,52.9,165.8,100310,,,A*44
$GPRMC,042345.4,A,3304.808949,N,11717.820449,W,50.5,165.7,100310,,,A*48
$GPRMC,042348.4,A,3304.768557,N,11717.807474,W,50.5,165.9,100310,,,A*4A
$GPRMC,042351.4,A,3304.726838,N,11717.794450,W,51.9,165.6,100310,,,A*4D
$GPRMC,042354.4,A,3304.684540,N,11717.781265,W,53.0,166.0,100310,,,A*49
$GPRMC,042357.4,A,3304.639976,N,11717.768135,W,54.1,165.6,100310,,,A*47
$GPRMC,042400.4,A,3304.595377,N,11717.755141,W,54.1,166.2,100310,,,A*46
$GPRMC,042403.4,A,3304.551381,N,11717.742104,W,54.4,165.7,100310,,,A*40
$GPRMC,042406.4,A,3304.506885,N,11717.728769,W,54.9,165.4,100310,,,A*47
$GPRMC,042409.4,A,3304.462610,N,11717.714342,W,54.3,164.9,100310,,,A*4D
$GPRMC,042412.4,A,3304.417600,N,11717.700976,W,55.1,166.0,100310,,,A*44
$GPRMC,042415.4,A,3304.373408,N,11717.687710,W,55.7,165.6,100310,,,A*4F
$GPRMC,042418.4,A,3304.327511,N,11717.674214,W,56.9,165.8,100310,,,A*44
$GPRMC,042421.4,A,3304.279654,N,11717.660270,W,58.7,166.0,100310,,,A*4A
$GPRMC,042424.4,A,3304.231258,N,11717.646144,W,58.0,165.6,100310,,,A*49
$GPRMC,042427.4,A,3304.185734,N,11717.631662,W,57.3,165.6,100310,,,A*46
$GPRMC,042430.4,A,3304.141396,N,11717.617194,W,54.6,165.6,100310,,,A*48
$GPRMC,042433.4,A,3304.098419,N,11717.604248,W,52.6,165.9,100310,,,A*47
$GPRMC,042436.4,A,3304.054723,N,11717.591869,W,54.5,166.0,100310,,,A*41
$GPRMC,042439.4,A,3304.010775,N,11717.578756,W,55.2,165.8,100310,,,A*44
$GPRMC,042442.4,A,3303.965575,N,11717.564107,W,56.7,165.5,100310,,,A*42
$GPRMC,042445.4,A,3303.919587,N,11717.550648,W,56.9,166.2,100310,,,A*42
$GPRMC,042448.4,A,3303.873684,N,11717.537547,W,56.7,165.9,100310,,,A*49
$GPRMC,042451.4,A,3303.827773,N,11717.523349,W,56.9,165.6,100310,,,A*45
$GPRMC,042454.4,A,3303.780695,N,11717.509592,W,58.0,165.5,100310,,,A*47
$GPRMC,042457.4,A,3303.733242,N,11717.495776,W,57.9,166.2,100310,,,A*4C
$GPRMC,042500.4,A,3303.686513,N,11717.481770,W,58.3,165.9,100310,,,A*4D
$GPRMC,042503.4,A,3303.638505,N,11717.467902,W,58.3,165.5,100310,,,A*43
$GPRMC,042506.4,A,3303.591564,N,11717.453026,W,58.8,165.2,100310,,,A*45
$GPRMC,042509.4,A,3303.543575,N,11717.437928,W,60.6,165.9,100310,,,A*4E
$GPRMC,042512.4,A,3303.493342,N,11717.424136,W,61.3,166.3,100310,,,A*42
$GPRMC,042515.4,A,3303.443973,N,11717.409275,W,61.3,166.0,100310,,,A*48
$GPRMC,042518.4,A,3303.395546,N,11717.394275,W,60.6,166.0,100310,,,A*44
$GPRMC,042521.4,A,3303.345976,N,11717.379463,W,60.1,165.8,100310,,,A*42
$GPRMC,042524.4,A,3303.297727,N,11717.365064,W,60.1,166.2,100310,,,A*44
$GPRMC,042527.4,A,3303.248818,N,11717.350467,W,60.2,165.9,100310,,,A*4C
$GPRMC,042530.4,A,3303.200665,N,11717.335480,W,59.8,165.5,100310,,,A*44
$GPRMC,042533.4,A,3303.153740,N,11717.321586,W,55.8,166.0,100310,,,A*4C
$GPRMC,042536.4,A,3303.110397,N,11717.309441,W,52.7,166.6,100310,,,A*4E
$GPRMC,042539.4,A,3303.067762,N,11717.296809,W,53.5,165.7,100310,,,A*48
$GPRMC,042542.4,A,3303.024044,N,11717.282782,W,55.0,165.8,100310,,,A*45
$GPRMC,042545.4,A,3302.979242,N,11717.270823,W,55.6,166.3,100310,,,A*41
$GPRMC,042548.4,A,3302.934588,N,11717.257345,W,55.2,165.7,100310,,,A*49
$GPRMC,042551.4,A,3302.889058,N,11717.243272,W,56.5,166.0,100310,,,A*4E
$GPRMC,042554.4,A,3302.842878,N,11717.228988,W,57.3,165.8,100310,,,A*49
$GPRMC,042557.4,A,3302.795459,N,11717.215187,W,57.5,166.0,100310,,,A*44
$GPRMC,042600.4,A,3302.749498,N,11717.201423,W,55.2,165.8,100310,,,A*49
$GPRMC,042603.4,A,3302.707995,N,11717.188998,W,50.4,165.8,100310,,,A*4C
$GPRMC,042606.4,A,3302.668601,N,11717.177389,W,49.6,165.9,100310,,,A*42
$GPRMC,042609.4,A,3302.628511,N,11717.165227,W,50.2,165.5,100310,,,A*4D
$GPRMC,042612.4,A,3302.588091,N,11717.151828,W,50.6,164.3,100310,,,A*42
$GPRMC,042615.4,A,3302.547664,N,11717.137575,W,51.7,162.5,100310,,,A*4F
$GPRMC,042618.4,A,3302.506464,N,11717.120347,W,53.7,159.2,100310,,,A*49
$GPRMC,042621.4,A,3302.466469,N,11717.096794,W,54.4,154.0,100310,,,A*44
$GPRMC,042624.4,A,3302.426964,N,11717.070565,W,54.7,151.0,100310,,,A*47
$GPRMC,042627.4,A,3302.386397,N,11717.044022,W,55.2,150.7,100310,,,A*4C
$GPRMC,042630.4,A,3302.345299,N,11717.017395,W,55.0,151.2,100310,,,A*45
$GPRMC,042633.4,A,3302.306784,N,11716.990459,W,54.2,150.2,100310,,,A*4A
$GPRMC,042636.4,A,3302.266563,N,11716.963704,W,54.7,150.7,100310,,,A*44
$GPRMC,042639.4,A,3302.226902,N,11716.936979,W,54.7,150.4,100310,,,A*43
$GPRMC,042642.4,A,3302.187164,N,11716.910549,W,53.7,150.7,100310,,,A*40
$GPRMC,042645.4,A,3302.149061,N,11716.885235,W,52.9,150.9,100310,,,A*41
$GPRMC,042648.4,A,3302.111424,N,11716.859834,W,52.8,150.5,100310,,,A*43
$GPRMC,042651.4,A,3302.072612,N,11716.833482,W,54.1,150.4,100310,,,A*4B
$GPRMC,042654.4,A,3302.032227,N,11716.805787,W,55.5,150.6,100310,,,A*4C
$GPRMC,042657.4,A,3301.992171,N,11716.779887,W,53.7,150.8,100310,,,A*4E
$GPRMC,042700.4,A,3301.952722,N,11716.753728,W,54.1,150.2,100310,,,A*48
$GPRMC,042703.4,A,3301.913692,N,11716.726783,W,55.3,150.4,100310,,,A*42
$GPRMC,042706.4,A,3301.872690,N,11716.699324,W,56.7,150.3,100310,,,A*4F
$GPRMC,042709.4,A,3301.831065,N,11716.671706,W,57.4,150.4,100310,,,A*4C
$GPRMC,042712.4,A,3301.789159,N,11716.643421,W,57.7,151.1,100310,,,A*44
$GPRMC,042715.4,A,3301.748317,N,11716.615220,W,56.9,150.6,100310,,,A*4B
$GPRMC,042718.4,A,3301.706890,N,11716.586645,W,57.1,150.7,100310,,,A*4E
$GPRMC,042721.4,A,3301.666752,N,11716.559294,W,56.8,150.3,100310,,,A*44
$GPRMC,042724.4,A,3301.624723,N,11716.531150,W,58.4,150.4,100310,,,A*41
$GPRMC,042727.4,A,3301.580682,N,11716.502986,W,58.9,151.7,100310,,,A*49
$GPRMC,042730.4,A,3301.534028,N,11716.477998,W,60.6,156.5,100310,,,A*4B
$GPRMC,042733.4,A,3301.486298,N,11716.456884,W,59.9,160.7,100310,,,A*44
$GPRMC,042736.4,A,3301.438099,N,11716.441429,W,58.4,165.2,100310,,,A*46
$GPRMC,042739.4,A,3301.390828,N,11716.430115,W,56.3,169.4,100310,,,A*41
$GPRMC,042742.4,A,3301.345537,N,11716.422067,W,54.9,170.9,100310,,,A*4C
$GPRMC,042745.4,A,3301.300242,N,11716.413513,W,54.5,171.1,100310,,,A*4E
$GPRMC,042748.4,A,3301.255797,N,11716.404941,W,54.6,170.4,100310,,,A*45
$GPRMC,042751.4,A,3301.211468,N,11716.395133,W,54.2,169.2,100310,,,A*46
$GPRMC,042754.4,A,3301.165162,N,11716.383278,W,56.2,166.7,100310,,,A*4F
$GPRMC,042757.4,A,3301.119128,N,11716.367390,W,57.2,162.9,100310,,,A*4F
$GPRMC,042800.4,A,3301.076059,N,11716.346993,W,56.4,158.1,100310,,,A*41
$GPRMC,042803.4,A,3301.034643,N,11716.323244,W,56.0,153.8,100310,,,A*4D
$GPRMC,042806.4,A,3300.993779,N,11716.296835,W,56.1,150.0,100310,,,A*4C
$GPRMC,042809.4,A,3300.955547,N,11716.267313,W,54.5,145.9,100310,,,A*4C
$GPRMC,042812.4,A,3300.919565,N,11716.234516,W,53.7,142.0,100310,,,A*40
$GPRMC,042815.4,A,3300.885875,N,11716.199427,W,53.8,138.4,100310,,,A*4E
$GPRMC,042818.4,A,3300.852773,N,11716.162842,W,53.6,136.6,100310,,,A*49
$GPRMC,042821.4,A,3300.819901,N,11716.125625,W,53.6,136.4,100310,,,A*49
$GPRMC,042824.4,A,3300.787288,N,11716.087501,W,54.9,135.8,100310,,,A*45
$GPRMC,042827.4,A,3300.754714,N,11716.050042,W,54.6,135.9,100310,,,A*4E
$GPRMC,042830.4,A,3300.722751,N,11716.011924,W,55.5,136.0,100310,,,A*4C
$GPRMC,042833.4,A,3300.690461,N,11715.973962,W,55.2,135.3,100310,,,A*4C
$GPRMC,042836.4,A,3300.656371,N,11715.934951,W,56.0,135.6,100310,,,A*42
$GPRMC,042839.4,A,3300.623101,N,11715.896732,W,55.0,136.1,100310,,,A*4F
$GPRMC,042842.4,A,3300.590296,N,11715.859114,W,55.4,136.1,100310,,,A*40
$GPRMC,042845.4,A,3300.557531,N,11715.818778,W,56.9,135.0,100310,,,A*43
$GPRMC,042848.4,A,3300.522664,N,11715.778457,W,57.7,135.2,100310,,,A*45
$GPRMC,042851.4,A,3300.488036,N,11715.738092,W,57.5,136.0,100310,,,A*47
$GPRMC,042854.4,A,3300.454098,N,11715.699873,W,56.0,136.2,100310,,,A*4C
$GPRMC,042857.4,A,3300.421931,N,11715.661798,W,55.1,135.9,100310,,,A*40
$GPRMC,042900.4,A,3300.388573,N,11715.624283,W,55.6,136.7,100310,,,A*49
$GPRMC,042903.4,A,3300.351719,N,11715.587203,W,55.9,139.9,100310,,,A*4C
$GPRMC,042906.4,A,3300.315475,N,11715.554550,W,55.0,144.9,100310,,,A*4C
$GPRMC,042909.4,A,3300.276158,N,11715.526809,W,55.1,150.1,100310,,,A*45
$GPRMC,042912.4,A,3300.234157,N,11715.502267,W,55.6,155.8,100310,,,A*49
$GPRMC,042915.4,A,3300.190656,N,11715.482760,W,55.5,161.5,100310,,,A*47
$GPRMC,042918.4,A,3300.144371,N,11715.469721,W,56.1,167.3,100310,,,A*44
$GPRMC,042921.4,A,3300.100315,N,11715.461311,W,54.8,171.6,100310,,,A*4A
$GPRMC,042924.4,A,3300.054262,N,11715.454690,W,55.4,172.4,100310,,,A*48
$GPRMC,042927.4,A,3300.008525,N,11715.447171,W,55.2,172.5,100310,,,A*4B
$GPRMC,042930.4,A,3259.961472,N,11715.440209,W,56.8,172.7,100310,,,A*45
$GPRMC,042933.4,A,3259.913548,N,11715.432819,W,58.3,173.0,100310,,,A*46
$GPRMC,042936.4,A,3259.864346,N,11715.426002,W,59.2,172.8,100310,,,A*44
$GPRMC,042939.4,A,3259.816481,N,11715.419054,W,57.4,172.9,100310,,,A*44
$GPRMC,042942.4,A,3259.770164,N,11715.411881,W,55.1,172.6,100310,,,A*49
$GPRMC,042945.4,A,3259.724278,N,11715.405152,W,55.4,172.6,100310,,,A*46
$GPRMC,042948.4,A,3259.677227,N,11715.396941,W,56.8,172.1,100310,,,A*49
$GPRMC,042951.4,A,3259.630331,N,11715.389939,W,56.7,172.6,100310,,,A*4D
$GPRMC,042954.4,A,3259.582790,N,11715.382030,W,57.1,172.1,100310,,,A*46
$GPRMC,042957.4,A,3259.536580,N,11715.375868,W,56.5,172.6,100310,,,A*46
$GPRMC,043000.4,A,3259.489776,N,11715.368681,W,56.3,172.2,100310,,,A*45
$GPRMC,043003.4,A,3259.442696,N,11715.360908,W,56.9,172.1,100310,,,A*41
$GPRMC,043006.4,A,3259.395120,N,11715.352832,W,57.9,172.5,100310,,,A*4F
$GPRMC,043009.4,A,3259.346725,N,11715.345585,W,58.9,172.5,100310,,,A*45
$GPRMC,043012.4,A,3259.297236,N,11715.337670,W,59.7,172.3,100310,,,A*40
$GPRMC,043015.4,A,3259.248238,N,11715.329672,W,58.6,172.2,100310,,,A*47
$GPRMC,043018.4,A,3259.200397,N,11715.322269,W,57.8,172.2,100310,,,A*46
$GPRMC,043021.4,A,3259.152190,N,11715.314450,W,57.7,172.1,100310,,,A*48
$GPRMC,043024.4,A,3259.105322,N,11715.306717,W,56.8,171.2,100310,,,A*49
$GPRMC,043027.4,A,3259.057620,N,11715.295434,W,57.9,167.4,100310,,,A*43
$GPRMC,043030.4,A,3259.010360,N,11715.281384,W,58.2,164.4,100310,,,A*49
$GPRMC,043033.4,A,3258.963829,N,11715.264203,W,59.0,162.3,100310,,,A*47
$GPRMC,043036.4,A,3258.917784,N,11715.246542,W,58.4,162.4,100310,,,A*49
$GPRMC,043039.4,A,3258.871631,N,11715.229189,W,57.5,162.4,100310,,,A*4C
$GPRMC,043042.4,A,3258.828372,N,11715.211952,W,54.1,162.2,100310,,,A*4A
$GPRMC,043045.4,A,3258.785587,N,11715.196762,W,53.7,162.6,100310,,,A*4D
$GPRMC,043048.4,A,3258.741644,N,11715.179848,W,55.6,162.1,100310,,,A*42
$GPRMC,043051.4,A,3258.695571,N,11715.162602,W,57.1,162.5,100310,,,A*4C
$GPRMC,043054.4,A,3258.649711,N,11715.145991,W,58.0,162.2,100310,,,A*45
$GPRMC,043057.4,A,3258.603066,N,11715.128057,W,58.5,162.1,100310,,,A*41
$GPRMC,043100.4,A,3258.557312,N,11715.110128,W,58.9,162.2,100310,,,A*4D
$GPRMC,043103.4,A,3258.509988,N,11715.092661,W,58.4,162.5,100310,,,A*47
$GPRMC,043106.4,A,3258.465916,N,11715.075746,W,56.6,162.3,100310,,,A*49
$GPRMC,043109.4,A,3258.420531,N,11715.058304,W,57.8,162.4,100310,,,A*4B
$GPRMC,043112.4,A,3258.373258,N,11715.040312,W,58.7,162.2,100310,,,A*40
$GPRMC,043115.4,A,3258.326808,N,11715.022905,W,57.6,162.6,100310,,,A*4A
$GPRMC,043118.4,A,3258.280026,N,11715.004487,W,58.4,162.1,100310,,,A*47
$GPRMC,043121.4,A,3258.232933,N,11714.987038,W,58.7,162.4,100310,,,A*4C
$GPRMC,043124.4,A,3258.186181,N,11714.968934,W,58.7,162.1,100310,,,A*45
$GPRMC,043127.4,A,3258.138698,N,11714.951616,W,58.6,162.4,100310,,,A*4D
$GPRMC,043130.4,A,3258.090758,N,11714.934622,W,58.6,162.7,100310,,,A*42
$GPRMC,043133.4,A,3258.045297,N,11714.916867,W,57.0,162.6,100310,,,A*48
$GPRMC,043136.4,A,3258.001802,N,11714.900242,W,55.4,162.2,100310,,,A*43
$GPRMC,043139.4,A,3257.957573,N,11714.883603,W,55.2,162.3,100310,,,A*4E
$GPRMC,043142.4,A,3257.914180,N,11714.866894,W,54.7,162.3,100310,,,A*42
$GPRMC,043145.4,A,3257.870495,N,11714.850959,W,54.8,162.4,100310,,,A*4A
$GPRMC,043148.4,A,3257.826291,N,11714.834619,W,55.4,162.4,100310,,,A*42
$GPRMC,043151.4,A,3257.782679,N,11714.817321,W,55.3,162.0,100310,,,A*45
$GPRMC,043154.4,A,3257.737564,N,11714.800639,W,56.1,162.7,100310,,,A*4D
$GPRMC,043157.4,A,3257.692740,N,11714.784725,W,56.7,163.0,100310,,,A*4B
$GPRMC,043200.4,A,3257.648019,N,11714.768746,W,57.4,164.0,100310,,,A*44
$GPRMC,043203.4,A,3257.602031,N,11714.754442,W,58.1,165.9,100310,,,A*49
$GPRMC,043206.4,A,3257.554468,N,11714.740531,W,58.9,167.6,100310,,,A*41
$GPRMC,043209.4,A,3257.505574,N,11714.729461,W,59.9,169.2,100310,,,A*46
$GPRMC,043212.4,A,3257.456855,N,11714.719606,W,59.8,170.8,100310,,,A*46
$GPRMC,043215.4,A,3257.406861,N,11714.711181,W,60.2,171.4,100310,,,A*4E
$GPRMC,043218.4,A,3257.357829,N,11714.702198,W,58.6,170.9,100310,,,A*45
$GPRMC,043221.4,A,3257.311704,N,11714.693685,W,55.7,171.0,100310,,,A*4B
$GPRMC,043224.4,A,3257.265614,N,11714.684509,W,55.5,170.9,100310,,,A*47
$GPRMC,043227.4,A,3257.218941,N,11714.676431,W,56.4,170.9,100310,,,A*44
$GPRMC,043230.4,A,3257.172211,N,11714.667296,W,56.5,171.1,100310,,,A*40
$GPRMC,043233.4,A,3257.125543,N,11714.658301,W,56.3,170.9,100310,,,A*4D
$GPRMC,043236.4,A,3257.078843,N,11714.650340,W,56.8,171.3,100310,,,A*41
$GPRMC,043239.4,A,3257.031674,N,11714.641244,W,56.6,171.1,100310,,,A*40
$GPRMC,043242.4,A,3256.985150,N,11714.632140,W,57.0,170.7,100310,,,A*49
$GPRMC,043245.4,A,3256.937685,N,11714.623794,W,57.7,170.7,100310,,,A*40
$GPRMC,043248.4,A,3256.888212,N,11714.614995,W,59.1,171.0,100310,,,A*47
$GPRMC,043251.4,A,3256.840129,N,11714.605748,W,58.8,171.2,100310,,,A*44
$GPRMC,043254.4,A,3256.791647,N,11714.597047,W,58.6,171.7,100310,,,A*46
$GPRMC,043257.4,A,3256.743101,N,11714.588400,W,59.4,172.1,100310,,,A*40
$GPRMC,043300.4,A,3256.693703,N,11714.579479,W,59.8,171.3,100310,,,A*46
$GPRMC,043303.4,A,3256.643610,N,11714.570709,W,60.3,171.4,100310,,,A*40
$GPRMC,043306.4,A,3256.593596,N,11714.561749,W,60.8,171.6,100310,,,A*4B
$GPRMC,043309.4,A,3256.541303,N,11714.553009,W,63.3,171.9,100310,,,A*44
$GPRMC,043312.4,A,3256.489633,N,11714.543837,W,63.3,171.6,100310,,,A*46
$GPRMC,043315.4,A,3256.436477,N,11714.533867,W,63.6,170.9,100310,,,A*4E
$GPRMC,043318.4,A,3256.385793,N,11714.524264,W,61.4,171.8,100310,,,A*4A
$GPRMC,043321.4,A,3256.336200,N,11714.518540,W,59.6,174.3,100310,,,A*4E
$GPRMC,043324.4,A,3256.286486,N,11714.514504,W,59.6,176.5,100310,,,A*41
$GPRMC,043327.4,A,3256.236353,N,11714.510748,W,59.6,176.4,100310,,,A*49
$GPRMC,043330.4,A,3256.187109,N,11714.507299,W,59.8,176.2,100310,,,A*4C
$GPRMC,043333.4,A,3256.136356,N,11714.503209,W,61.0,176.1,100310,,,A*40
$GPRMC,043336.4,A,3256.084453,N,11714.500429,W,62.2,177.3,100310,,,A*4A
$GPRMC,043339.4,A,3256.033739,N,11714.499460,W,61.4,179.2,100310,,,A*40
$GPRMC,043342.4,A,3255.983296,N,11714.499375,W,59.7,179.7,100310,,,A*43
$GPRMC,043345.4,A,3255.935558,N,11714.498941,W,57.1,179.6,100310,,,A*49
$GPRMC,043348.4,A,3255.889648,N,11714.497922,W,55.0,179.6,100310,,,A*49
$GPRMC,043351.4,A,3255.845439,N,11714.497052,W,52.9,177.9,100310,,,A*44
$GPRMC,043354.4,A,3255.803031,N,11714.492216,W,51.3,173.0,100310,,,A*4C
$GPRMC,043357.4,A,3255.759890,N,11714.482178,W,53.3,166.8,100310,,,A*48
$GPRMC,043400.4,A,3255.716403,N,11714.465426,W,55.0,161.5,100310,,,A*48
$GPRMC,043403.4,A,3255.671905,N,11714.447910,W,56.7,162.2,100310,,,A*48
$GPRMC,043406.4,A,3255.625199,N,11714.431412,W,58.3,163.1,100310,,,A*47
$GPRMC,043409.4,A,3255.577662,N,11714.415187,W,59.9,163.4,100310,,,A*4E
$GPRMC,043412.4,A,3255.530384,N,11714.397507,W,60.6,162.8,100310,,,A*43
$GPRMC,043415.4,A,3255.481721,N,11714.378447,W,60.2,163.0,100310,,,A*4D
$GPRMC,043418.4,A,3255.435467,N,11714.361729,W,57.0,163.2,100310,,,A*49
$GPRMC,043421.4,A,3255.391032,N,11714.345192,W,54.8,161.6,100310,,,A*43
$GPRMC,043424.4,A,3255.350835,N,11714.326445,W,52.9,158.1,100310,,,A*44
$GPRMC,043427.4,A,3255.311101,N,11714.307324,W,50.1,156.8,100310,,,A*42
$GPRMC,043430.4,A,3255.275795,N,11714.289556,W,45.8,157.3,100310,,,A*4F
$GPRMC,043433.4,A,3255.243296,N,11714.271771,W,42.2,155.4,100310,,,A*47
$GPRMC,043436.4,A,3255.214300,N,11714.255190,W,37.5,153.7,100310,,,A*41
$GPRMC,043439.4,A,3255.190847,N,11714.240463,W,31.7,150.8,100310,,,A*4C
$GPRMC,043442.4,A,3255.169842,N,11714.223545,W,31.2,146.2,100310,,,A*4B
$GPRMC,043445.4,A,3255.147565,N,11714.204374,W,32.9,143.5,100310,,,A*43
$GPRMC,043448.4,A,3255.124325,N,11714.184773,W,34.8,144.8,100310,,,A*4C
$GPRMC,043451.4,A,3255.102241,N,11714.165660,W,31.9,144.6,100310,,,A*45
$GPRMC,043454.4,A,3255.084558,N,11714.148032,W,26.4,142.2,100310,,,A*47
$GPRMC,043457.4,A,3255.071184,N,11714.135475,W,19.6,143.6,100310,,,A*4D
$GPRMC,043500.4,A,3255.062403,N,11714.127990,W,11.2,147.5,100310,,,A*48
$GPRMC,043503.4,A,3255.057670,N,11714.125071,W,5.8,151.6,100310,,,A*74
$GPRMC,043506.4,A,3255.054205,N,11714.123138,W,5.4,166.7,100310,,,A*77
$GPRMC,043509.4,A,3255.046868,N,11714.129213,W,12.3,226.9,100310,,,A*42
$GPRMC,043512.4,A,3255.039253,N,11714.143533,W,18.2,240.9,100310,,,A*40
$GPRMC,043515.4,A,3255.026579,N,11714.164386,W,24.8,235.9,100310,,,A*4C
$GPRMC,043518.4,A,3255.012466,N,11714.185939,W,26.5,234.7,100310,,,A*48
$GPRMC,043521.4,A,3255.001852,N,11714.206318,W,23.3,234.2,100310,,,A*4C
$GPRMC,043524.4,A,3254.991353,N,11714.222811,W,21.0,229.3,100310,,,A*4A
$GPRMC,043527.4,A,3254.984884,N,11714.230643,W,12.9,211.3,100310,,,A*44
$GPRMC,043530.4,A,3254.972105,N,11714.229813,W,15.0,160.0,100310,,,A*40
$GPRMC,043533.4,A,3254.958912,N,11714.216851,W,21.2,141.5,100310,,,A*4C
$GPRMC,043536.4,A,3254.942526,N,11714.200492,W,26.4,138.1,100310,,,A*46
$GPRMC,043539.4,A,3254.925375,N,11714.178703,W,30.5,128.7,100310,,,A*4E
$GPRMC,043542.4,A,3254.911496,N,11714.150045,W,34.2,118.9,100310,,,A*4E
$GPRMC,043545.4,A,3254.898100,N,11714.118696,W,35.6,115.9,100310,,,A*4F
$GPRMC,043548.4,A,3254.884028,N,11714.086606,W,34.7,116.1,100310,,,A*40
$GPRMC,043551.4,A,3254.870070,N,11714.057344,W,34.0,120.7,100310,,,A*45
$GPRMC,043554.4,A,3254.851966,N,11714.029029,W,35.7,130.0,100310,,,A*4C
$GPRMC,043557.4,A,3254.830641,N,11714.005399,W,35.9,139.5,100310,,,A*46
$GPRMC,043600.4,A,3254.806287,N,11713.982227,W,37.2,141.9,100310,,,A*43
$GPRMC,043603.4,A,3254.779363,N,11713.959642,W,38.1,143.7,100310,,,A*4D
$GPRMC,043606.4,A,3254.755751,N,11713.938086,W,36.7,143.0,100310,,,A*45
$GPRMC,043609.4,A,3254.730863,N,11713.916385,W,35.8,143.2,100310,,,A*45
$GPRMC,043612.4,A,3254.708134,N,11713.895831,W,34.4,142.6,100310,,,A*49
$GPRMC,043615.4,A,3254.685650,N,11713.874060,W,35.1,142.9,100310,,,A*47
$GPRMC,043618.4,A,3254.662727,N,11713.854061,W,35.0,143.2,100310,,,A*4A
$GPRMC,043621.4,A,3254.639548,N,11713.833361,W,35.0,143.1,100310,,,A*44
$GPRMC,043624.4,A,3254.617529,N,11713.812650,W,33.2,142.1,100310,,,A*4B
$GPRMC,043627.4,A,3254.595286,N,11713.792905,W,33.5,142.7,100310,,,A*4A
$GPRMC,043630.4,A,3254.572275,N,11713.772476,W,33.3,143.0,100310,,,A*4E
$GPRMC,043633.4,A,3254.550954,N,11713.753680,W,32.7,143.4,100310,,,A*4C
$GPRMC,043636.4,A,3254.530323,N,11713.734474,W,31.9,142.4,100310,,,A*41
$GPRMC,043639.4,A,3254.507250,N,11713.715971,W,32.9,147.0,100310,,,A*46
$GPRMC,043642.4,A,3254.482202,N,11713.701463,W,34.0,156.0,100310,,,A*45
$GPRMC,043645.4,A,3254.452681,N,11713.692665,W,35.1,168.5,100310,,,A*47
$GPRMC,043648.4,A,3254.423743,N,11713.686940,W,34.5,170.1,100310,,,A*46
$GPRMC,043651.4,A,3254.395904,N,11713.678928,W,35.4,163.0,100310,,,A*45
$GPRMC,043654.4,A,3254.367334,N,11713.665367,W,37.6,154.3,100310,,,A*4E
$GPRMC,043657.4,A,3254.340360,N,11713.644379,W,38.6,145.3,100310,,,A*4A
$GPRMC,043700.4,A,3254.315357,N,11713.621102,W,38.4,141.5,100310,,,A*40
$GPRMC,043703.4,A,3254.289951,N,11713.598557,W,37.4,143.4,100310,,,A*42
$GPRMC,043706.4,A,3254.266399,N,11713.578057,W,35.9,144.8,100310,,,A*47
$GPRMC,043709.4,A,3254.241929,N,11713.558223,W,35.3,143.4,100310,,,A*4E
$GPRMC,043712.4,A,3254.219536,N,11713.537598,W,33.6,141.7,100310,,,A*47
$GPRMC,043715.4,A,3254.198531,N,11713.517224,W,33.1,140.0,100310,,,A*4E
$GPRMC,043718.4,A,3254.175299,N,11713.496412,W,33.8,143.1,100310,,,A*45
$GPRMC,043721.4,A,3254.153127,N,11713.475165,W,34.4,140.8,100310,,,A*44
$GPRMC,043724.4,A,3254.132545,N,11713.454309,W,33.5,141.1,100310,,,A*43
$GPRMC,043727.4,A,3254.112939,N,11713.434731,W,30.6,139.9,100310,,,A*4B
$GPRMC,043730.4,A,3254.098201,N,11713.418668,W,23.8,135.2,100310,,,A*46
$GPRMC,043733.4,A,3254.091274,N,11713.410628,W,13.2,136.4,100310,,,A*4E
$GPRMC,043736.4,A,3254.087004,N,11713.405514,W,9.5,137.3,100310,,,A*7B
$GPRMC,043739.4,A,3254.081193,N,11713.397538,W,10.3,126.9,100310,,,A*4B
$GPRMC,043742.4,A,3254.079280,N,11713.385896,W,13.0,87.9,100310,,,A*71
$GPRMC,043745.4,A,3254.085333,N,11713.371705,W,17.3,61.0,100310,,,A*74
$GPRMC,043748.4,A,3254.097765,N,11713.354316,W,23.8,53.2,100310,,,A*73
$GPRMC,043751.4,A,3254.112174,N,11713.334562,W,26.2,48.9,100310,,,A*7C
$GPRMC,043754.4,A,3254.126170,N,11713.315287,W,25.0,47.6,100310,,,A*74
$GPRMC,043800.4,A,3254.141933,N,11713.297047,W,9.7,39.7,100310,,,A*40
$GPRMC,043803.4,A,3254.144609,N,11713.295533,W,5.2,36.8,100310,,,A*4D
$GPRMC,043833.4,A,3254.147356,N,11713.289813,W,4.5,33.8,100310,,,A*43
$GPRMC,043836.4,A,3254.153879,N,11713.284503,W,8.5,10.2,100310,,,A*43
$GPRMC,043839.4,A,3254.163341,N,11713.287282,W,9.8,352.0,100310,,,A*79
$GPRMC,043842.4,A,3254.177527,N,11713.298727,W,18.9,323.0,100310,,,A*45
$GPRMC,043845.4,A,3254.199532,N,11713.321765,W,29.5,319.5,100310,,,A*41
$GPRMC,043848.4,A,3254.221512,N,11713.343412,W,32.4,322.8,100310,,,A*47
$GPRMC,043851.4,A,3254.246065,N,11713.361772,W,32.8,326.1,100310,,,A*4F
$GPRMC,043854.4,A,3254.271480,N,11713.378944,W,33.9,332.3,100310,,,A*45
$GPRMC,043857.4,A,3254.297707,N,11713.393369,W,34.6,337.5,100310,,,A*49
$GPRMC,043900.4,A,3254.326424,N,11713.404439,W,35.8,343.6,100310,,,A*47
$GPRMC,043903.4,A,3254.358116,N,11713.412902,W,38.2,345.6,100310,,,A*4A
$GPRMC,043906.4,A,3254.391018,N,11713.422338,W,38.5,344.5,100310,,,A*40
$GPRMC,043909.4,A,3254.420105,N,11713.435321,W,37.7,338.5,100310,,,A*47
$GPRMC,043912.4,A,3254.449742,N,11713.451495,W,38.7,333.8,100310,,,A*44
$GPRMC,043915.4,A,3254.477525,N,11713.469778,W,37.8,329.1,100310,,,A*44
$GPRMC,043918.4,A,3254.503874,N,11713.489154,W,38.4,328.0,100310,,,A*47
$GPRMC,043921.4,A,3254.532272,N,11713.510251,W,39.7,328.7,100310,,,A*41
$GPRMC,043924.4,A,3254.561524,N,11713.531091,W,40.6,328.3,100310,,,A*40
$GPRMC,043927.4,A,3254.590248,N,11713.553379,W,41.9,328.7,100310,,,A*4B
$GPRMC,043930.4,A,3254.621039,N,11713.573578,W,42.7,331.7,100310,,,A*40
$GPRMC,043933.4,A,3254.653540,N,11713.593516,W,42.9,333.4,100310,,,A*44
$GPRMC,043936.4,A,3254.686301,N,11713.612922,W,43.6,334.4,100310,,,A*42
$GPRMC,043939.4,A,3254.718594,N,11713.630346,W,41.5,336.6,100310,,,A*48
$GPRMC,043942.4,A,3254.747994,N,11713.646231,W,38.5,337.0,100310,,,A*4B
$GPRMC,043945.4,A,3254.770941,N,11713.660562,W,34.4,335.7,100310,,,A*4D
