NMEA Sentence Code,UTC Time,Status,Latitude,Latitude Direction,Longitude,Longitude Direction,Speed (knots),Track Angle (degrees true),Date,MagneticVariation,Magnetic Variation Direction,[FAA Mode]-Optional,Checksum
$GPRMC,010740.000,A,3242.8993,N,11659.8412,W,5.42,252.03,200310,,,A*72
$GPRMC,010743.000,A,3242.8991,N,11659.8514,W,14.85,270.34,200310,,,A*4B
$GPRMC,010746.000,A,3242.8991,N,11659.8691,W,20.11,268.82,200310,,,A*4E
$GPRMC,010749.000,A,3242.8985,N,11659.8932,W,28.41,268.11,200310,,,A*45
$GPRMC,010752.000,A,3242.8982,N,11659.9256,W,35.57,268.92,200310,,,A*40
$GPRMC,010755.000,A,3242.8977,N,11659.9636,W,38.89,269.19,200310,,,A*43
$GPRMC,010758.000,A,3242.8974,N,11700.0029,W,39.48,269.21,200310,,,A*46
$GPRMC,010801.000,A,3242.8970,N,11700.0423,W,37.57,269.57,200310,,,A*4E
$GPRMC,010804.000,A,3242.8968,N,11700.0777,W,33.57,269.60,200310,,,A*40
$GPRMC,010807.000,A,3242.8966,N,11700.1113,W,33.84,269.21,200310,,,A*43
$GPRMC,010810.000,A,3242.8961,N,11700.1450,W,33.47,269.33,200310,,,A*4C
$GPRMC,010813.000,A,3242.8956,N,11700.1779,W,33.86,268.85,200310,,,A*42
$GPRMC,010816.000,A,3242.8952,N,11700.2124,W,36.65,269.00,200310,,,A*4A
$GPRMC,010819.000,A,3242.8949,N,11700.2494,W,38.48,269.27,200310,,,A*45
$GPRMC,010822.000,A,3242.8945,N,11700.2884,W,39.56,269.12,200310,,,A*44
$GPRMC,010825.000,A,3242.8940,N,11700.3278,W,38.37,269.22,200310,,,A*4B
$GPRMC,010828.000,A,3242.8938,N,11700.3651,W,35.34,269.75,200310,,,A*4A
$GPRMC,010831.000,A,3242.8938,N,11700.3994,W,33.55,269.80,200310,,,A*4F
$GPRMC,010834.000,A,3242.8936,N,11700.4335,W,34.70,269.50,200310,,,A*4F
$GPRMC,010837.000,A,3242.8933,N,11700.4670,W,33.58,269.90,200310,,,A*4C
$GPRMC,010840.000,A,3242.8930,N,11700.5009,W,34.41,269.88,200310,,,A*40
$GPRMC,010843.000,A,3242.8921,N,11700.5351,W,33.91,267.40,200310,,,A*4D
$GPRMC,010846.000,A,3242.8911,N,11700.5683,W,32.67,268.74,200310,,,A*41
$GPRMC,010849.000,A,3242.8904,N,11700.5996,W,31.47,268.46,200310,,,A*41
$GPRMC,010852.000,A,3242.8895,N,11700.6305,W,31.37,268.08,200310,,,A*4C
$GPRMC,010855.000,A,3242.8893,N,11700.6594,W,26.65,269.72,200310,,,A*4E
$GPRMC,010858.000,A,3242.8891,N,11700.6830,W,21.05,269.18,200310,,,A*4F
$GPRMC,010901.000,A,3242.8889,N,11700.6985,W,10.49,268.47,200310,,,A*45
$GPRMC,010919.000,A,3242.8887,N,11700.7080,W,9.30,269.00,200310,,,A*7B
$GPRMC,010922.000,A,3242.8887,N,11700.7205,W,15.57,269.92,200310,,,A*4B
$GPRMC,010925.000,A,3242.8886,N,11700.7398,W,22.39,269.19,200310,,,A*47
$GPRMC,010928.000,A,3242.8883,N,11700.7622,W,21.62,269.37,200310,,,A*4A
$GPRMC,010931.000,A,3242.8882,N,11700.7838,W,21.51,269.34,200310,,,A*45
$GPRMC,010934.000,A,3242.8881,N,11700.8064,W,23.45,269.64,200310,,,A*4F
$GPRMC,010937.000,A,3242.8881,N,11700.8304,W,25.01,270.15,200310,,,A*41
$GPRMC,010940.000,A,3242.8880,N,11700.8559,W,25.95,269.39,200310,,,A*45
$GPRMC,010943.000,A,3242.8878,N,11700.8797,W,22.38,269.57,200310,,,A*49
$GPRMC,010946.000,A,3242.8875,N,11700.9032,W,26.08,269.57,200310,,,A*4F
$GPRMC,010949.000,A,3242.8875,N,11700.9314,W,29.57,269.79,200310,,,A*4E
$GPRMC,010952.000,A,3242.8874,N,11700.9604,W,28.09,269.79,200310,,,A*4B
$GPRMC,010955.000,A,3242.8875,N,11700.9865,W,25.33,270.89,200310,,,A*47
$GPRMC,010958.000,A,3242.8886,N,11701.0123,W,27.05,275.62,200310,,,A*42
$GPRMC,011001.000,A,3242.8926,N,11701.0407,W,30.50,283.01,200310,,,A*44
$GPRMC,011004.000,A,3242.9005,N,11701.0705,W,32.29,290.94,200310,,,A*4B
$GPRMC,011007.000,A,3242.9129,N,11701.1001,W,34.02,300.26,200310,,,A*4B
$GPRMC,011010.000,A,3242.9296,N,11701.1294,W,36.46,307.82,200310,,,A*4F
$GPRMC,011013.000,A,3242.9511,N,11701.1571,W,39.04,316.42,200310,,,A*4D
$GPRMC,011016.000,A,3242.9774,N,11701.1826,W,41.12,322.18,200310,,,A*46
$GPRMC,011019.000,A,3243.0049,N,11701.2077,W,41.31,322.29,200310,,,A*44
$GPRMC,011022.000,A,3243.0327,N,11701.2332,W,42.43,321.82,200310,,,A*41
$GPRMC,011025.000,A,3243.0600,N,11701.2591,W,39.76,320.01,200310,,,A*49
$GPRMC,011028.000,A,3243.0848,N,11701.2848,W,39.24,315.27,200310,,,A*4A
$GPRMC,011031.000,A,3243.1022,N,11701.3157,W,36.32,292.95,200310,,,A*4E
$GPRMC,011034.000,A,3243.1100,N,11701.3490,W,34.26,281.69,200310,,,A*42
$GPRMC,011037.000,A,3243.1156,N,11701.3818,W,33.88,281.62,200310,,,A*46
$GPRMC,011040.000,A,3243.1203,N,11701.4145,W,33.42,276.12,200310,,,A*4A
$GPRMC,011043.000,A,3243.1196,N,11701.4461,W,29.47,262.23,200310,,,A*4C
$GPRMC,011046.000,A,3243.1143,N,11701.4734,W,27.42,253.25,200310,,,A*4D
$GPRMC,011049.000,A,3243.1057,N,11701.4975,W,23.76,242.86,200310,,,A*47
$GPRMC,011052.000,A,3243.0971,N,11701.5140,W,15.20,236.64,200310,,,A*47
$GPRMC,011055.000,A,3243.0913,N,11701.5236,W,9.88,235.86,200310,,,A*76
$GPRMC,011113.000,A,3243.0860,N,11701.5295,W,5.60,234.58,200310,,,A*71
$GPRMC,011116.000,A,3243.0816,N,11701.5366,W,11.98,234.16,200310,,,A*40
$GPRMC,011119.000,A,3243.0742,N,11701.5487,W,17.24,234.25,200310,,,A*48
$GPRMC,011122.000,A,3243.0645,N,11701.5644,W,22.01,234.28,200310,,,A*47
$GPRMC,011125.000,A,3243.0523,N,11701.5848,W,27.30,234.79,200310,,,A*42
$GPRMC,011128.000,A,3243.0378,N,11701.6083,W,29.82,234.46,200310,,,A*40
$GPRMC,011131.000,A,3243.0237,N,11701.6339,W,31.24,239.55,200310,,,A*4A
$GPRMC,011134.000,A,3243.0111,N,11701.6617,W,32.27,243.98,200310,,,A*4D
$GPRMC,011137.000,A,3242.9995,N,11701.6908,W,32.65,244.89,200310,,,A*42
$GPRMC,011140.000,A,3242.9877,N,11701.7205,W,32.40,244.68,200310,,,A*40
$GPRMC,011143.000,A,3242.9764,N,11701.7497,W,32.01,247.47,200310,,,A*48
$GPRMC,011146.000,A,3242.9681,N,11701.7770,W,28.12,251.62,200310,,,A*44
$GPRMC,011149.000,A,3242.9608,N,11701.8035,W,28.16,251.80,200310,,,A*4B
$GPRMC,011152.000,A,3242.9538,N,11701.8301,W,28.16,252.70,200310,,,A*49
$GPRMC,011155.000,A,3242.9467,N,11701.8568,W,28.33,252.15,200310,,,A*48
$GPRMC,011158.000,A,3242.9394,N,11701.8838,W,29.11,252.23,200310,,,A*42
$GPRMC,011201.000,A,3242.9318,N,11701.9129,W,31.26,252.53,200310,,,A*4B
$GPRMC,011204.000,A,3242.9237,N,11701.9431,W,32.13,252.69,200310,,,A*42
$GPRMC,011207.000,A,3242.9157,N,11701.9733,W,31.35,251.78,200310,,,A*41
$GPRMC,011210.000,A,3242.9060,N,11702.0015,W,30.02,240.30,200310,,,A*42
$GPRMC,011213.000,A,3242.8912,N,11702.0247,W,29.09,230.05,200310,,,A*4B
$GPRMC,011216.000,A,3242.8750,N,11702.0473,W,30.76,230.03,200310,,,A*41
$GPRMC,011219.000,A,3242.8583,N,11702.0714,W,31.95,231.69,200310,,,A*41
$GPRMC,011222.000,A,3242.8416,N,11702.0960,W,31.52,229.87,200310,,,A*4B
$GPRMC,011225.000,A,3242.8246,N,11702.1196,W,31.08,229.54,200310,,,A*4E
$GPRMC,011228.000,A,3242.8070,N,11702.1437,W,33.66,229.32,200310,,,A*40
$GPRMC,011231.000,A,3242.7882,N,11702.1700,W,34.88,230.22,200310,,,A*4B
$GPRMC,011234.000,A,3242.7698,N,11702.1980,W,37.11,234.77,200310,,,A*4A
$GPRMC,011237.000,A,3242.7527,N,11702.2285,W,36.28,237.25,200310,,,A*4C
$GPRMC,011240.000,A,3242.7383,N,11702.2594,W,35.22,246.18,200310,,,A*42
$GPRMC,011243.000,A,3242.7300,N,11702.2931,W,35.58,260.38,200310,,,A*42
$GPRMC,011246.000,A,3242.7280,N,11702.3288,W,36.02,268.52,200310,,,A*4E
$GPRMC,011249.000,A,3242.7281,N,11702.3646,W,35.90,269.32,200310,,,A*49
$GPRMC,011252.000,A,3242.7281,N,11702.4012,W,38.47,269.30,200310,,,A*46
$GPRMC,011255.000,A,3242.7279,N,11702.4401,W,40.29,269.48,200310,,,A*48
$GPRMC,011258.000,A,3242.7276,N,11702.4809,W,42.52,268.33,200310,,,A*4D
$GPRMC,011301.000,A,3242.7259,N,11702.5256,W,47.79,267.31,200310,,,A*4D
$GPRMC,011304.000,A,3242.7249,N,11702.5749,W,50.52,269.41,200310,,,A*44
$GPRMC,011307.000,A,3242.7249,N,11702.6253,W,49.50,269.73,200310,,,A*41
$GPRMC,011310.000,A,3242.7246,N,11702.6731,W,46.58,269.31,200310,,,A*48
$GPRMC,011313.000,A,3242.7250,N,11702.7150,W,38.20,271.41,200310,,,A*44
$GPRMC,011316.000,A,3242.7249,N,11702.7494,W,31.45,268.81,200310,,,A*4A
$GPRMC,011319.000,A,3242.7245,N,11702.7786,W,28.56,268.79,200310,,,A*44
$GPRMC,011322.000,A,3242.7243,N,11702.8061,W,27.13,269.42,200310,,,A*4C
$GPRMC,011325.000,A,3242.7241,N,11702.8307,W,24.56,269.02,200310,,,A*4C
$GPRMC,011328.000,A,3242.7239,N,11702.8547,W,23.30,269.42,200310,,,A*4F
$GPRMC,011331.000,A,3242.7237,N,11702.8760,W,21.44,268.89,200310,,,A*49
$GPRMC,011334.000,A,3242.7227,N,11702.8959,W,18.71,266.43,200310,,,A*4D
$GPRMC,011337.000,A,3242.7220,N,11702.9124,W,14.57,267.24,200310,,,A*42
$GPRMC,011340.000,A,3242.7216,N,11702.9227,W,6.79,268.79,200310,,,A*7F
$GPRMC,011443.000,A,3242.7217,N,11702.9306,W,8.90,269.65,200310,,,A*7D
$GPRMC,011446.000,A,3242.7219,N,11702.9448,W,18.77,272.55,200310,,,A*4A
$GPRMC,011449.000,A,3242.7210,N,11702.9656,W,22.20,258.71,200310,,,A*44
$GPRMC,011452.000,A,3242.7120,N,11702.9888,W,27.46,239.34,200310,,,A*40
$GPRMC,011455.000,A,3242.7016,N,11703.0123,W,22.64,245.09,200310,,,A*43
$GPRMC,011458.000,A,3242.6960,N,11703.0277,W,12.85,248.41,200310,,,A*48
$GPRMC,011501.000,A,3242.6925,N,11703.0392,W,12.92,250.79,200310,,,A*4A
$GPRMC,011504.000,A,3242.6885,N,11703.0553,W,21.30,255.44,200310,,,A*4C
$GPRMC,011507.000,A,3242.6840,N,11703.0791,W,27.29,259.16,200310,,,A*4F
$GPRMC,011510.000,A,3242.6802,N,11703.1074,W,29.92,261.47,200310,,,A*43
$GPRMC,011513.000,A,3242.6767,N,11703.1371,W,30.96,261.78,200310,,,A*4A
$GPRMC,011516.000,A,3242.6730,N,11703.1679,W,31.84,262.11,200310,,,A*4E
$GPRMC,011519.000,A,3242.6691,N,11703.2000,W,33.73,261.58,200310,,,A*44
$GPRMC,011522.000,A,3242.6649,N,11703.2339,W,35.30,261.40,200310,,,A*48
$GPRMC,011525.000,A,3242.6605,N,11703.2690,W,35.94,261.48,200310,,,A*47
$GPRMC,011528.000,A,3242.6564,N,11703.3032,W,32.73,261.60,200310,,,A*45
$GPRMC,011531.000,A,3242.6526,N,11703.3346,W,31.90,262.00,200310,,,A*40
$GPRMC,011534.000,A,3242.6490,N,11703.3656,W,31.04,261.88,200310,,,A*43
$GPRMC,011537.000,A,3242.6455,N,11703.3940,W,26.47,261.31,200310,,,A*42
$GPRMC,011540.000,A,3242.6425,N,11703.4179,W,21.40,261.30,200310,,,A*41
$GPRMC,011543.000,A,3242.6404,N,11703.4344,W,13.68,261.34,200310,,,A*42
$GPRMC,011546.000,A,3242.6392,N,11703.4443,W,6.08,260.96,200310,,,A*74
$GPRMC,011628.000,A,3242.6386,N,11703.4494,W,5.98,261.23,200310,,,A*75
$GPRMC,011631.000,A,3242.6375,N,11703.4585,W,11.29,261.32,200310,,,A*4F
$GPRMC,011634.000,A,3242.6359,N,11703.4711,W,15.49,261.43,200310,,,A*4F
$GPRMC,011637.000,A,3242.6334,N,11703.4914,W,24.38,261.94,200310,,,A*42
$GPRMC,011640.000,A,3242.6300,N,11703.5187,W,30.41,261.72,200310,,,A*45
$GPRMC,011643.000,A,3242.6261,N,11703.5502,W,32.76,261.88,200310,,,A*4A
$GPRMC,011646.000,A,3242.6222,N,11703.5832,W,33.67,261.73,200310,,,A*43
$GPRMC,011649.000,A,3242.6182,N,11703.6157,W,32.57,261.36,200310,,,A*4F
$GPRMC,011652.000,A,3242.6144,N,11703.6467,W,29.64,261.83,200310,,,A*4D
$GPRMC,011655.000,A,3242.6109,N,11703.6757,W,30.18,261.71,200310,,,A*4D
$GPRMC,011658.000,A,3242.6068,N,11703.7077,W,33.75,261.55,200310,,,A*4C
$GPRMC,011701.000,A,3242.6027,N,11703.7412,W,34.67,261.51,200310,,,A*4D
$GPRMC,011704.000,A,3242.5984,N,11703.7766,W,36.92,261.78,200310,,,A*48
$GPRMC,011707.000,A,3242.5941,N,11703.8127,W,37.09,261.73,200310,,,A*46
$GPRMC,011710.000,A,3242.5897,N,11703.8496,W,38.20,261.82,200310,,,A*4F
$GPRMC,011713.000,A,3242.5848,N,11703.8877,W,39.26,260.93,200310,,,A*4B
$GPRMC,011716.000,A,3242.5800,N,11703.9272,W,40.22,261.78,200310,,,A*42
$GPRMC,011719.000,A,3242.5754,N,11703.9649,W,35.81,261.93,200310,,,A*41
$GPRMC,011722.000,A,3242.5712,N,11703.9989,W,33.92,261.38,200310,,,A*4D
$GPRMC,011725.000,A,3242.5673,N,11704.0283,W,23.40,260.15,200310,,,A*43
$GPRMC,011728.000,A,3242.5653,N,11704.0431,W,9.36,260.62,200310,,,A*7A
$GPRMC,011731.000,A,3242.5645,N,11704.0493,W,4.61,260.32,200310,,,A*77
$GPRMC,011749.000,A,3242.5635,N,11704.0540,W,6.16,259.82,200310,,,A*73
$GPRMC,011752.000,A,3242.5624,N,11704.0635,W,13.26,262.79,200310,,,A*43
$GPRMC,011755.000,A,3242.5606,N,11704.0818,W,23.86,262.90,200310,,,A*4B
$GPRMC,011758.000,A,3242.5578,N,11704.1095,W,31.95,264.07,200310,,,A*49
$GPRMC,011801.000,A,3242.5547,N,11704.1444,W,36.95,263.26,200310,,,A*4D
$GPRMC,011804.000,A,3242.5514,N,11704.1810,W,36.19,265.11,200310,,,A*45
$GPRMC,011807.000,A,3242.5502,N,11704.2137,W,27.89,269.41,200310,,,A*4E
$GPRMC,011810.000,A,3242.5500,N,11704.2335,W,12.77,268.05,200310,,,A*4C
$GPRMC,011813.000,A,3242.5498,N,11704.2430,W,9.52,267.87,200310,,,A*75
$GPRMC,011816.000,A,3242.5494,N,11704.2555,W,15.65,265.58,200310,,,A*47
$GPRMC,011819.000,A,3242.5479,N,11704.2744,W,21.58,262.31,200310,,,A*48
$GPRMC,011822.000,A,3242.5444,N,11704.2978,W,26.89,257.60,200310,,,A*46
$GPRMC,011825.000,A,3242.5383,N,11704.3253,W,30.54,252.69,200310,,,A*45
$GPRMC,011828.000,A,3242.5300,N,11704.3550,W,32.37,249.81,200310,,,A*4C
$GPRMC,011831.000,A,3242.5205,N,11704.3847,W,31.46,249.69,200310,,,A*48
$GPRMC,011834.000,A,3242.5113,N,11704.4151,W,33.93,250.23,200310,,,A*4C
$GPRMC,011837.000,A,3242.5015,N,11704.4482,W,34.77,250.50,200310,,,A*4A
$GPRMC,011840.000,A,3242.4921,N,11704.4799,W,32.17,250.51,200310,,,A*4D
$GPRMC,011843.000,A,3242.4834,N,11704.5098,W,32.05,250.48,200310,,,A*47
$GPRMC,011846.000,A,3242.4742,N,11704.5392,W,30.58,248.93,200310,,,A*40
$GPRMC,011849.000,A,3242.4657,N,11704.5668,W,29.38,251.23,200310,,,A*47
$GPRMC,011852.000,A,3242.4586,N,11704.5935,W,27.45,253.41,200310,,,A*47
$GPRMC,011855.000,A,3242.4525,N,11704.6189,W,26.22,253.55,200310,,,A*40
$GPRMC,011858.000,A,3242.4468,N,11704.6430,W,24.61,254.23,200310,,,A*41
$GPRMC,011901.000,A,3242.4416,N,11704.6653,W,22.09,254.00,200310,,,A*4B
$GPRMC,011904.000,A,3242.4369,N,11704.6849,W,20.01,254.19,200310,,,A*46
$GPRMC,011907.000,A,3242.4322,N,11704.7046,W,21.85,253.94,200310,,,A*43
$GPRMC,011910.000,A,3242.4268,N,11704.7277,W,27.00,254.33,200310,,,A*4B
$GPRMC,011913.000,A,3242.4201,N,11704.7561,W,32.30,254.31,200310,,,A*42
$GPRMC,011916.000,A,3242.4128,N,11704.7874,W,33.10,254.71,200310,,,A*41
$GPRMC,011919.000,A,3242.4054,N,11704.8191,W,33.29,254.21,200310,,,A*46
$GPRMC,011922.000,A,3242.3978,N,11704.8509,W,33.12,254.01,200310,,,A*41
$GPRMC,011925.000,A,3242.3897,N,11704.8818,W,31.58,249.54,200310,,,A*4B
$GPRMC,011928.000,A,3242.3774,N,11704.9090,W,30.78,234.32,200310,,,A*44
$GPRMC,011931.000,A,3242.3613,N,11704.9332,W,31.69,230.59,200310,,,A*4F
$GPRMC,011934.000,A,3242.3439,N,11704.9582,W,33.47,231.36,200310,,,A*4B
$GPRMC,011937.000,A,3242.3271,N,11704.9854,W,34.19,238.91,200310,,,A*4C
$GPRMC,011940.000,A,3242.3137,N,11705.0153,W,33.53,244.06,200310,,,A*47
$GPRMC,011943.000,A,3242.3024,N,11705.0449,W,31.03,245.71,200310,,,A*4F
$GPRMC,011946.000,A,3242.2928,N,11705.0679,W,20.51,241.58,200310,,,A*47
$GPRMC,011949.000,A,3242.2871,N,11705.0806,W,9.58,241.58,200310,,,A*71
$GPRMC,012043.000,A,3242.2843,N,11705.0875,W,11.06,241.37,200310,,,A*4F
$GPRMC,012046.000,A,3242.2781,N,11705.1011,W,16.55,241.08,200310,,,A*4D
$GPRMC,012049.000,A,3242.2706,N,11705.1177,W,19.37,241.92,200310,,,A*44
$GPRMC,012052.000,A,3242.2625,N,11705.1363,W,22.61,244.76,200310,,,A*4D
$GPRMC,012055.000,A,3242.2551,N,11705.1598,W,26.72,253.33,200310,,,A*49
$GPRMC,012058.000,A,3242.2506,N,11705.1865,W,28.80,262.55,200310,,,A*48
$GPRMC,012101.000,A,3242.2495,N,11705.2164,W,30.91,269.68,200310,,,A*49
$GPRMC,012104.000,A,3242.2501,N,11705.2471,W,31.01,272.18,200310,,,A*44
$GPRMC,012107.000,A,3242.2522,N,11705.2780,W,31.27,275.04,200310,,,A*45
$GPRMC,012110.000,A,3242.2535,N,11705.3083,W,27.97,270.39,200310,,,A*47
$GPRMC,012113.000,A,3242.2535,N,11705.3303,W,16.98,269.03,200310,,,A*43
$GPRMC,012116.000,A,3242.2535,N,11705.3420,W,6.19,271.46,200310,,,A*70
$GPRMC,012149.000,A,3242.2533,N,11705.3492,W,9.08,270.27,200310,,,A*7C
$GPRMC,012152.000,A,3242.2533,N,11705.3638,W,19.54,269.92,200310,,,A*4A
$GPRMC,012155.000,A,3242.2534,N,11705.3866,W,24.56,269.65,200310,,,A*4B
$GPRMC,012158.000,A,3242.2534,N,11705.4130,W,27.85,270.22,200310,,,A*4D
$GPRMC,012201.000,A,3242.2536,N,11705.4415,W,28.95,270.32,200310,,,A*4D
$GPRMC,012204.000,A,3242.2536,N,11705.4711,W,30.16,269.59,200310,,,A*48
$GPRMC,012207.000,A,3242.2535,N,11705.5012,W,30.22,269.80,200310,,,A*4E
$GPRMC,012210.000,A,3242.2536,N,11705.5308,W,28.18,270.33,200310,,,A*43
$GPRMC,012213.000,A,3242.2539,N,11705.5562,W,23.77,271.46,200310,,,A*44
$GPRMC,012216.000,A,3242.2551,N,11705.5763,W,15.49,275.66,200310,,,A*42
$GPRMC,012219.000,A,3242.2555,N,11705.5860,W,5.21,270.50,200310,,,A*7A
$GPRMC,012231.000,A,3242.2555,N,11705.5962,W,10.32,269.91,200310,,,A*40
$GPRMC,012234.000,A,3242.2556,N,11705.6086,W,12.16,270.66,200310,,,A*42
$GPRMC,012237.000,A,3242.2576,N,11705.6172,W,8.81,315.62,200310,,,A*7A
$GPRMC,012240.000,A,3242.2675,N,11705.6183,W,16.12,2.56,200310,,,A*43
$GPRMC,012243.000,A,3242.2853,N,11705.6189,W,22.85,358.18,200310,,,A*4F
$GPRMC,012246.000,A,3242.3049,N,11705.6191,W,22.90,359.67,200310,,,A*4C
$GPRMC,012249.000,A,3242.3249,N,11705.6186,W,23.93,3.47,200310,,,A*4B
$GPRMC,012252.000,A,3242.3434,N,11705.6171,W,18.34,4.87,200310,,,A*4B
$GPRMC,012255.000,A,3242.3539,N,11705.6150,W,8.43,29.23,200310,,,A*43
$GPRMC,012258.000,A,3242.3568,N,11705.6076,W,9.63,87.42,200310,,,A*4F
$GPRMC,012301.000,A,3242.3568,N,11705.5973,W,10.95,90.06,200310,,,A*7A
$GPRMC,012304.000,A,3242.3567,N,11705.5851,W,12.24,88.83,200310,,,A*7D
$GPRMC,012307.000,A,3242.3564,N,11705.5749,W,7.25,103.22,200310,,,A*77
$GPRMC,012310.000,A,3242.3524,N,11705.5703,W,7.63,162.69,200310,,,A*71
$GPRMC,012313.000,A,3242.3436,N,11705.5699,W,13.14,179.68,200310,,,A*4C
$GPRMC,012316.000,A,3242.3300,N,11705.5699,W,16.09,178.51,200310,,,A*49
$GPRMC,012319.000,A,3242.3170,N,11705.5701,W,13.30,183.93,200310,,,A*46
$GPRMC,012325.000,A,3242.3067,N,11705.5704,W,4.91,175.57,200310,,,A*77
$GPRMC,012328.000,A,3242.2991,N,11705.5700,W,13.01,177.65,200310,,,A*43
$GPRMC,012331.000,A,3242.2864,N,11705.5699,W,16.24,179.61,200310,,,A*49
$GPRMC,012334.000,A,3242.2728,N,11705.5701,W,15.41,183.93,200310,,,A*43
$GPRMC,012337.000,A,3242.2626,N,11705.5712,W,8.91,185.82,200310,,,A*7A
$GPRMC,012358.000,A,3242.2549,N,11705.5742,W,6.32,235.62,200310,,,A*7D
$GPRMC,012401.000,A,3242.2535,N,11705.5814,W,9.05,266.64,200310,,,A*7A
$GPRMC,012404.000,A,3242.2535,N,11705.5905,W,8.00,270.76,200310,,,A*7E
$GPRMC,012455.000,A,3242.2537,N,11705.6027,W,8.22,269.37,200310,,,A*7F
$GPRMC,012458.000,A,3242.2548,N,11705.6148,W,14.70,279.63,200310,,,A*48
$GPRMC,012501.000,A,3242.2557,N,11705.6299,W,14.41,269.58,200310,,,A*4F
$GPRMC,012504.000,A,3242.2557,N,11705.6414,W,7.76,270.08,200310,,,A*72
$GPRMC,012516.000,A,3242.2561,N,11705.6557,W,5.30,293.46,200310,,,A*75
$GPRMC,012519.000,A,3242.2635,N,11705.6615,W,16.30,346.12,200310,,,A*47
$GPRMC,012522.000,A,3242.2821,N,11705.6685,W,28.48,341.62,200310,,,A*4F
$GPRMC,012525.000,A,3242.3076,N,11705.6822,W,36.51,331.13,200310,,,A*46
$GPRMC,012528.000,A,3242.3366,N,11705.7041,W,43.27,326.04,200310,,,A*46
$GPRMC,012531.000,A,3242.3683,N,11705.7298,W,47.02,325.89,200310,,,A*43
$GPRMC,012534.000,A,3242.4019,N,11705.7564,W,48.61,326.72,200310,,,A*4D
$GPRMC,012537.000,A,3242.4363,N,11705.7845,W,50.07,323.97,200310,,,A*49
$GPRMC,012540.000,A,3242.4691,N,11705.8152,W,48.98,319.76,200310,,,A*48
$GPRMC,012543.000,A,3242.4999,N,11705.8469,W,48.91,320.19,200310,,,A*4B
$GPRMC,012546.000,A,3242.5334,N,11705.8790,W,53.41,321.61,200310,,,A*4E
$GPRMC,012549.000,A,3242.5702,N,11705.9135,W,57.76,321.52,200310,,,A*48
$GPRMC,012552.000,A,3242.6092,N,11705.9513,W,61.21,319.67,200310,,,A*45
$GPRMC,012555.000,A,3242.6492,N,11705.9917,W,63.72,320.42,200310,,,A*47
$GPRMC,012558.000,A,3242.6913,N,11706.0318,W,64.97,321.25,200310,,,A*4D
$GPRMC,012601.000,A,3242.7335,N,11706.0699,W,61.92,325.21,200310,,,A*41
$GPRMC,012604.000,A,3242.7775,N,11706.1020,W,62.15,331.48,200310,,,A*47
$GPRMC,012607.000,A,3242.8249,N,11706.1281,W,63.03,337.94,200310,,,A*49
$GPRMC,012610.000,A,3242.8747,N,11706.1478,W,62.54,343.74,200310,,,A*4A
$GPRMC,012613.000,A,3242.9252,N,11706.1624,W,61.42,346.97,200310,,,A*4E
$GPRMC,012616.000,A,3242.9775,N,11706.1714,W,64.19,356.52,200310,,,A*4A
$GPRMC,012619.000,A,3243.0320,N,11706.1713,W,65.26,2.49,200310,,,A*4B
$GPRMC,012622.000,A,3243.0868,N,11706.1671,W,65.87,2.79,200310,,,A*49
$GPRMC,012625.000,A,3243.1414,N,11706.1643,W,63.62,1.25,200310,,,A*4E
$GPRMC,012628.000,A,3243.1940,N,11706.1609,W,63.62,3.18,200310,,,A*4D
$GPRMC,012631.000,A,3243.2452,N,11706.1563,W,61.73,3.44,200310,,,A*4C
$GPRMC,012634.000,A,3243.2963,N,11706.1522,W,60.55,3.71,200310,,,A*40
$GPRMC,012637.000,A,3243.3464,N,11706.1486,W,59.17,1.78,200310,,,A*40
$GPRMC,012640.000,A,3243.3959,N,11706.1498,W,58.92,355.76,200310,,,A*4C
$GPRMC,012643.000,A,3243.4441,N,11706.1569,W,57.58,350.39,200310,,,A*44
$GPRMC,012646.000,A,3243.4912,N,11706.1694,W,56.98,345.10,200310,,,A*49
$GPRMC,012649.000,A,3243.5361,N,11706.1871,W,55.44,339.47,200310,,,A*47
$GPRMC,012652.000,A,3243.5788,N,11706.2089,W,55.44,333.97,200310,,,A*45
$GPRMC,012655.000,A,3243.6188,N,11706.2353,W,53.80,328.63,200310,,,A*4C
$GPRMC,012658.000,A,3243.6558,N,11706.2651,W,54.10,323.96,200310,,,A*40
$GPRMC,012701.000,A,3243.6920,N,11706.3005,W,57.52,318.05,200310,,,A*4F
$GPRMC,012704.000,A,3243.7270,N,11706.3419,W,59.73,312.79,200310,,,A*40
$GPRMC,012707.000,A,3243.7589,N,11706.3872,W,60.05,307.13,200310,,,A*40
$GPRMC,012710.000,A,3243.7875,N,11706.4373,W,61.12,303.18,200310,,,A*4D
$GPRMC,012713.000,A,3243.8144,N,11706.4871,W,58.26,303.43,200310,,,A*40
$GPRMC,012716.000,A,3243.8408,N,11706.5356,W,57.43,303.30,200310,,,A*4F
$GPRMC,012719.000,A,3243.8668,N,11706.5838,W,57.88,302.95,200310,,,A*4E
$GPRMC,012722.000,A,3243.8924,N,11706.6309,W,54.91,303.38,200310,,,A*46
$GPRMC,012725.000,A,3243.9166,N,11706.6718,W,47.05,308.51,200310,,,A*41
$GPRMC,012728.000,A,3243.9429,N,11706.7055,W,47.11,316.14,200310,,,A*46
$GPRMC,012731.000,A,3243.9739,N,11706.7369,W,50.77,323.07,200310,,,A*42
$GPRMC,012734.000,A,3244.0113,N,11706.7653,W,55.31,330.63,200310,,,A*4C
$GPRMC,012737.000,A,3244.0542,N,11706.7897,W,58.36,336.75,200310,,,A*42
$GPRMC,012740.000,A,3244.1020,N,11706.8101,W,62.39,340.81,200310,,,A*47
$GPRMC,012743.000,A,3244.1529,N,11706.8306,W,65.44,340.65,200310,,,A*4A
$GPRMC,012746.000,A,3244.2051,N,11706.8518,W,65.88,341.04,200310,,,A*49
$GPRMC,012749.000,A,3244.2574,N,11706.8725,W,65.34,341.80,200310,,,A*43
$GPRMC,012752.000,A,3244.3086,N,11706.8924,W,63.32,339.68,200310,,,A*46
$GPRMC,012755.000,A,3244.3582,N,11706.9158,W,64.45,337.07,200310,,,A*42
$GPRMC,012758.000,A,3244.4077,N,11706.9422,W,65.10,334.46,200310,,,A*48
$GPRMC,012801.000,A,3244.4562,N,11706.9712,W,65.08,332.24,200310,,,A*41
$GPRMC,012804.000,A,3244.5035,N,11707.0025,W,64.85,329.86,200310,,,A*4F
$GPRMC,012807.000,A,3244.5495,N,11707.0358,W,64.18,327.49,200310,,,A*42
$GPRMC,012810.000,A,3244.5940,N,11707.0712,W,63.93,325.23,200310,,,A*41
$GPRMC,012813.000,A,3244.6377,N,11707.1079,W,64.45,324.92,200310,,,A*43
$GPRMC,012816.000,A,3244.6819,N,11707.1449,W,64.73,324.72,200310,,,A*49
$GPRMC,012819.000,A,3244.7257,N,11707.1817,W,63.47,324.64,200310,,,A*47
$GPRMC,012822.000,A,3244.7689,N,11707.2176,W,63.10,326.15,200310,,,A*43
$GPRMC,012825.000,A,3244.8119,N,11707.2534,W,63.04,324.68,200310,,,A*4A
$GPRMC,012828.000,A,3244.8555,N,11707.2901,W,64.45,324.77,200310,,,A*4D
$GPRMC,012831.000,A,3244.9000,N,11707.3263,W,64.83,327.57,200310,,,A*44
$GPRMC,012834.000,A,3244.9477,N,11707.3576,W,64.86,333.81,200310,,,A*4D
$GPRMC,012837.000,A,3244.9982,N,11707.3823,W,66.09,340.25,200310,,,A*4B
$GPRMC,012840.000,A,3245.0509,N,11707.4013,W,66.36,344.18,200310,,,A*46
$GPRMC,012843.000,A,3245.1043,N,11707.4193,W,65.90,343.98,200310,,,A*46
$GPRMC,012846.000,A,3245.1570,N,11707.4371,W,64.79,344.00,200310,,,A*48
$GPRMC,012849.000,A,3245.2084,N,11707.4544,W,64.04,343.93,200310,,,A*4D
$GPRMC,012852.000,A,3245.2598,N,11707.4723,W,64.22,343.68,200310,,,A*4C
$GPRMC,012855.000,A,3245.3116,N,11707.4900,W,64.64,343.95,200310,,,A*47
$GPRMC,012858.000,A,3245.3632,N,11707.5079,W,64.53,343.85,200310,,,A*48
$GPRMC,012901.000,A,3245.4141,N,11707.5252,W,61.88,343.68,200310,,,A*4A
$GPRMC,012904.000,A,3245.4637,N,11707.5421,W,61.45,343.72,200310,,,A*41
$GPRMC,012907.000,A,3245.5125,N,11707.5587,W,60.43,343.83,200310,,,A*43
$GPRMC,012910.000,A,3245.5607,N,11707.5751,W,59.39,344.12,200310,,,A*43
$GPRMC,012913.000,A,3245.6087,N,11707.5902,W,60.01,346.08,200310,,,A*4D
$GPRMC,012916.000,A,3245.6577,N,11707.6039,W,60.49,346.99,200310,,,A*44
$GPRMC,012919.000,A,3245.7071,N,11707.6173,W,61.22,346.85,200310,,,A*47
$GPRMC,012922.000,A,3245.7571,N,11707.6309,W,61.74,346.90,200310,,,A*42
$GPRMC,012925.000,A,3245.8077,N,11707.6451,W,63.91,346.59,200310,,,A*4F
$GPRMC,012928.000,A,3245.8598,N,11707.6619,W,65.48,343.54,200310,,,A*42
$GPRMC,012931.000,A,3245.9127,N,11707.6814,W,66.86,341.87,200310,,,A*45
$GPRMC,012934.000,A,3245.9660,N,11707.7035,W,68.01,339.88,200310,,,A*4F
$GPRMC,012937.000,A,3246.0192,N,11707.7280,W,68.31,337.98,200310,,,A*4C
$GPRMC,012940.000,A,3246.0718,N,11707.7545,W,68.47,335.92,200310,,,A*4F
$GPRMC,012943.000,A,3246.1238,N,11707.7834,W,68.92,333.75,200310,,,A*46
$GPRMC,012946.000,A,3246.1749,N,11707.8146,W,68.37,332.02,200310,,,A*4D
$GPRMC,012949.000,A,3246.2243,N,11707.8473,W,67.01,329.96,200310,,,A*40
$GPRMC,012952.000,A,3246.2721,N,11707.8812,W,66.48,328.60,200310,,,A*44
$GPRMC,012955.000,A,3246.3194,N,11707.9154,W,65.87,328.62,200310,,,A*42
$GPRMC,012958.000,A,3246.3662,N,11707.9496,W,65.86,328.37,200310,,,A*4B
$GPRMC,013001.000,A,3246.4131,N,11707.9839,W,65.98,328.35,200310,,,A*4D
$GPRMC,013004.000,A,3246.4602,N,11708.0184,W,67.03,328.52,200310,,,A*47
$GPRMC,013007.000,A,3246.5079,N,11708.0533,W,66.84,328.41,200310,,,A*4B
$GPRMC,013010.000,A,3246.5551,N,11708.0877,W,65.69,328.61,200310,,,A*4D
$GPRMC,013013.000,A,3246.6015,N,11708.1219,W,65.61,328.34,200310,,,A*43
$GPRMC,013016.000,A,3246.6478,N,11708.1558,W,64.63,328.46,200310,,,A*4D
$GPRMC,013019.000,A,3246.6932,N,11708.1889,W,63.16,328.50,200310,,,A*42
$GPRMC,013022.000,A,3246.7373,N,11708.2211,W,61.67,328.44,200310,,,A*4D
$GPRMC,013025.000,A,3246.7808,N,11708.2529,W,60.60,328.33,200310,,,A*47
$GPRMC,013028.000,A,3246.8226,N,11708.2849,W,59.22,325.84,200310,,,A*45
$GPRMC,013031.000,A,3246.8621,N,11708.3196,W,58.88,321.22,200310,,,A*4D
$GPRMC,013034.000,A,3246.8994,N,11708.3580,W,59.61,316.97,200310,,,A*46
$GPRMC,013037.000,A,3246.9345,N,11708.4001,W,60.25,312.72,200310,,,A*4C
$GPRMC,013040.000,A,3246.9672,N,11708.4455,W,60.73,308.60,200310,,,A*43
$GPRMC,013043.000,A,3246.9972,N,11708.4942,W,61.21,305.25,200310,,,A*4E
$GPRMC,013046.000,A,3247.0266,N,11708.5442,W,61.78,305.52,200310,,,A*4D
$GPRMC,013049.000,A,3247.0561,N,11708.5944,W,61.43,305.16,200310,,,A*41
$GPRMC,013052.000,A,3247.0853,N,11708.6440,W,61.40,305.40,200310,,,A*4D
$GPRMC,013055.000,A,3247.1162,N,11708.6937,W,63.22,308.76,200310,,,A*43
$GPRMC,013058.000,A,3247.1512,N,11708.7412,W,63.84,312.95,200310,,,A*4C
$GPRMC,013101.000,A,3247.1898,N,11708.7859,W,64.80,317.98,200310,,,A*46
$GPRMC,013104.000,A,3247.2311,N,11708.8263,W,63.56,322.74,200310,,,A*4E
$GPRMC,013107.000,A,3247.2746,N,11708.8620,W,62.54,327.45,200310,,,A*4C
$GPRMC,013110.000,A,3247.3191,N,11708.8921,W,59.92,331.74,200310,,,A*4E
$GPRMC,013113.000,A,3247.3636,N,11708.9173,W,58.67,336.27,200310,,,A*43
$GPRMC,013116.000,A,3247.4093,N,11708.9384,W,58.93,340.54,200310,,,A*4C
$GPRMC,013119.000,A,3247.4571,N,11708.9554,W,60.05,345.20,200310,,,A*43
$GPRMC,013122.000,A,3247.5062,N,11708.9682,W,60.32,349.68,200310,,,A*41
$GPRMC,013125.000,A,3247.5561,N,11708.9765,W,60.02,353.43,200310,,,A*49
$GPRMC,013128.000,A,3247.6063,N,11708.9804,W,59.92,358.34,200310,,,A*40
$GPRMC,013131.000,A,3247.6566,N,11708.9795,W,60.06,2.61,200310,,,A*44
$GPRMC,013134.000,A,3247.7072,N,11708.9752,W,61.17,4.51,200310,,,A*4F
$GPRMC,013137.000,A,3247.7591,N,11708.9701,W,63.08,4.08,200310,,,A*42
$GPRMC,013140.000,A,3247.8124,N,11708.9657,W,64.43,3.31,200310,,,A*40
$GPRMC,013143.000,A,3247.8669,N,11708.9625,W,65.89,1.49,200310,,,A*42
$GPRMC,013146.000,A,3247.9229,N,11708.9640,W,67.72,355.87,200310,,,A*43
$GPRMC,013149.000,A,3247.9799,N,11708.9731,W,69.45,349.93,200310,,,A*47
$GPRMC,013152.000,A,3248.0372,N,11708.9872,W,69.91,346.82,200310,,,A*44
$GPRMC,013155.000,A,3248.0942,N,11709.0030,W,68.45,347.27,200310,,,A*4A
$GPRMC,013158.000,A,3248.1485,N,11709.0176,W,64.40,347.29,200310,,,A*44
$GPRMC,013201.000,A,3248.2000,N,11709.0315,W,62.40,347.43,200310,,,A*4C
$GPRMC,013204.000,A,3248.2505,N,11709.0447,W,61.21,347.31,200310,,,A*48
$GPRMC,013207.000,A,3248.3002,N,11709.0582,W,60.51,347.41,200310,,,A*41
$GPRMC,013210.000,A,3248.3491,N,11709.0715,W,59.67,346.63,200310,,,A*4B
$GPRMC,013213.000,A,3248.3972,N,11709.0878,W,59.73,341.85,200310,,,A*46
$GPRMC,013216.000,A,3248.4439,N,11709.1084,W,59.79,337.70,200310,,,A*4D
$GPRMC,013219.000,A,3248.4894,N,11709.1333,W,60.39,333.06,200310,,,A*4D
$GPRMC,013222.000,A,3248.5331,N,11709.1618,W,58.92,330.54,200310,,,A*42
$GPRMC,013225.000,A,3248.5743,N,11709.1928,W,58.79,327.47,200310,,,A*49
$GPRMC,013228.000,A,3248.6141,N,11709.2286,W,60.07,322.04,200310,,,A*4F
$GPRMC,013231.000,A,3248.6520,N,11709.2680,W,59.07,321.01,200310,,,A*4A
$GPRMC,013234.000,A,3248.6902,N,11709.3065,W,59.57,320.53,200310,,,A*4C
$GPRMC,013237.000,A,3248.7288,N,11709.3448,W,60.03,320.81,200310,,,A*48
$GPRMC,013240.000,A,3248.7679,N,11709.3830,W,60.91,320.64,200310,,,A*41
$GPRMC,013243.000,A,3248.8076,N,11709.4220,W,62.14,320.66,200310,,,A*45
$GPRMC,013246.000,A,3248.8484,N,11709.4610,W,63.00,322.47,200310,,,A*4B
$GPRMC,013249.000,A,3248.8923,N,11709.4974,W,64.91,327.37,200310,,,A*44
$GPRMC,013252.000,A,3248.9403,N,11709.5304,W,67.60,331.95,200310,,,A*4E
$GPRMC,013255.000,A,3248.9914,N,11709.5603,W,67.49,333.83,200310,,,A*4E
$GPRMC,013258.000,A,3249.0419,N,11709.5893,W,65.25,334.13,200310,,,A*4A
$GPRMC,013301.000,A,3249.0905,N,11709.6173,W,64.14,334.04,200310,,,A*46
$GPRMC,013304.000,A,3249.1391,N,11709.6453,W,64.58,333.90,200310,,,A*40
$GPRMC,013307.000,A,3249.1889,N,11709.6743,W,67.19,333.94,200310,,,A*41
$GPRMC,013310.000,A,3249.2398,N,11709.7036,W,67.86,333.77,200310,,,A*40
$GPRMC,013313.000,A,3249.2904,N,11709.7329,W,67.50,333.86,200310,,,A*44
$GPRMC,013316.000,A,3249.3416,N,11709.7629,W,68.01,333.91,200310,,,A*46
$GPRMC,013319.000,A,3249.3925,N,11709.7922,W,66.64,333.99,200310,,,A*45
$GPRMC,013322.000,A,3249.4411,N,11709.8202,W,63.61,333.97,200310,,,A*48
$GPRMC,013325.000,A,3249.4893,N,11709.8482,W,65.12,333.73,200310,,,A*4F
$GPRMC,013328.000,A,3249.5382,N,11709.8772,W,66.75,333.33,200310,,,A*42
$GPRMC,013331.000,A,3249.5884,N,11709.9076,W,68.04,332.59,200310,,,A*40
$GPRMC,013334.000,A,3249.6387,N,11709.9385,W,67.91,332.65,200310,,,A*4D
$GPRMC,013337.000,A,3249.6883,N,11709.9689,W,66.26,332.69,200310,,,A*49
$GPRMC,013340.000,A,3249.7372,N,11709.9987,W,65.77,332.75,200310,,,A*46
$GPRMC,013343.000,A,3249.7860,N,11710.0284,W,65.89,332.80,200310,,,A*4F
$GPRMC,013346.000,A,3249.8348,N,11710.0582,W,65.73,332.76,200310,,,A*49
$GPRMC,013349.000,A,3249.8833,N,11710.0878,W,65.12,332.70,200310,,,A*48
$GPRMC,013352.000,A,3249.9309,N,11710.1170,W,63.36,332.63,200310,,,A*43
$GPRMC,013355.000,A,3249.9772,N,11710.1454,W,61.92,332.64,200310,,,A*44
$GPRMC,013358.000,A,3250.0227,N,11710.1727,W,59.91,332.72,200310,,,A*45
$GPRMC,013401.000,A,3250.0680,N,11710.2003,W,60.53,332.78,200310,,,A*4B
$GPRMC,013404.000,A,3250.1127,N,11710.2277,W,60.60,332.87,200310,,,A*44
$GPRMC,013407.000,A,3250.1578,N,11710.2551,W,60.54,332.79,200310,,,A*4C
$GPRMC,013410.000,A,3250.2029,N,11710.2828,W,60.82,332.55,200310,,,A*4E
$GPRMC,013413.000,A,3250.2482,N,11710.3106,W,61.37,332.84,200310,,,A*4F
$GPRMC,013416.000,A,3250.2939,N,11710.3387,W,62.11,332.60,200310,,,A*41
$GPRMC,013419.000,A,3250.3405,N,11710.3672,W,62.77,332.90,200310,,,A*4D
$GPRMC,013422.000,A,3250.3872,N,11710.3956,W,62.84,332.90,200310,,,A*4C
$GPRMC,013425.000,A,3250.4340,N,11710.4238,W,62.72,333.29,200310,,,A*48
$GPRMC,013428.000,A,3250.4809,N,11710.4520,W,62.81,333.04,200310,,,A*4E
$GPRMC,013431.000,A,3250.5278,N,11710.4803,W,63.32,333.00,200310,,,A*4A
$GPRMC,013434.000,A,3250.5755,N,11710.5090,W,64.48,333.24,200310,,,A*4A
$GPRMC,013437.000,A,3250.6236,N,11710.5381,W,65.20,333.17,200310,,,A*46
$GPRMC,013440.000,A,3250.6724,N,11710.5672,W,65.53,332.97,200310,,,A*44
$GPRMC,013443.000,A,3250.7213,N,11710.5966,W,66.00,333.41,200310,,,A*42
$GPRMC,013446.000,A,3250.7704,N,11710.6264,W,66.77,332.84,200310,,,A*46
$GPRMC,013449.000,A,3250.8197,N,11710.6564,W,66.27,332.75,200310,,,A*46
$GPRMC,013452.000,A,3250.8686,N,11710.6862,W,65.65,332.78,200310,,,A*48
$GPRMC,013455.000,A,3250.9168,N,11710.7159,W,65.02,332.57,200310,,,A*45
$GPRMC,013458.000,A,3250.9653,N,11710.7457,W,65.81,332.83,200310,,,A*4E
$GPRMC,013501.000,A,3251.0148,N,11710.7759,W,66.92,332.81,200310,,,A*48
$GPRMC,013504.000,A,3251.0650,N,11710.8065,W,67.73,332.78,200310,,,A*4C
$GPRMC,013507.000,A,3251.1152,N,11710.8373,W,67.81,332.65,200310,,,A*4E
$GPRMC,013510.000,A,3251.1659,N,11710.8681,W,68.42,332.79,200310,,,A*41
$GPRMC,013513.000,A,3251.2171,N,11710.8994,W,69.31,332.91,200310,,,A*44
$GPRMC,013516.000,A,3251.2689,N,11710.9311,W,69.86,332.71,200310,,,A*45
$GPRMC,013519.000,A,3251.3210,N,11710.9628,W,69.72,332.93,200310,,,A*47
$GPRMC,013522.000,A,3251.3719,N,11710.9939,W,67.40,332.66,200310,,,A*49
$GPRMC,013525.000,A,3251.4219,N,11711.0246,W,67.03,332.59,200310,,,A*4C
$GPRMC,013528.000,A,3251.4708,N,11711.0546,W,64.39,332.76,200310,,,A*44
$GPRMC,013531.000,A,3251.5175,N,11711.0831,W,62.00,332.85,200310,,,A*4C
$GPRMC,013534.000,A,3251.5630,N,11711.1111,W,61.70,331.90,200310,,,A*46
$GPRMC,013537.000,A,3251.6083,N,11711.1415,W,63.06,328.71,200310,,,A*4D
$GPRMC,013540.000,A,3251.6523,N,11711.1758,W,63.02,325.09,200310,,,A*4E
$GPRMC,013543.000,A,3251.6942,N,11711.2131,W,62.47,321.79,200310,,,A*4F
$GPRMC,013546.000,A,3251.7350,N,11711.2519,W,62.50,321.27,200310,,,A*41
$GPRMC,013549.000,A,3251.7757,N,11711.2909,W,62.83,321.28,200310,,,A*41
$GPRMC,013552.000,A,3251.8165,N,11711.3301,W,62.39,320.98,200310,,,A*4B
$GPRMC,013555.000,A,3251.8567,N,11711.3686,W,61.15,321.34,200310,,,A*4A
$GPRMC,013558.000,A,3251.8959,N,11711.4060,W,59.18,321.09,200310,,,A*47
$GPRMC,013601.000,A,3251.9339,N,11711.4425,W,57.96,321.05,200310,,,A*44
$GPRMC,013604.000,A,3251.9718,N,11711.4787,W,58.70,321.07,200310,,,A*48
$GPRMC,013607.000,A,3252.0105,N,11711.5158,W,60.38,321.15,200310,,,A*4A
$GPRMC,013610.000,A,3252.0503,N,11711.5539,W,61.80,321.33,200310,,,A*4B
$GPRMC,013613.000,A,3252.0907,N,11711.5923,W,61.94,321.13,200310,,,A*40
$GPRMC,013616.000,A,3252.1311,N,11711.6308,W,62.13,321.26,200310,,,A*43
$GPRMC,013619.000,A,3252.1717,N,11711.6696,W,62.77,321.05,200310,,,A*4F
$GPRMC,013622.000,A,3252.2130,N,11711.7094,W,63.74,321.28,200310,,,A*4F
$GPRMC,013625.000,A,3252.2544,N,11711.7489,W,63.24,321.06,200310,,,A*4E
$GPRMC,013628.000,A,3252.2952,N,11711.7880,W,62.18,321.37,200310,,,A*41
$GPRMC,013631.000,A,3252.3354,N,11711.8262,W,61.52,321.32,200310,,,A*45
$GPRMC,013634.000,A,3252.3767,N,11711.8628,W,61.92,325.36,200310,,,A*42
$GPRMC,013637.000,A,3252.4199,N,11711.8960,W,61.32,328.65,200310,,,A*43
$GPRMC,013640.000,A,3252.4644,N,11711.9257,W,60.75,332.11,200310,,,A*40
$GPRMC,013643.000,A,3252.5099,N,11711.9519,W,59.92,335.61,200310,,,A*4A
$GPRMC,013646.000,A,3252.5561,N,11711.9751,W,60.18,339.41,200310,,,A*45
$GPRMC,013649.000,A,3252.6036,N,11711.9940,W,59.42,342.75,200310,,,A*4E
$GPRMC,013652.000,A,3252.6510,N,11712.0092,W,58.85,346.09,200310,,,A*4C
$GPRMC,013655.000,A,3252.6995,N,11712.0230,W,59.87,345.91,200310,,,A*41
$GPRMC,013658.000,A,3252.7489,N,11712.0376,W,62.35,345.67,200310,,,A*46
$GPRMC,013701.000,A,3252.8002,N,11712.0529,W,63.59,345.74,200310,,,A*46
$GPRMC,013704.000,A,3252.8513,N,11712.0681,W,61.87,345.64,200310,,,A*47
$GPRMC,013707.000,A,3252.9010,N,11712.0828,W,60.48,345.82,200310,,,A*44
$GPRMC,013710.000,A,3252.9497,N,11712.0972,W,59.61,345.61,200310,,,A*4B
$GPRMC,013713.000,A,3252.9980,N,11712.1118,W,59.68,345.62,200310,,,A*4C
$GPRMC,013716.000,A,3253.0468,N,11712.1264,W,60.56,345.66,200310,,,A*41
$GPRMC,013719.000,A,3253.0967,N,11712.1414,W,62.33,345.90,200310,,,A*45
$GPRMC,013722.000,A,3253.1479,N,11712.1568,W,63.56,345.60,200310,,,A*49
$GPRMC,013725.000,A,3253.1990,N,11712.1746,W,64.31,341.03,200310,,,A*4D
$GPRMC,013728.000,A,3253.2493,N,11712.1983,W,64.71,335.94,200310,,,A*43
$GPRMC,013731.000,A,3253.2971,N,11712.2272,W,63.81,330.50,200310,,,A*49
$GPRMC,013734.000,A,3253.3419,N,11712.2606,W,62.69,325.33,200310,,,A*4F
$GPRMC,013737.000,A,3253.3835,N,11712.2983,W,62.79,319.89,200310,,,A*43
$GPRMC,013740.000,A,3253.4223,N,11712.3406,W,62.78,315.24,200310,,,A*42
$GPRMC,013743.000,A,3253.4573,N,11712.3870,W,62.39,309.79,200310,,,A*4E
$GPRMC,013746.000,A,3253.4884,N,11712.4363,W,61.53,304.76,200310,,,A*4D
$GPRMC,013749.000,A,3253.5155,N,11712.4878,W,60.82,299.97,200310,,,A*40
$GPRMC,013752.000,A,3253.5382,N,11712.5410,W,59.16,295.19,200310,,,A*4C
$GPRMC,013755.000,A,3253.5582,N,11712.5943,W,58.17,294.73,200310,,,A*4B
$GPRMC,013758.000,A,3253.5783,N,11712.6472,W,58.95,295.00,200310,,,A*46
$GPRMC,013801.000,A,3253.6006,N,11712.7011,W,61.79,297.95,200310,,,A*4A
$GPRMC,013804.000,A,3253.6270,N,11712.7552,W,63.61,302.13,200310,,,A*46
$GPRMC,013807.000,A,3253.6564,N,11712.8068,W,61.62,305.72,200310,,,A*45
$GPRMC,013810.000,A,3253.6872,N,11712.8548,W,60.34,308.86,200310,,,A*4A
$GPRMC,013813.000,A,3253.7207,N,11712.9004,W,61.55,312.99,200310,,,A*4F
$GPRMC,013816.000,A,3253.7569,N,11712.9440,W,62.24,316.12,200310,,,A*43
$GPRMC,013819.000,A,3253.7965,N,11712.9852,W,63.05,320.15,200310,,,A*43
$GPRMC,013822.000,A,3253.8376,N,11713.0233,W,62.41,322.69,200310,,,A*41
$GPRMC,013825.000,A,3253.8791,N,11713.0607,W,61.94,322.30,200310,,,A*4F
$GPRMC,013828.000,A,3253.9201,N,11713.0982,W,61.47,322.17,200310,,,A*46
$GPRMC,013831.000,A,3253.9606,N,11713.1353,W,61.27,321.95,200310,,,A*45
$GPRMC,013834.000,A,3254.0007,N,11713.1729,W,60.90,321.25,200310,,,A*46
$GPRMC,013837.000,A,3254.0403,N,11713.2107,W,60.72,320.92,200310,,,A*4D
$GPRMC,013840.000,A,3254.0795,N,11713.2490,W,60.74,320.31,200310,,,A*45
$GPRMC,013843.000,A,3254.1187,N,11713.2877,W,61.14,319.67,200310,,,A*49
$GPRMC,013846.000,A,3254.1575,N,11713.3266,W,60.61,319.53,200310,,,A*4A
$GPRMC,013849.000,A,3254.1957,N,11713.3653,W,59.65,319.09,200310,,,A*4A
$GPRMC,013852.000,A,3254.2336,N,11713.4036,W,59.42,320.08,200310,,,A*42
$GPRMC,013855.000,A,3254.2722,N,11713.4403,W,59.53,322.12,200310,,,A*4F
$GPRMC,013858.000,A,3254.3140,N,11713.4716,W,58.49,330.12,200310,,,A*4F
$GPRMC,013901.000,A,3254.3578,N,11713.4971,W,58.59,333.18,200310,,,A*4A
$GPRMC,013904.000,A,3254.4018,N,11713.5237,W,59.72,332.68,200310,,,A*4D
$GPRMC,013907.000,A,3254.4465,N,11713.5507,W,60.45,332.94,200310,,,A*49
$GPRMC,013910.000,A,3254.4916,N,11713.5778,W,60.70,332.87,200310,,,A*48
$GPRMC,013913.000,A,3254.5370,N,11713.6053,W,61.15,332.74,200310,,,A*43
$GPRMC,013916.000,A,3254.5825,N,11713.6328,W,61.29,333.25,200310,,,A*48
$GPRMC,013919.000,A,3254.6291,N,11713.6601,W,63.02,333.95,200310,,,A*4F
$GPRMC,013922.000,A,3254.6770,N,11713.6875,W,63.98,334.41,200310,,,A*4D
$GPRMC,013925.000,A,3254.7255,N,11713.7153,W,64.25,334.07,200310,,,A*46
$GPRMC,013928.000,A,3254.7727,N,11713.7432,W,62.23,332.84,200310,,,A*44
$GPRMC,013931.000,A,3254.8182,N,11713.7715,W,61.08,332.29,200310,,,A*41
$GPRMC,013934.000,A,3254.8622,N,11713.8007,W,60.03,328.20,200310,,,A*4A
$GPRMC,013937.000,A,3254.9031,N,11713.8355,W,60.82,321.84,200310,,,A*46
$GPRMC,013940.000,A,3254.9418,N,11713.8754,W,61.45,316.23,200310,,,A*4F
$GPRMC,013943.000,A,3254.9764,N,11713.9200,W,61.11,310.30,200310,,,A*44
$GPRMC,013946.000,A,3255.0082,N,11713.9672,W,60.76,308.67,200310,,,A*4C
$GPRMC,013949.000,A,3255.0401,N,11714.0149,W,61.74,309.16,200310,,,A*49
$GPRMC,013952.000,A,3255.0738,N,11714.0613,W,61.85,313.05,200310,,,A*45
$GPRMC,013955.000,A,3255.1100,N,11714.1051,W,62.04,316.20,200310,,,A*47
$GPRMC,013958.000,A,3255.1485,N,11714.1457,W,61.32,320.01,200310,,,A*40
$GPRMC,014001.000,A,3255.1892,N,11714.1836,W,62.37,323.56,200310,,,A*44
$GPRMC,014004.000,A,3255.2327,N,11714.2190,W,63.92,327.38,200310,,,A*43
$GPRMC,014007.000,A,3255.2790,N,11714.2513,W,64.24,331.38,200310,,,A*4A
$GPRMC,014010.000,A,3255.3269,N,11714.2799,W,63.60,334.78,200310,,,A*48
$GPRMC,014013.000,A,3255.3746,N,11714.3041,W,60.38,338.44,200310,,,A*4D
$GPRMC,014016.000,A,3255.4216,N,11714.3238,W,58.73,342.20,200310,,,A*48
$GPRMC,014019.000,A,3255.4692,N,11714.3400,W,59.98,344.44,200310,,,A*42
$GPRMC,014022.000,A,3255.5185,N,11714.3560,W,61.85,344.32,200310,,,A*4B
$GPRMC,014025.000,A,3255.5691,N,11714.3727,W,63.48,344.26,200310,,,A*49
$GPRMC,014028.000,A,3255.6201,N,11714.3894,W,62.69,344.30,200310,,,A*48
$GPRMC,014031.000,A,3255.6703,N,11714.4060,W,61.96,344.36,200310,,,A*46
$GPRMC,014034.000,A,3255.7201,N,11714.4216,W,61.18,346.14,200310,,,A*42
$GPRMC,014037.000,A,3255.7697,N,11714.4349,W,60.49,347.80,200310,,,A*48
$GPRMC,014040.000,A,3255.8191,N,11714.4463,W,59.98,349.99,200310,,,A*49
$GPRMC,014043.000,A,3255.8681,N,11714.4556,W,58.10,351.40,200310,,,A*47
$GPRMC,014046.000,A,3255.9153,N,11714.4630,W,56.67,353.51,200310,,,A*44
$GPRMC,014049.000,A,3255.9617,N,11714.4685,W,55.53,355.21,200310,,,A*47
$GPRMC,014052.000,A,3256.0081,N,11714.4723,W,56.09,356.38,200310,,,A*44
$GPRMC,014055.000,A,3256.0551,N,11714.4755,W,56.60,356.49,200310,,,A*43
$GPRMC,014058.000,A,3256.1030,N,11714.4789,W,58.19,356.45,200310,,,A*40
$GPRMC,014101.000,A,3256.1520,N,11714.4823,W,58.86,356.54,200310,,,A*40
$GPRMC,014104.000,A,3256.2010,N,11714.4856,W,58.73,356.82,200310,,,A*43
$GPRMC,014107.000,A,3256.2497,N,11714.4890,W,57.76,356.32,200310,,,A*40
$GPRMC,014110.000,A,3256.2978,N,11714.4925,W,57.79,356.26,200310,,,A*4F
$GPRMC,014113.000,A,3256.3463,N,11714.4970,W,58.49,354.57,200310,,,A*42
$GPRMC,014116.000,A,3256.3952,N,11714.5032,W,59.16,353.25,200310,,,A*4F
$GPRMC,014119.000,A,3256.4444,N,11714.5112,W,59.56,351.39,200310,,,A*45
$GPRMC,014122.000,A,3256.4935,N,11714.5203,W,59.52,351.27,200310,,,A*4E
$GPRMC,014125.000,A,3256.5430,N,11714.5295,W,60.11,351.07,200310,,,A*40
$GPRMC,014128.000,A,3256.5928,N,11714.5390,W,60.62,350.85,200310,,,A*42
$GPRMC,014131.000,A,3256.6430,N,11714.5485,W,60.64,351.11,200310,,,A*44
$GPRMC,014134.000,A,3256.6929,N,11714.5579,W,60.49,350.96,200310,,,A*47
$GPRMC,014137.000,A,3256.7429,N,11714.5672,W,60.05,351.18,200310,,,A*4F
$GPRMC,014140.000,A,3256.7926,N,11714.5766,W,60.50,350.99,200310,,,A*41
$GPRMC,014143.000,A,3256.8421,N,11714.5859,W,59.13,351.08,200310,,,A*40
$GPRMC,014146.000,A,3256.8911,N,11714.5951,W,59.48,351.10,200310,,,A*45
$GPRMC,014149.000,A,3256.9405,N,11714.6043,W,59.99,351.23,200310,,,A*46
$GPRMC,014152.000,A,3256.9902,N,11714.6133,W,60.52,351.50,200310,,,A*49
$GPRMC,014155.000,A,3257.0409,N,11714.6219,W,61.32,350.90,200310,,,A*41
$GPRMC,014158.000,A,3257.0917,N,11714.6318,W,61.51,350.97,200310,,,A*4C
$GPRMC,014201.000,A,3257.1425,N,11714.6414,W,61.49,351.35,200310,,,A*45
$GPRMC,014204.000,A,3257.1937,N,11714.6511,W,62.81,350.94,200310,,,A*47
$GPRMC,014207.000,A,3257.2459,N,11714.6611,W,63.28,350.93,200310,,,A*44
$GPRMC,014210.000,A,3257.2979,N,11714.6709,W,62.31,351.25,200310,,,A*40
$GPRMC,014213.000,A,3257.3476,N,11714.6802,W,58.68,351.11,200310,,,A*46
$GPRMC,014216.000,A,3257.3954,N,11714.6893,W,57.35,350.93,200310,,,A*4A
$GPRMC,014219.000,A,3257.4425,N,11714.6982,W,56.75,351.22,200310,,,A*46
$GPRMC,014222.000,A,3257.4890,N,11714.7072,W,56.10,350.52,200310,,,A*4E
$GPRMC,014225.000,A,3257.5348,N,11714.7166,W,55.07,349.59,200310,,,A*44
$GPRMC,014228.000,A,3257.5796,N,11714.7273,W,54.62,347.91,200310,,,A*41
$GPRMC,014231.000,A,3257.6238,N,11714.7396,W,54.30,346.23,200310,,,A*4E
$GPRMC,014234.000,A,3257.6675,N,11714.7531,W,53.78,344.62,200310,,,A*41
$GPRMC,014237.000,A,3257.7082,N,11714.7673,W,47.41,343.17,200310,,,A*42
$GPRMC,014240.000,A,3257.7445,N,11714.7809,W,42.41,342.50,200310,,,A*49
$GPRMC,014243.000,A,3257.7751,N,11714.7926,W,37.25,342.25,200310,,,A*42
$GPRMC,014246.000,A,3257.8029,N,11714.8033,W,32.64,342.68,200310,,,A*4B
$GPRMC,014249.000,A,3257.8286,N,11714.8130,W,32.64,342.36,200310,,,A*4A
$GPRMC,014252.000,A,3257.8547,N,11714.8230,W,33.70,342.76,200310,,,A*49
$GPRMC,014255.000,A,3257.8810,N,11714.8329,W,31.87,342.32,200310,,,A*42
$GPRMC,014258.000,A,3257.9056,N,11714.8424,W,30.93,342.43,200310,,,A*4C
$GPRMC,014301.000,A,3257.9300,N,11714.8517,W,30.97,342.36,200310,,,A*46
$GPRMC,014304.000,A,3257.9550,N,11714.8611,W,32.32,342.58,200310,,,A*40
$GPRMC,014307.000,A,3257.9819,N,11714.8713,W,35.30,342.44,200310,,,A*48
$GPRMC,014310.000,A,3258.0117,N,11714.8825,W,39.58,342.55,200310,,,A*47
$GPRMC,014313.000,A,3258.0457,N,11714.8955,W,46.03,342.26,200310,,,A*41
$GPRMC,014316.000,A,3258.0850,N,11714.9105,W,51.84,342.26,200310,,,A*4A
$GPRMC,014319.000,A,3258.1255,N,11714.9258,W,47.56,342.58,200310,,,A*41
$GPRMC,014322.000,A,3258.1585,N,11714.9382,W,36.31,342.24,200310,,,A*49
$GPRMC,014325.000,A,3258.1868,N,11714.9490,W,35.36,342.14,200310,,,A*43
$GPRMC,014328.000,A,3258.2139,N,11714.9595,W,31.59,342.67,200310,,,A*4D
$GPRMC,014331.000,A,3258.2371,N,11714.9683,W,28.34,342.25,200310,,,A*4A
$GPRMC,014334.000,A,3258.2591,N,11714.9767,W,27.75,342.78,200310,,,A*4E
$GPRMC,014337.000,A,3258.2818,N,11714.9851,W,29.57,342.55,200310,,,A*4A
$GPRMC,014340.000,A,3258.3053,N,11714.9940,W,29.59,342.65,200310,,,A*40
$GPRMC,014343.000,A,3258.3293,N,11715.0031,W,30.82,342.37,200310,,,A*43
$GPRMC,014346.000,A,3258.3560,N,11715.0132,W,36.42,342.46,200310,,,A*43
$GPRMC,014349.000,A,3258.3876,N,11715.0251,W,42.67,342.80,200310,,,A*4E
$GPRMC,014352.000,A,3258.4238,N,11715.0386,W,46.93,342.49,200310,,,A*42
$GPRMC,014355.000,A,3258.4620,N,11715.0531,W,48.36,342.27,200310,,,A*4B
$GPRMC,014358.000,A,3258.5010,N,11715.0679,W,49.26,342.49,200310,,,A*45
$GPRMC,014401.000,A,3258.5406,N,11715.0829,W,49.47,342.38,200310,,,A*47
$GPRMC,014404.000,A,3258.5798,N,11715.0977,W,48.50,342.46,200310,,,A*42
$GPRMC,014407.000,A,3258.6177,N,11715.1119,W,46.23,342.55,200310,,,A*4C
$GPRMC,014410.000,A,3258.6516,N,11715.1246,W,39.59,342.35,200310,,,A*43
$GPRMC,014413.000,A,3258.6840,N,11715.1372,W,43.02,342.43,200310,,,A*4A
$GPRMC,014416.000,A,3258.7200,N,11715.1507,W,45.90,342.67,200310,,,A*4F
$GPRMC,014419.000,A,3258.7556,N,11715.1639,W,42.95,342.47,200310,,,A*4A
$GPRMC,014422.000,A,3258.7885,N,11715.1763,W,39.71,342.48,200310,,,A*46
$GPRMC,014425.000,A,3258.8198,N,11715.1881,W,39.60,342.26,200310,,,A*40
$GPRMC,014428.000,A,3258.8522,N,11715.2005,W,41.42,342.28,200310,,,A*4E
$GPRMC,014431.000,A,3258.8853,N,11715.2129,W,41.11,342.55,200310,,,A*4E
$GPRMC,014434.000,A,3258.9168,N,11715.2248,W,37.82,342.53,200310,,,A*42
$GPRMC,014437.000,A,3258.9458,N,11715.2357,W,36.45,342.42,200310,,,A*42
$GPRMC,014440.000,A,3258.9760,N,11715.2471,W,39.10,342.67,200310,,,A*41
$GPRMC,014443.000,A,3259.0074,N,11715.2587,W,40.21,342.64,200310,,,A*4F
$GPRMC,014446.000,A,3259.0407,N,11715.2708,W,42.47,344.50,200310,,,A*4C
$GPRMC,014449.000,A,3259.0748,N,11715.2808,W,41.66,347.30,200310,,,A*41
$GPRMC,014452.000,A,3259.1093,N,11715.2887,W,42.77,350.48,200310,,,A*46
$GPRMC,014455.000,A,3259.1460,N,11715.2947,W,46.20,352.35,200310,,,A*4A
$GPRMC,014458.000,A,3259.1856,N,11715.3004,W,47.88,353.32,200310,,,A*44
$GPRMC,014501.000,A,3259.2246,N,11715.3063,W,46.16,352.29,200310,,,A*4D
$GPRMC,014504.000,A,3259.2615,N,11715.3121,W,42.81,352.48,200310,,,A*40
$GPRMC,014507.000,A,3259.2966,N,11715.3177,W,42.67,352.43,200310,,,A*48
$GPRMC,014510.000,A,3259.3335,N,11715.3232,W,46.68,352.70,200310,,,A*4A
$GPRMC,014513.000,A,3259.3729,N,11715.3295,W,47.32,352.25,200310,,,A*43
$GPRMC,014516.000,A,3259.4121,N,11715.3361,W,47.26,351.74,200310,,,A*47
$GPRMC,014519.000,A,3259.4508,N,11715.3426,W,46.18,352.60,200310,,,A*49
$GPRMC,014522.000,A,3259.4887,N,11715.3485,W,45.64,352.55,200310,,,A*4C
$GPRMC,014525.000,A,3259.5268,N,11715.3545,W,45.93,352.60,200310,,,A*42
$GPRMC,014528.000,A,3259.5650,N,11715.3605,W,45.99,352.47,200310,,,A*48
$GPRMC,014531.000,A,3259.6023,N,11715.3664,W,44.02,352.22,200310,,,A*46
$GPRMC,014534.000,A,3259.6358,N,11715.3718,W,38.09,352.27,200310,,,A*43
$GPRMC,014537.000,A,3259.6663,N,11715.3766,W,36.20,352.49,200310,,,A*49
$GPRMC,014540.000,A,3259.6960,N,11715.3812,W,35.57,352.61,200310,,,A*40
$GPRMC,014543.000,A,3259.7250,N,11715.3859,W,34.81,352.43,200310,,,A*4F
$GPRMC,014546.000,A,3259.7534,N,11715.3904,W,34.22,352.45,200310,,,A*49
$GPRMC,014549.000,A,3259.7805,N,11715.3946,W,30.75,352.42,200310,,,A*4E
$GPRMC,014552.000,A,3259.8054,N,11715.3986,W,31.03,352.42,200310,,,A*4B
$GPRMC,014555.000,A,3259.8306,N,11715.4026,W,29.69,352.49,200310,,,A*42
$GPRMC,014558.000,A,3259.8543,N,11715.4063,W,27.88,352.52,200310,,,A*42
$GPRMC,014601.000,A,3259.8766,N,11715.4098,W,26.58,352.69,200310,,,A*48
$GPRMC,014604.000,A,3259.8984,N,11715.4133,W,25.96,352.67,200310,,,A*40
$GPRMC,014607.000,A,3259.9191,N,11715.4166,W,24.17,352.31,200310,,,A*45
$GPRMC,014610.000,A,3259.9382,N,11715.4197,W,22.51,352.61,200310,,,A*4C
$GPRMC,014613.000,A,3259.9575,N,11715.4227,W,23.84,352.70,200310,,,A*40
$GPRMC,014616.000,A,3259.9777,N,11715.4258,W,25.42,352.66,200310,,,A*46
$GPRMC,014619.000,A,3259.9988,N,11715.4292,W,24.94,352.51,200310,,,A*4F
$GPRMC,014622.000,A,3300.0188,N,11715.4324,W,23.53,352.55,200310,,,A*4F
$GPRMC,014625.000,A,3300.0356,N,11715.4350,W,17.50,352.61,200310,,,A*49
$GPRMC,014628.000,A,3300.0488,N,11715.4371,W,13.86,353.14,200310,,,A*4F
$GPRMC,014631.000,A,3300.0572,N,11715.4384,W,7.83,352.68,200310,,,A*73
$GPRMC,014634.000,A,3300.0624,N,11715.4392,W,5.40,353.17,200310,,,A*75
$GPRMC,014637.000,A,3300.0663,N,11715.4398,W,4.39,353.12,200310,,,A*75
$GPRMC,014728.000,A,3300.0993,N,11715.4448,W,9.00,352.76,200310,,,A*74
$GPRMC,014731.000,A,3300.1102,N,11715.4466,W,16.55,352.74,200310,,,A*4D
$GPRMC,014734.000,A,3300.1257,N,11715.4492,W,20.26,351.38,200310,,,A*4A
$GPRMC,014737.000,A,3300.1424,N,11715.4527,W,20.47,349.66,200310,,,A*41
$GPRMC,014740.000,A,3300.1602,N,11715.4571,W,22.17,346.83,200310,,,A*47
$GPRMC,014743.000,A,3300.1809,N,11715.4633,W,27.80,345.41,200310,,,A*42
$GPRMC,014746.000,A,3300.2035,N,11715.4713,W,27.79,341.76,200310,,,A*46
$GPRMC,014749.000,A,3300.2239,N,11715.4797,W,23.96,339.73,200310,,,A*44
$GPRMC,014752.000,A,3300.2426,N,11715.4886,W,23.94,337.55,200310,,,A*41
$GPRMC,014755.000,A,3300.2610,N,11715.4984,W,24.00,334.94,200310,,,A*46
$GPRMC,014758.000,A,3300.2791,N,11715.5091,W,24.03,333.21,200310,,,A*45
$GPRMC,014801.000,A,3300.2970,N,11715.5205,W,24.27,330.60,200310,,,A*48
$GPRMC,014804.000,A,3300.3145,N,11715.5331,W,24.40,327.69,200310,,,A*4A
$GPRMC,014807.000,A,3300.3316,N,11715.5465,W,24.43,326.24,200310,,,A*40
$GPRMC,014810.000,A,3300.3484,N,11715.5606,W,24.62,323.64,200310,,,A*4F
$GPRMC,014813.000,A,3300.3648,N,11715.5758,W,24.75,321.28,200310,,,A*48
$GPRMC,014816.000,A,3300.3806,N,11715.5918,W,25.05,318.40,200310,,,A*41
$GPRMC,014819.000,A,3300.3962,N,11715.6090,W,25.36,316.43,200310,,,A*4A
$GPRMC,014822.000,A,3300.4116,N,11715.6267,W,25.75,315.95,200310,,,A*4B
$GPRMC,014825.000,A,3300.4272,N,11715.6448,W,26.16,316.42,200310,,,A*49
$GPRMC,014828.000,A,3300.4433,N,11715.6632,W,26.97,315.94,200310,,,A*49
$GPRMC,014831.000,A,3300.4595,N,11715.6820,W,26.90,316.16,200310,,,A*4F
$GPRMC,014834.000,A,3300.4758,N,11715.7007,W,27.61,315.91,200310,,,A*46
$GPRMC,014837.000,A,3300.4936,N,11715.7211,W,31.21,316.13,200310,,,A*4C
$GPRMC,014840.000,A,3300.5133,N,11715.7437,W,33.92,316.06,200310,,,A*4C
$GPRMC,014843.000,A,3300.5341,N,11715.7672,W,34.34,316.62,200310,,,A*42
$GPRMC,014846.000,A,3300.5551,N,11715.7908,W,34.41,316.51,200310,,,A*40
$GPRMC,014849.000,A,3300.5764,N,11715.8151,W,36.14,316.17,200310,,,A*40
$GPRMC,014852.000,A,3300.5989,N,11715.8406,W,37.73,316.49,200310,,,A*4B
$GPRMC,014855.000,A,3300.6224,N,11715.8676,W,40.35,315.62,200310,,,A*4E
$GPRMC,014858.000,A,3300.6475,N,11715.8965,W,43.00,316.50,200310,,,A*4B
$GPRMC,014901.000,A,3300.6751,N,11715.9276,W,48.46,316.63,200310,,,A*42
$GPRMC,014904.000,A,3300.7061,N,11715.9642,W,54.66,314.96,200310,,,A*46
$GPRMC,014907.000,A,3300.7390,N,11716.0023,W,54.89,316.09,200310,,,A*46
$GPRMC,014910.000,A,3300.7715,N,11716.0396,W,52.11,315.86,200310,,,A*47
$GPRMC,014913.000,A,3300.8021,N,11716.0748,W,50.13,316.02,200310,,,A*43
$GPRMC,014916.000,A,3300.8328,N,11716.1101,W,51.61,315.93,200310,,,A*49
$GPRMC,014919.000,A,3300.8636,N,11716.1454,W,50.69,316.09,200310,,,A*40
$GPRMC,014922.000,A,3300.8944,N,11716.1802,W,50.73,316.78,200310,,,A*40
$GPRMC,014925.000,A,3300.9266,N,11716.2142,W,52.41,320.15,200310,,,A*4E
$GPRMC,014928.000,A,3300.9620,N,11716.2466,W,53.70,324.11,200310,,,A*45
$GPRMC,014931.000,A,3300.9996,N,11716.2766,W,54.46,328.06,200310,,,A*44
$GPRMC,014934.000,A,3301.0395,N,11716.3036,W,54.53,332.17,200310,,,A*4C
$GPRMC,014937.000,A,3301.0809,N,11716.3274,W,55.11,336.00,200310,,,A*40
$GPRMC,014940.000,A,3301.1242,N,11716.3477,W,55.96,340.04,200310,,,A*4B
$GPRMC,014943.000,A,3301.1700,N,11716.3647,W,58.35,344.49,200310,,,A*43
$GPRMC,014946.000,A,3301.2184,N,11716.3773,W,59.54,349.10,200310,,,A*4E
$GPRMC,014949.000,A,3301.2671,N,11716.3871,W,57.71,350.49,200310,,,A*4C
$GPRMC,014952.000,A,3301.3143,N,11716.3961,W,56.81,350.38,200310,,,A*49
$GPRMC,014955.000,A,3301.3617,N,11716.4055,W,57.67,350.50,200310,,,A*46
$GPRMC,014958.000,A,3301.4094,N,11716.4148,W,57.55,349.72,200310,,,A*45
$GPRMC,015001.000,A,3301.4572,N,11716.4277,W,59.76,344.76,200310,,,A*45
$GPRMC,015004.000,A,3301.5062,N,11716.4458,W,62.18,341.16,200310,,,A*4D
$GPRMC,015007.000,A,3301.5547,N,11716.4680,W,61.44,336.98,200310,,,A*47
$GPRMC,015010.000,A,3301.6004,N,11716.4939,W,59.44,332.59,200310,,,A*4F
$GPRMC,015013.000,A,3301.6441,N,11716.5232,W,60.29,330.11,200310,,,A*47
$GPRMC,015016.000,A,3301.6882,N,11716.5533,W,60.86,330.74,200310,,,A*41
$GPRMC,015019.000,A,3301.7320,N,11716.5828,W,59.79,330.53,200310,,,A*44
$GPRMC,015022.000,A,3301.7758,N,11716.6126,W,60.30,330.60,200310,,,A*44
$GPRMC,015025.000,A,3301.8200,N,11716.6415,W,60.45,331.79,200310,,,A*4A
$GPRMC,015028.000,A,3301.8642,N,11716.6699,W,58.92,331.06,200310,,,A*4A
$GPRMC,015031.000,A,3301.9069,N,11716.6984,W,58.26,330.58,200310,,,A*4A
$GPRMC,015034.000,A,3301.9494,N,11716.7270,W,58.00,330.42,200310,,,A*47
$GPRMC,015037.000,A,3301.9908,N,11716.7548,W,55.67,330.59,200310,,,A*46
$GPRMC,015040.000,A,3302.0299,N,11716.7809,W,51.68,330.61,200310,,,A*47
$GPRMC,015043.000,A,3302.0666,N,11716.8056,W,50.04,330.31,200310,,,A*43
$GPRMC,015046.000,A,3302.1038,N,11716.8306,W,52.15,330.71,200310,,,A*4A
$GPRMC,015049.000,A,3302.1426,N,11716.8565,W,54.23,330.68,200310,,,A*46
$GPRMC,015052.000,A,3302.1827,N,11716.8833,W,55.46,330.49,200310,,,A*4E
$GPRMC,015055.000,A,3302.2234,N,11716.9108,W,56.72,330.61,200310,,,A*4C
$GPRMC,015058.000,A,3302.2651,N,11716.9388,W,57.51,330.57,200310,,,A*49
$GPRMC,015101.000,A,3302.3070,N,11716.9670,W,57.62,330.41,200310,,,A*45
$GPRMC,015104.000,A,3302.3486,N,11716.9951,W,57.00,330.68,200310,,,A*4E
$GPRMC,015107.000,A,3302.3900,N,11717.0227,W,56.52,330.71,200310,,,A*42
$GPRMC,015110.000,A,3302.4310,N,11717.0504,W,56.49,330.44,200310,,,A*42
$GPRMC,015113.000,A,3302.4727,N,11717.0777,W,57.68,332.56,200310,,,A*44
$GPRMC,015116.000,A,3302.5172,N,11717.1023,W,59.51,336.87,200310,,,A*4D
$GPRMC,015119.000,A,3302.5647,N,11717.1233,W,61.41,341.75,200310,,,A*47
$GPRMC,015122.000,A,3302.6135,N,11717.1405,W,59.94,344.78,200310,,,A*46
$GPRMC,015125.000,A,3302.6619,N,11717.1550,W,59.48,346.27,200310,,,A*40
$GPRMC,015128.000,A,3302.7100,N,11717.1691,W,58.72,345.76,200310,,,A*42
$GPRMC,015131.000,A,3302.7570,N,11717.1830,W,57.23,345.80,200310,,,A*4E
$GPRMC,015134.000,A,3302.8032,N,11717.1968,W,56.78,345.89,200310,,,A*4D
$GPRMC,015137.000,A,3302.8491,N,11717.2104,W,56.53,345.90,200310,,,A*43
$GPRMC,015140.000,A,3302.8953,N,11717.2242,W,57.03,345.74,200310,,,A*4F
$GPRMC,015143.000,A,3302.9414,N,11717.2382,W,57.25,345.68,200310,,,A*47
$GPRMC,015146.000,A,3302.9879,N,11717.2522,W,57.70,345.88,200310,,,A*47
$GPRMC,015149.000,A,3303.0351,N,11717.2663,W,58.54,346.04,200310,,,A*49
$GPRMC,015152.000,A,3303.0830,N,11717.2805,W,59.05,346.07,200310,,,A*47
$GPRMC,015155.000,A,3303.1304,N,11717.2946,W,57.77,345.76,200310,,,A*45
$GPRMC,015158.000,A,3303.1770,N,11717.3087,W,57.42,345.81,200310,,,A*44
$GPRMC,015201.000,A,3303.2234,N,11717.3229,W,56.70,345.64,200310,,,A*40
$GPRMC,015204.000,A,3303.2686,N,11717.3364,W,54.93,345.91,200310,,,A*45
$GPRMC,015207.000,A,3303.3132,N,11717.3497,W,55.48,345.99,200310,,,A*4B
$GPRMC,015210.000,A,3303.3587,N,11717.3634,W,56.84,345.59,200310,,,A*43
$GPRMC,015213.000,A,3303.4053,N,11717.3776,W,57.96,345.58,200310,,,A*4F
$GPRMC,015216.000,A,3303.4523,N,11717.3917,W,57.62,345.90,200310,,,A*4E
$GPRMC,015219.000,A,3303.4989,N,11717.4057,W,57.43,345.80,200310,,,A*45
$GPRMC,015222.000,A,3303.5449,N,11717.4197,W,56.29,345.65,200310,,,A*46
$GPRMC,015225.000,A,3303.5907,N,11717.4335,W,56.79,345.93,200310,,,A*40
$GPRMC,015228.000,A,3303.6372,N,11717.4474,W,57.70,345.89,200310,,,A*47
$GPRMC,015231.000,A,3303.6841,N,11717.4614,W,57.80,346.00,200310,,,A*4D
$GPRMC,015234.000,A,3303.7303,N,11717.4753,W,56.40,345.56,200310,,,A*4B
$GPRMC,015237.000,A,3303.7753,N,11717.4890,W,54.35,345.70,200310,,,A*4D
$GPRMC,015240.000,A,3303.8191,N,11717.5021,W,53.88,345.88,200310,,,A*4F
$GPRMC,015243.000,A,3303.8626,N,11717.5153,W,53.88,345.73,200310,,,A*47
$GPRMC,015246.000,A,3303.9065,N,11717.5285,W,54.20,345.31,200310,,,A*49
$GPRMC,015249.000,A,3303.9496,N,11717.5414,W,52.10,345.79,200310,,,A*49
$GPRMC,015252.000,A,3303.9910,N,11717.5539,W,50.11,345.83,200310,,,A*48
$GPRMC,015255.000,A,3304.0318,N,11717.5663,W,50.80,345.92,200310,,,A*47
$GPRMC,015258.000,A,3304.0732,N,11717.5788,W,51.69,345.45,200310,,,A*4E
$GPRMC,015301.000,A,3304.1158,N,11717.5917,W,52.94,346.13,200310,,,A*41
$GPRMC,015304.000,A,3304.1586,N,11717.6045,W,52.69,345.68,200310,,,A*43
$GPRMC,015307.000,A,3304.2015,N,11717.6174,W,53.02,346.05,200310,,,A*4B
$GPRMC,015310.000,A,3304.2448,N,11717.6298,W,53.43,347.27,200310,,,A*44
$GPRMC,015313.000,A,3304.2884,N,11717.6414,W,53.30,346.64,200310,,,A*4B
$GPRMC,015316.000,A,3304.3317,N,11717.6541,W,53.18,345.97,200310,,,A*4A
$GPRMC,015319.000,A,3304.3748,N,11717.6671,W,53.32,345.72,200310,,,A*48
$GPRMC,015322.000,A,3304.4182,N,11717.6801,W,53.25,345.69,200310,,,A*42
$GPRMC,015325.000,A,3304.4610,N,11717.6933,W,53.03,345.72,200310,,,A*47
$GPRMC,015328.000,A,3304.5048,N,11717.7064,W,54.57,345.97,200310,,,A*47
$GPRMC,015331.000,A,3304.5495,N,11717.7197,W,55.29,346.06,200310,,,A*45
$GPRMC,015334.000,A,3304.5941,N,11717.7332,W,54.53,345.61,200310,,,A*47
$GPRMC,015337.000,A,3304.6378,N,11717.7469,W,54.00,343.98,200310,,,A*48
$GPRMC,015340.000,A,3304.6824,N,11717.7617,W,56.79,344.87,200310,,,A*44
$GPRMC,015343.000,A,3304.7285,N,11717.7761,W,56.81,345.79,200310,,,A*40
$GPRMC,015346.000,A,3304.7742,N,11717.7899,W,55.69,345.83,200310,,,A*43
$GPRMC,015349.000,A,3304.8185,N,11717.8031,W,52.80,345.93,200310,,,A*4A
$GPRMC,015352.000,A,3304.8604,N,11717.8156,W,50.80,346.01,200310,,,A*44
$GPRMC,015355.000,A,3304.9016,N,11717.8279,W,51.42,345.73,200310,,,A*40
$GPRMC,015358.000,A,3304.9442,N,11717.8408,W,53.36,345.71,200310,,,A*4B
$GPRMC,015401.000,A,3304.9876,N,11717.8543,W,54.13,344.63,200310,,,A*47
$GPRMC,015404.000,A,3305.0331,N,11717.8717,W,60.13,340.09,200310,,,A*4E
$GPRMC,015407.000,A,3305.0798,N,11717.8946,W,59.97,336.06,200310,,,A*48
$GPRMC,015410.000,A,3305.1247,N,11717.9204,W,60.15,333.97,200310,,,A*49
$GPRMC,015413.000,A,3305.1705,N,11717.9485,W,62.65,331.30,200310,,,A*4C
$GPRMC,015416.000,A,3305.2179,N,11717.9799,W,66.83,331.25,200310,,,A*41
$GPRMC,015419.000,A,3305.2677,N,11718.0125,W,67.63,331.40,200310,,,A*4C
$GPRMC,015422.000,A,3305.3170,N,11718.0459,W,68.03,329.71,200310,,,A*49
$GPRMC,015425.000,A,3305.3657,N,11718.0791,W,66.07,331.05,200310,,,A*4B
$GPRMC,015428.000,A,3305.4134,N,11718.1102,W,64.59,331.32,200310,,,A*43
$GPRMC,015431.000,A,3305.4599,N,11718.1406,W,62.07,331.44,200310,,,A*45
$GPRMC,015434.000,A,3305.5042,N,11718.1696,W,59.12,331.16,200310,,,A*42
$GPRMC,015437.000,A,3305.5470,N,11718.1976,W,58.44,331.43,200310,,,A*47
$GPRMC,015440.000,A,3305.5892,N,11718.2251,W,57.08,331.48,200310,,,A*46
$GPRMC,015443.000,A,3305.6309,N,11718.2520,W,56.61,331.40,200310,,,A*48
$GPRMC,015446.000,A,3305.6720,N,11718.2790,W,56.13,331.39,200310,,,A*40
$GPRMC,015449.000,A,3305.7133,N,11718.3060,W,56.87,331.19,200310,,,A*4C
$GPRMC,015452.000,A,3305.7550,N,11718.3332,W,57.06,331.30,200310,,,A*40
$GPRMC,015455.000,A,3305.7968,N,11718.3604,W,57.30,331.50,200310,,,A*43
$GPRMC,015458.000,A,3305.8387,N,11718.3878,W,57.03,331.06,200310,,,A*4C
$GPRMC,015501.000,A,3305.8800,N,11718.4147,W,55.48,331.59,200310,,,A*40
$GPRMC,015504.000,A,3305.9205,N,11718.4411,W,55.04,331.32,200310,,,A*48
$GPRMC,015507.000,A,3305.9605,N,11718.4672,W,54.21,331.27,200310,,,A*4A
$GPRMC,015510.000,A,3306.0000,N,11718.4930,W,54.42,331.34,200310,,,A*4B
