NMEA Sentence Code,UTC Time,Status,Latitude,Latitude Direction,Longitude,Longitude Direction,Speed (knots),Track Angle (degrees true),Date,MagneticVariation,Magnetic Variation Direction,[FAA Mode]-Optional,Checksum
$GPRMC,005500.9,A,3243.501321,N,11706.221263,W,13.1,99.8,240410,,,A*78
$GPRMC,005503.9,A,3243.479932,N,11706.213737,W,22.7,156.1,240410,,,A*47
$GPRMC,005506.9,A,3243.458687,N,11706.200279,W,31.4,150.1,240410,,,A*4A
$GPRMC,005509.9,A,3243.429953,N,11706.181859,W,40.1,149.0,240410,,,A*4D
$GPRMC,005512.9,A,3243.391461,N,11706.169226,W,44.9,165.8,240410,,,A*41
$GPRMC,005515.9,A,3243.350544,N,11706.165466,W,51.3,177.4,240410,,,A*42
$GPRMC,005518.9,A,3243.306058,N,11706.165253,W,54.6,180.2,240410,,,A*4A
$GPRMC,005521.9,A,3243.257338,N,11706.167874,W,57.7,183.2,240410,,,A*4C
$GPRMC,005524.9,A,3243.205601,N,11706.172843,W,60.8,183.6,240410,,,A*4E
$GPRMC,005527.9,A,3243.154843,N,11706.177945,W,60.0,183.7,240410,,,A*49
$GPRMC,005530.9,A,3243.102655,N,11706.182387,W,60.8,183.8,240410,,,A*4C
$GPRMC,005533.9,A,3243.052556,N,11706.184847,W,60.0,182.9,240410,,,A*42
$GPRMC,005536.9,A,3243.002738,N,11706.188816,W,61.0,181.4,240410,,,A*4F
$GPRMC,005539.9,A,3242.952305,N,11706.185524,W,60.8,176.0,240410,,,A*43
$GPRMC,005542.9,A,3242.902613,N,11706.175868,W,61.6,169.9,240410,,,A*4A
$GPRMC,005545.9,A,3242.849519,N,11706.163344,W,66.5,167.1,240410,,,A*4A
$GPRMC,005548.9,A,3242.803729,N,11706.139745,W,62.3,158.0,240410,,,A*4D
$GPRMC,005551.9,A,3242.755328,N,11706.112180,W,64.7,152.0,240410,,,A*42
$GPRMC,005554.9,A,3242.711407,N,11706.078808,W,63.1,147.0,240410,,,A*4C
$GPRMC,005558.2,A,3242.663125,N,11706.034417,W,65.8,142.5,240410,,,A*4F
$GPRMC,005601.9,A,3242.612361,N,11705.987427,W,61.5,142.7,240410,,,A*45
$GPRMC,005604.2,A,3242.581803,N,11705.958764,W,60.7,141.4,240410,,,A*48
$GPRMC,005607.2,A,3242.542952,N,11705.920852,W,60.8,141.3,240410,,,A*4C
$GPRMC,005610.2,A,3242.503464,N,11705.883021,W,60.4,141.4,240410,,,A*48
$GPRMC,005613.9,A,3242.454786,N,11705.836960,W,60.6,141.4,240410,,,A*4C
$GPRMC,005616.9,A,3242.415396,N,11705.798106,W,62.1,143.8,240410,,,A*41
$GPRMC,005619.9,A,3242.370714,N,11705.765555,W,62.0,149.5,240410,,,A*42
$GPRMC,005622.9,A,3242.322681,N,11705.740186,W,60.5,155.2,240410,,,A*40
$GPRMC,005625.9,A,3242.275292,N,11705.720847,W,59.8,161.7,240410,,,A*45
$GPRMC,005629.2,A,3242.224720,N,11705.705728,W,56.3,166.9,240410,,,A*46
$GPRMC,005632.9,A,3242.167331,N,11705.698085,W,57.0,175.3,240410,,,A*48
$GPRMC,005635.9,A,3242.120399,N,11705.695361,W,56.0,178.6,240410,,,A*43
$GPRMC,005638.9,A,3242.070275,N,11705.695944,W,57.2,179.8,240410,,,A*48
$GPRMC,005641.9,A,3242.025538,N,11705.697014,W,54.6,179.4,240410,,,A*4D
$GPRMC,005644.9,A,3241.982811,N,11705.696718,W,52.4,178.7,240410,,,A*45
$GPRMC,005647.9,A,3241.936450,N,11705.696540,W,54.9,177.6,240410,,,A*4A
$GPRMC,005650.9,A,3241.887952,N,11705.695586,W,57.8,178.5,240410,,,A*4F
$GPRMC,005653.9,A,3241.836295,N,11705.695942,W,61.3,179.5,240410,,,A*4D
$GPRMC,005656.9,A,3241.787441,N,11705.696296,W,60.6,179.8,240410,,,A*4A
$GPRMC,005659.9,A,3241.734249,N,11705.696418,W,62.0,180.7,240410,,,A*4E
$GPRMC,005702.9,A,3241.681739,N,11705.699250,W,59.8,181.1,240410,,,A*4E
$GPRMC,005705.9,A,3241.634151,N,11705.699627,W,57.2,180.4,240410,,,A*4B
$GPRMC,005708.9,A,3241.585534,N,11705.700841,W,56.3,180.5,240410,,,A*46
$GPRMC,005711.9,A,3241.542359,N,11705.700737,W,53.1,179.2,240410,,,A*40
$GPRMC,005714.9,A,3241.495612,N,11705.697399,W,57.1,174.7,240410,,,A*47
$GPRMC,005717.9,A,3241.446265,N,11705.686678,W,60.7,168.6,240410,,,A*4A
$GPRMC,005720.9,A,3241.397371,N,11705.672325,W,60.9,166.3,240410,,,A*42
$GPRMC,005723.9,A,3241.346351,N,11705.652842,W,61.4,163.9,240410,,,A*44
$GPRMC,005726.9,A,3241.300094,N,11705.621741,W,63.2,152.2,240410,,,A*4C
$GPRMC,005729.9,A,3241.259469,N,11705.589112,W,60.1,147.1,240410,,,A*4E
$GPRMC,005732.9,A,3241.219433,N,11705.548497,W,62.3,140.6,240410,,,A*4A
$GPRMC,005735.9,A,3241.188442,N,11705.506988,W,57.5,134.1,240410,,,A*4D
$GPRMC,005738.9,A,3241.157492,N,11705.467951,W,53.6,133.9,240410,,,A*45
$GPRMC,005741.9,A,3241.128555,N,11705.430243,W,51.9,133.1,240410,,,A*46
$GPRMC,005744.9,A,3241.099534,N,11705.393386,W,51.9,133.1,240410,,,A*49
$GPRMC,005748.2,A,3241.065481,N,11705.350938,W,54.2,134.3,240410,,,A*49
$GPRMC,005751.9,A,3241.021202,N,11705.302671,W,57.5,140.2,240410,,,A*44
$GPRMC,005754.9,A,3240.980029,N,11705.267906,W,58.4,144.6,240410,,,A*4A
$GPRMC,005757.9,A,3240.934439,N,11705.241032,W,59.3,151.7,240410,,,A*4A
$GPRMC,005800.9,A,3240.887316,N,11705.213892,W,60.9,155.2,240410,,,A*40
$GPRMC,005803.9,A,3240.841261,N,11705.190942,W,59.6,156.8,240410,,,A*40
$GPRMC,005806.9,A,3240.795996,N,11705.169704,W,59.1,157.6,240410,,,A*42
$GPRMC,005809.9,A,3240.752655,N,11705.146951,W,56.5,156.5,240410,,,A*4C
$GPRMC,005812.9,A,3240.711428,N,11705.124927,W,55.2,156.0,240410,,,A*4D
$GPRMC,005815.9,A,3240.666666,N,11705.103051,W,56.4,157.3,240410,,,A*49
$GPRMC,005818.9,A,3240.623966,N,11705.079885,W,58.2,156.2,240410,,,A*4F
$GPRMC,005821.9,A,3240.575918,N,11705.055783,W,62.0,155.9,240410,,,A*48
$GPRMC,005824.9,A,3240.528359,N,11705.031093,W,63.7,156.6,240410,,,A*44
$GPRMC,005827.9,A,3240.478737,N,11705.005850,W,64.6,156.7,240410,,,A*48
$GPRMC,005830.9,A,3240.427884,N,11704.984093,W,63.6,159.3,240410,,,A*49
$GPRMC,005833.9,A,3240.376920,N,11704.964341,W,63.2,161.4,240410,,,A*4C
$GPRMC,005836.2,A,3240.339285,N,11704.949117,W,63.5,162.2,240410,,,A*41
$GPRMC,005839.9,A,3240.277987,N,11704.924473,W,61.8,162.9,240410,,,A*4F
$GPRMC,005842.9,A,3240.229759,N,11704.905907,W,63.3,160.5,240410,,,A*4F
$GPRMC,005845.9,A,3240.185405,N,11704.886889,W,57.5,161.2,240410,,,A*4D
$GPRMC,005848.9,A,3240.137686,N,11704.866441,W,60.8,161.5,240410,,,A*48
$GPRMC,005851.9,A,3240.088602,N,11704.848469,W,60.5,162.0,240410,,,A*44
$GPRMC,005854.9,A,3240.043654,N,11704.832259,W,56.8,162.8,240410,,,A*4D
$GPRMC,005857.9,A,3239.997397,N,11704.814570,W,56.3,162.0,240410,,,A*41
$GPRMC,005900.9,A,3239.955813,N,11704.797380,W,53.4,161.8,240410,,,A*4F
$GPRMC,005903.9,A,3239.912910,N,11704.782552,W,53.0,162.6,240410,,,A*49
$GPRMC,005906.9,A,3239.871517,N,11704.765906,W,52.2,161.7,240410,,,A*46
$GPRMC,005909.9,A,3239.830349,N,11704.747800,W,53.5,157.7,240410,,,A*45
$GPRMC,005912.9,A,3239.789653,N,11704.725622,W,53.7,153.7,240410,,,A*40
$GPRMC,005915.9,A,3239.748850,N,11704.699139,W,55.1,149.5,240410,,,A*45
$GPRMC,005918.9,A,3239.711227,N,11704.671824,W,53.7,146.0,240410,,,A*47
$GPRMC,005921.9,A,3239.676222,N,11704.640908,W,52.7,143.1,240410,,,A*40
$GPRMC,005924.9,A,3239.641860,N,11704.610081,W,51.0,142.7,240410,,,A*43
$GPRMC,005927.9,A,3239.608630,N,11704.579247,W,49.5,142.0,240410,,,A*49
$GPRMC,005930.9,A,3239.574418,N,11704.549218,W,50.9,142.2,240410,,,A*40
$GPRMC,005933.2,A,3239.548444,N,11704.525726,W,50.4,142.6,240410,,,A*45
$GPRMC,005936.2,A,3239.514710,N,11704.495622,W,50.7,142.5,240410,,,A*44
$GPRMC,005939.2,A,3239.481302,N,11704.465319,W,50.1,142.2,240410,,,A*42
$GPRMC,005942.2,A,3239.447094,N,11704.434461,W,52.7,142.4,240410,,,A*46
$GPRMC,005945.2,A,3239.413025,N,11704.403511,W,50.7,142.5,240410,,,A*4B
$GPRMC,005948.9,A,3239.374849,N,11704.369025,W,44.7,143.6,240410,,,A*47
$GPRMC,005951.9,A,3239.348894,N,11704.345655,W,40.2,143.0,240410,,,A*48
$GPRMC,005954.9,A,3239.324321,N,11704.321163,W,39.0,142.1,240410,,,A*4E
$GPRMC,005957.9,A,3239.296133,N,11704.296053,W,42.0,142.5,240410,,,A*43
$GPRMC,010000.9,A,3239.267964,N,11704.269330,W,43.6,142.0,240410,,,A*4C
$GPRMC,010003.9,A,3239.237055,N,11704.241782,W,45.7,140.8,240410,,,A*4B
$GPRMC,010006.9,A,3239.205826,N,11704.213601,W,47.5,142.2,240410,,,A*46
$GPRMC,010009.9,A,3239.171730,N,11704.186812,W,47.0,143.9,240410,,,A*4D
$GPRMC,010012.9,A,3239.143162,N,11704.157258,W,46.1,140.3,240410,,,A*46
$GPRMC,010015.9,A,3239.117923,N,11704.128892,W,40.9,137.7,240410,,,A*43
$GPRMC,010018.9,A,3239.094511,N,11704.101519,W,40.4,134.5,240410,,,A*40
$GPRMC,010021.9,A,3239.075120,N,11704.067222,W,43.9,129.7,240410,,,A*4D
$GPRMC,010024.9,A,3239.048127,N,11704.031229,W,49.1,128.3,240410,,,A*4E
$GPRMC,010027.9,A,3239.023367,N,11703.990290,W,52.6,124.2,240410,,,A*41
$GPRMC,010030.9,A,3239.003184,N,11703.943915,W,55.3,118.6,240410,,,A*4B
$GPRMC,010033.9,A,3238.980178,N,11703.893761,W,57.9,117.3,240410,,,A*4B
$GPRMC,010036.9,A,3238.957095,N,11703.843582,W,57.8,117.6,240410,,,A*40
$GPRMC,010039.9,A,3238.937614,N,11703.792392,W,59.1,115.3,240410,,,A*42
$GPRMC,010042.9,A,3238.910568,N,11703.738832,W,61.7,120.3,240410,,,A*49
$GPRMC,010045.9,A,3238.883017,N,11703.688389,W,58.3,124.9,240410,,,A*49
$GPRMC,010048.9,A,3238.853231,N,11703.645725,W,54.4,131.2,240410,,,A*48
$GPRMC,010051.9,A,3238.816233,N,11703.610185,W,54.3,139.3,240410,,,A*41
$GPRMC,010054.9,A,3238.779813,N,11703.576278,W,56.1,141.9,240410,,,A*4D
$GPRMC,010057.9,A,3238.739482,N,11703.542962,W,58.0,146.2,240410,,,A*4A
$GPRMC,010100.9,A,3238.698116,N,11703.517446,W,54.9,152.0,240410,,,A*42
$GPRMC,010103.9,A,3238.658378,N,11703.493172,W,51.9,153.7,240410,,,A*4B
$GPRMC,010106.9,A,3238.624042,N,11703.473259,W,42.2,155.2,240410,,,A*41
$GPRMC,010109.9,A,3238.599665,N,11703.460212,W,31.8,155.3,240410,,,A*4A
$GPRMC,010112.9,A,3238.578960,N,11703.448767,W,27.5,152.9,240410,,,A*4F
$GPRMC,010115.9,A,3238.556280,N,11703.435066,W,32.2,152.0,240410,,,A*47
$GPRMC,010118.9,A,3238.532744,N,11703.418224,W,35.9,151.8,240410,,,A*49
$GPRMC,010121.9,A,3238.506535,N,11703.399660,W,37.2,149.9,240410,,,A*4B
$GPRMC,010124.9,A,3238.479306,N,11703.382414,W,37.2,149.6,240410,,,A*45
$GPRMC,010127.9,A,3238.454148,N,11703.364659,W,35.2,147.4,240410,,,A*4C
$GPRMC,010130.9,A,3238.427683,N,11703.345265,W,37.4,147.2,240410,,,A*44
$GPRMC,010133.0,A,3238.409014,N,11703.331781,W,36.7,144.9,240410,,,A*4C
$GPRMC,010136.9,A,3238.373538,N,11703.306388,W,35.4,149.5,240410,,,A*49
$GPRMC,010139.9,A,3238.345438,N,11703.306817,W,32.9,186.0,240410,,,A*43
$GPRMC,010142.9,A,3238.335657,N,11703.333799,W,28.8,245.8,240410,,,A*42
$GPRMC,010145.9,A,3238.343067,N,11703.365264,W,28.7,279.6,240410,,,A*4B
$GPRMC,010148.9,A,3238.365472,N,11703.374407,W,17.3,331.5,240410,,,A*47
$GPRMC,010151.9,A,3238.376830,N,11703.376157,W,8.7,355.2,240410,,,A*7A
$GPRMC,010224.9,A,3238.380405,N,11703.374178,W,6.2,338.7,240410,,,A*72
$GPRMC,010227.9,A,3238.390073,N,11703.378013,W,14.7,339.7,240410,,,A*42
$GPRMC,010230.9,A,3238.403097,N,11703.383057,W,15.0,340.2,240410,,,A*4A
$GPRMC,010233.9,A,3238.414820,N,11703.382923,W,13.1,9.6,240410,,,A*4D
$GPRMC,010236.9,A,3238.420519,N,11703.366975,W,22.7,70.0,240410,,,A*7D
$GPRMC,010239.9,A,3238.427170,N,11703.336718,W,32.5,75.6,240410,,,A*7E
$GPRMC,010242.9,A,3238.433853,N,11703.305776,W,32.3,73.8,240410,,,A*79
$GPRMC,010245.9,A,3238.442993,N,11703.273311,W,36.2,72.6,240410,,,A*7A
$GPRMC,010248.9,A,3238.454714,N,11703.235324,W,41.4,71.8,240410,,,A*7E
$GPRMC,010251.9,A,3238.464667,N,11703.196372,W,41.1,72.3,240410,,,A*74
$GPRMC,010254.9,A,3238.474130,N,11703.159285,W,39.4,73.3,240410,,,A*74
$GPRMC,010257.9,A,3238.483805,N,11703.123491,W,34.6,78.1,240410,,,A*78
$GPRMC,010300.9,A,3238.484202,N,11703.091762,W,32.2,88.3,240410,,,A*79
$GPRMC,010303.9,A,3238.483736,N,11703.059899,W,30.6,94.9,240410,,,A*71
$GPRMC,010306.9,A,3238.478108,N,11703.033295,W,27.9,105.5,240410,,,A*4D
$GPRMC,010309.9,A,3238.468848,N,11703.010097,W,28.1,114.6,240410,,,A*4B
$GPRMC,010312.9,A,3238.455285,N,11702.985240,W,32.2,121.2,240410,,,A*42
$GPRMC,010315.9,A,3238.438686,N,11702.957617,W,36.3,123.2,240410,,,A*47
$GPRMC,010318.9,A,3238.419791,N,11702.924545,W,38.9,123.1,240410,,,A*49
$GPRMC,010321.9,A,3238.401544,N,11702.893747,W,37.3,122.7,240410,,,A*4F
$GPRMC,010324.9,A,3238.385525,N,11702.863414,W,35.2,120.7,240410,,,A*4D
$GPRMC,010327.9,A,3238.375760,N,11702.833227,W,33.5,110.6,240410,,,A*42
$GPRMC,010330.9,A,3238.364530,N,11702.797052,W,38.6,110.9,240410,,,A*45
$GPRMC,010333.9,A,3238.352512,N,11702.761366,W,39.4,110.3,240410,,,A*47
$GPRMC,010336.9,A,3238.343074,N,11702.723079,W,40.5,107.3,240410,,,A*45
$GPRMC,010339.9,A,3238.332162,N,11702.684367,W,39.1,106.1,240410,,,A*43
$GPRMC,010342.9,A,3238.324795,N,11702.647941,W,37.4,103.1,240410,,,A*49
$GPRMC,010345.9,A,3238.320282,N,11702.612432,W,37.7,100.0,240410,,,A*41
$GPRMC,010348.9,A,3238.314017,N,11702.575484,W,40.1,101.1,240410,,,A*4C
$GPRMC,010351.9,A,3238.307925,N,11702.532414,W,43.4,99.0,240410,,,A*73
$GPRMC,010354.9,A,3238.301304,N,11702.490206,W,43.7,98.7,240410,,,A*70
$GPRMC,010357.9,A,3238.295974,N,11702.447819,W,43.4,99.6,240410,,,A*7F
$GPRMC,010400.9,A,3238.290093,N,11702.401551,W,46.2,98.4,240410,,,A*7C
$GPRMC,010403.9,A,3238.288694,N,11702.354832,W,45.2,93.4,240410,,,A*70
$GPRMC,010406.9,A,3238.286822,N,11702.311514,W,44.5,90.5,240410,,,A*74
$GPRMC,010409.9,A,3238.287634,N,11702.272657,W,35.1,89.6,240410,,,A*7A
$GPRMC,010412.9,A,3238.288278,N,11702.243141,W,27.1,89.4,240410,,,A*70
$GPRMC,010415.9,A,3238.288296,N,11702.221257,W,19.8,92.5,240410,,,A*78
$GPRMC,010418.9,A,3238.287627,N,11702.207753,W,11.4,93.9,240410,,,A*78
$GPRMC,010421.9,A,3238.284887,N,11702.195379,W,13.6,101.5,240410,,,A*47
$GPRMC,010424.9,A,3238.282755,N,11702.181529,W,16.3,102.8,240410,,,A*4C
$GPRMC,010427.9,A,3238.278002,N,11702.162211,W,21.6,104.9,240410,,,A*48
$GPRMC,010430.9,A,3238.272757,N,11702.140010,W,24.2,107.2,240410,,,A*49
$GPRMC,010433.9,A,3238.266886,N,11702.113797,W,29.6,104.8,240410,,,A*42
$GPRMC,010436.9,A,3238.257009,N,11702.084666,W,33.1,112.7,240410,,,A*4E
$GPRMC,010439.9,A,3238.244697,N,11702.056247,W,31.6,117.6,240410,,,A*4B
$GPRMC,010442.9,A,3238.232090,N,11702.030069,W,31.2,118.5,240410,,,A*41
$GPRMC,010445.9,A,3238.219960,N,11702.002344,W,31.8,117.7,240410,,,A*43
$GPRMC,010448.9,A,3238.205460,N,11701.975894,W,30.7,121.7,240410,,,A*49
$GPRMC,010451.9,A,3238.194456,N,11701.951206,W,29.9,118.5,240410,,,A*46
$GPRMC,010454.9,A,3238.183329,N,11701.922412,W,32.1,112.4,240410,,,A*44
$GPRMC,010457.9,A,3238.176308,N,11701.889159,W,35.3,106.3,240410,,,A*43
$GPRMC,010500.9,A,3238.169684,N,11701.856878,W,32.6,103.0,240410,,,A*43
$GPRMC,010503.9,A,3238.166369,N,11701.823114,W,36.3,98.0,240410,,,A*7A
$GPRMC,010506.9,A,3238.162414,N,11701.783634,W,42.3,97.3,240410,,,A*79
$GPRMC,010509.9,A,3238.156849,N,11701.739672,W,45.7,96.7,240410,,,A*70
$GPRMC,010512.9,A,3238.153248,N,11701.693821,W,47.2,96.1,240410,,,A*7C
$GPRMC,010515.9,A,3238.149227,N,11701.646752,W,47.5,95.8,240410,,,A*77
$GPRMC,010518.9,A,3238.146864,N,11701.598774,W,49.0,93.2,240410,,,A*7B
$GPRMC,010521.9,A,3238.145811,N,11701.553873,W,45.1,90.8,240410,,,A*7B
$GPRMC,010524.9,A,3238.144888,N,11701.508668,W,45.9,90.9,240410,,,A*7C
$GPRMC,010527.9,A,3238.145639,N,11701.462894,W,46.3,89.3,240410,,,A*71
$GPRMC,010530.9,A,3238.146877,N,11701.419977,W,42.4,88.9,240410,,,A*78
$GPRMC,010533.9,A,3238.146034,N,11701.386432,W,30.9,90.2,240410,,,A*73
$GPRMC,010536.9,A,3238.145351,N,11701.360159,W,26.2,89.5,240410,,,A*76
$GPRMC,010539.9,A,3238.146363,N,11701.335528,W,24.8,89.0,240410,,,A*74
$GPRMC,010542.9,A,3238.146397,N,11701.308306,W,30.4,90.3,240410,,,A*75
$GPRMC,010545.9,A,3238.146281,N,11701.275912,W,33.0,90.0,240410,,,A*74
$GPRMC,010548.9,A,3238.148941,N,11701.243871,W,33.1,85.9,240410,,,A*7D
$GPRMC,010551.9,A,3238.150322,N,11701.210761,W,35.4,86.0,240410,,,A*72
$GPRMC,010554.9,A,3238.153707,N,11701.173840,W,36.9,84.6,240410,,,A*77
$GPRMC,010557.9,A,3238.157556,N,11701.136753,W,37.5,82.6,240410,,,A*71
$GPRMC,010600.9,A,3238.162331,N,11701.097025,W,40.2,81.3,240410,,,A*7C
$GPRMC,010603.9,A,3238.169668,N,11701.059050,W,39.1,78.5,240410,,,A*70
$GPRMC,010606.9,A,3238.179238,N,11701.019463,W,40.1,75.3,240410,,,A*70
$GPRMC,010609.9,A,3238.185788,N,11700.981403,W,41.1,77.2,240410,,,A*7F
$GPRMC,010612.9,A,3238.196273,N,11700.940710,W,42.5,73.9,240410,,,A*72
$GPRMC,010615.9,A,3238.208413,N,11700.902383,W,41.5,70.8,240410,,,A*78
$GPRMC,010618.9,A,3238.218663,N,11700.862936,W,40.6,71.5,240410,,,A*7C
$GPRMC,010621.9,A,3238.233246,N,11700.824794,W,39.6,67.9,240410,,,A*7D
$GPRMC,010624.9,A,3238.244237,N,11700.789160,W,38.7,68.4,240410,,,A*79
$GPRMC,010627.9,A,3238.256358,N,11700.760075,W,32.2,63.0,240410,,,A*73
$GPRMC,010630.9,A,3238.267561,N,11700.734673,W,27.7,61.8,240410,,,A*71
$GPRMC,010633.9,A,3238.277340,N,11700.713181,W,24.0,61.6,240410,,,A*73
$GPRMC,010636.9,A,3238.283673,N,11700.696390,W,15.5,62.4,240410,,,A*70
$GPRMC,010709.9,A,3238.289562,N,11700.685842,W,8.6,69.5,240410,,,A*47
$GPRMC,010712.9,A,3238.294918,N,11700.675052,W,14.2,62.0,240410,,,A*71
$GPRMC,010715.9,A,3238.304353,N,11700.657017,W,22.7,63.5,240410,,,A*7E
$GPRMC,010718.9,A,3238.312600,N,11700.631774,W,27.4,66.0,240410,,,A*73
$GPRMC,010721.9,A,3238.323746,N,11700.605052,W,32.2,64.2,240410,,,A*7E
$GPRMC,010724.9,A,3238.336612,N,11700.572788,W,35.7,63.7,240410,,,A*7C
$GPRMC,010727.9,A,3238.350115,N,11700.542011,W,35.7,60.9,240410,,,A*76
$GPRMC,010730.9,A,3238.366993,N,11700.511640,W,36.0,57.6,240410,,,A*78
$GPRMC,010733.9,A,3238.381342,N,11700.481077,W,36.4,58.6,240410,,,A*75
$GPRMC,010736.9,A,3238.401924,N,11700.453667,W,36.1,50.9,240410,,,A*7F
$GPRMC,010739.9,A,3238.421703,N,11700.425119,W,35.1,51.6,240410,,,A*7B
$GPRMC,010742.9,A,3238.438766,N,11700.398872,W,33.3,52.1,240410,,,A*79
$GPRMC,010745.9,A,3238.455335,N,11700.380113,W,25.6,45.5,240410,,,A*70
$GPRMC,010748.9,A,3238.465289,N,11700.365263,W,19.4,42.2,240410,,,A*7A
$GPRMC,010751.9,A,3238.470527,N,11700.358097,W,12.6,38.2,240410,,,A*76
$GPRMC,010800.9,A,3238.466447,N,11700.357531,W,9.7,62.6,240410,,,A*4B
$GPRMC,010803.9,A,3238.474136,N,11700.342840,W,19.5,59.8,240410,,,A*72
$GPRMC,010806.9,A,3238.489756,N,11700.320070,W,29.1,54.1,240410,,,A*79
$GPRMC,010809.9,A,3238.506770,N,11700.291596,W,33.4,56.4,240410,,,A*7B
$GPRMC,010812.9,A,3238.522103,N,11700.262659,W,34.9,57.5,240410,,,A*73
$GPRMC,010815.9,A,3238.538879,N,11700.234263,W,35.7,56.2,240410,,,A*7C
$GPRMC,010818.9,A,3238.555115,N,11700.203029,W,36.5,58.0,240410,,,A*7C
$GPRMC,010821.9,A,3238.575251,N,11700.169861,W,39.0,56.3,240410,,,A*7B
$GPRMC,010827.9,A,3238.601785,N,11700.127034,W,24.5,47.6,240410,,,A*7F
$GPRMC,010830.9,A,3238.606409,N,11700.117126,W,13.5,49.2,240410,,,A*76
$GPRMC,010922.9,A,3238.629750,N,11700.066693,W,23.9,74.2,240410,,,A*79
$GPRMC,010925.9,A,3238.643907,N,11700.029738,W,31.6,70.2,240410,,,A*7D
$GPRMC,010928.9,A,3238.659256,N,11659.993222,W,34.3,68.5,240410,,,A*71
$GPRMC,010931.9,A,3238.673525,N,11659.958586,W,31.2,68.9,240410,,,A*74
$GPRMC,010934.9,A,3238.680207,N,11659.935450,W,22.5,72.9,240410,,,A*75
$GPRMC,010937.9,A,3238.676094,N,11659.917465,W,21.4,108.1,240410,,,A*47
$GPRMC,010940.9,A,3238.664992,N,11659.895975,W,27.0,118.8,240410,,,A*46
$GPRMC,010943.9,A,3238.651082,N,11659.872119,W,31.5,122.4,240410,,,A*47
$GPRMC,010946.9,A,3238.636000,N,11659.843227,W,37.4,122.4,240410,,,A*42
$GPRMC,010949.9,A,3238.618135,N,11659.808385,W,38.8,120.6,240410,,,A*43
$GPRMC,010952.9,A,3238.601759,N,11659.777148,W,35.0,120.3,240410,,,A*49
$GPRMC,010955.9,A,3238.587952,N,11659.755419,W,24.2,122.4,240410,,,A*40
$GPRMC,010958.9,A,3238.589041,N,11659.736951,W,17.3,78.9,240410,,,A*7E
