NMEA Sentence Code,UTC Time,Status,Latitude,Latitude Direction,Longitude,Longitude Direction,Speed (knots),Track Angle (degrees true),Date,MagneticVariation,Magnetic Variation Direction,[FAA Mode]-Optional,Checksum
$GPRMC,224315.000,A,3256.3110,N,11702.3665,W,43.40,268.00,150110,,,A*46
$GPRMC,224319.000,A,3256.3118,N,11702.4349,W,47.00,270.00,150110,,,A*47
$GPRMC,224323.000,A,3256.3138,N,11702.4923,W,49.30,270.00,150110,,,A*47
$GPRMC,224327.000,A,3256.3178,N,11702.5664,W,49.80,272.00,150110,,,A*43
$GPRMC,224331.000,A,3256.3279,N,11702.6368,W,48.70,276.00,150110,,,A*46
$GPRMC,224335.000,A,3256.3383,N,11702.6837,W,36.40,282.00,150110,,,A*46
$GPRMC,224339.000,A,3256.3482,N,11702.7254,W,27.60,284.00,150110,,,A*46
$GPRMC,224343.000,A,3256.3511,N,11702.7422,W,12.50,278.00,150110,,,A*41
$GPRMC,224439.000,A,3256.3517,N,11702.7462,W,0.00,278.00,150110,,,A*7F
$GPRMC,224443.000,A,3256.3567,N,11702.7677,W,17.30,282.00,150110,,,A*43
$GPRMC,224447.000,A,3256.3667,N,11702.8193,W,34.50,282.00,150110,,,A*41
$GPRMC,224451.000,A,3256.3759,N,11702.8651,W,37.20,280.00,150110,,,A*45
$GPRMC,224455.000,A,3256.3825,N,11702.9209,W,37.60,278.00,150110,,,A*4E
$GPRMC,224500.000,A,3256.3881,N,11702.9761,W,37.90,276.00,150110,,,A*4B
$GPRMC,224503.000,A,3256.3921,N,11703.0164,W,37.80,276.00,150110,,,A*49
$GPRMC,224507.000,A,3256.3966,N,11703.0653,W,37.20,276.00,150110,,,A*47
$GPRMC,224511.000,A,3256.4005,N,11703.1125,W,35.70,276.00,150110,,,A*4B
$GPRMC,224513.000,A,3256.4017,N,11703.1328,W,35.50,274.00,150110,,,A*45
$GPRMC,224519.000,A,3256.4047,N,11703.2014,W,35.20,272.00,150110,,,A*44
$GPRMC,224523.000,A,3256.3938,N,11703.2474,W,37.80,244.00,150110,,,A*44
$GPRMC,224528.000,A,3256.3488,N,11703.2948,W,39.40,240.00,150110,,,A*4D
$GPRMC,224529.000,A,3256.3212,N,11703.3151,W,40.20,240.00,150110,,,A*40
$GPRMC,224534.000,A,3256.2732,N,11703.3689,W,39.80,240.00,150110,,,A*4C
$GPRMC,224538.000,A,3256.2468,N,11703.4100,W,37.60,240.00,150110,,,A*4D
$GPRMC,224541.000,A,3256.2234,N,11703.4503,W,37.10,240.00,150110,,,A*4C
$GPRMC,224545.000,A,3256.2011,N,11703.4899,W,36.60,240.00,150110,,,A*45
$GPRMC,224549.000,A,3256.1805,N,11703.5268,W,33.50,240.00,150110,,,A*44
$GPRMC,224553.000,A,3256.1602,N,11703.5609,W,33.30,238.00,150110,,,A*4C
$GPRMC,224558.000,A,3256.1319,N,11703.6062,W,31.40,236.00,150110,,,A*4B
$GPRMC,224601.000,A,3256.1183,N,11703.6271,W,31.10,236.00,150110,,,A*40
$GPRMC,224605.000,A,3256.0977,N,11703.6611,W,31.50,236.00,150110,,,A*40
$GPRMC,224610.000,A,3256.0826,N,11703.7065,W,36.50,256.00,150110,,,A*44
$GPRMC,224614.000,A,3256.0839,N,11703.7577,W,38.10,258.00,150110,,,A*4C
$GPRMC,224618.000,A,3256.0799,N,11703.8127,W,38.80,262.00,150110,,,A*4B
$GPRMC,224622.000,A,3256.0783,N,11703.8682,W,39.20,264.00,150110,,,A*4C
$GPRMC,224626.000,A,3256.0776,N,11703.9181,W,38.60,266.00,150110,,,A*40
$GPRMC,224630.000,A,3256.0746,N,11703.9693,W,37.00,266.00,150110,,,A*49
$GPRMC,224631.000,A,3256.0737,N,11703.9857,W,37.00,266.00,150110,,,A*48
$GPRMC,224636.000,A,3256.0738,N,11704.0350,W,35.60,270.00,150110,,,A*41
$GPRMC,224640.000,A,3256.0772,N,11704.0879,W,36.80,272.00,150110,,,A*41
$GPRMC,224644.000,A,3256.0838,N,11704.1419,W,37.30,276.00,150110,,,A*41
$GPRMC,224648.000,A,3256.0873,N,11704.1816,W,33.60,274.00,150110,,,A*42
$GPRMC,224652.000,A,3256.0877,N,11704.2230,W,30.80,270.00,150110,,,A*49
$GPRMC,224656.000,A,3256.0882,N,11704.2651,W,30.10,270.00,150110,,,A*4D
$GPRMC,224700.000,A,3256.0891,N,11704.2995,W,30.00,270.00,150110,,,A*4B
$GPRMC,224704.000,A,3256.0888,N,11704.3426,W,31.20,268.00,150110,,,A*49
$GPRMC,224708.000,A,3256.0842,N,11704.3814,W,32.60,262.00,150110,,,A*43
$GPRMC,224712.000,A,3256.0764,N,11704.4319,W,34.60,262.00,150110,,,A*44
$GPRMC,224716.000,A,3256.0661,N,11704.4930,W,40.40,262.00,150110,,,A*44
$GPRMC,224720.000,A,3256.0615,N,11704.5389,W,36.30,264.00,150110,,,A*4B
$GPRMC,224739.000,A,3256.0599,N,11704.6007,W,15.70,268.00,150110,,,A*4B
$GPRMC,224744.000,A,3256.0575,N,11704.6700,W,32.60,266.00,150110,,,A*49
$GPRMC,224748.000,A,3256.0559,N,11704.7208,W,36.90,268.00,150110,,,A*42
$GPRMC,224752.000,A,3256.0556,N,11704.7872,W,41.60,270.00,150110,,,A*47
$GPRMC,224756.000,A,3256.0556,N,11704.8536,W,40.80,270.00,150110,,,A*4E
$GPRMC,224800.000,A,3256.0577,N,11704.9003,W,38.00,270.00,150110,,,A*44
$GPRMC,224804.000,A,3256.0584,N,11704.9473,W,33.90,268.00,150110,,,A*44
$GPRMC,224808.000,A,3256.0598,N,11704.9885,W,31.60,270.00,150110,,,A*44
$GPRMC,224811.000,A,3256.0592,N,11705.0191,W,31.30,268.00,150110,,,A*4E
$GPRMC,224813.000,A,3256.0587,N,11705.0392,W,30.70,268.00,150110,,,A*4C
$GPRMC,224818.000,A,3256.0587,N,11705.0915,W,31.90,268.00,150110,,,A*4D
$GPRMC,224822.000,A,3256.0581,N,11705.1272,W,32.90,268.00,150110,,,A*4A
$GPRMC,224826.000,A,3256.0580,N,11705.1732,W,32.30,270.00,150110,,,A*4D
$GPRMC,224922.000,A,3256.0700,N,11705.2392,W,0.00,278.00,150110,,,A*75
$GPRMC,224926.000,A,3256.0753,N,11705.2826,W,23.70,282.00,150110,,,A*40
$GPRMC,224930.000,A,3256.0871,N,11705.3271,W,29.70,282.00,150110,,,A*4B
$GPRMC,224934.000,A,3256.0994,N,11705.3695,W,33.60,284.00,150110,,,A*47
$GPRMC,224936.000,A,3256.1078,N,11705.3997,W,35.80,284.00,150110,,,A*4A
$GPRMC,224941.000,A,3256.1238,N,11705.4508,W,37.30,286.00,150110,,,A*4A
$GPRMC,224944.000,A,3256.1354,N,11705.4947,W,38.70,286.00,150110,,,A*48
$GPRMC,224948.000,A,3256.1475,N,11705.5494,W,38.40,284.00,150110,,,A*43
$GPRMC,224952.000,A,3256.1606,N,11705.5991,W,39.40,286.00,150110,,,A*45
$GPRMC,224956.000,A,3256.1740,N,11705.6515,W,38.60,286.00,150110,,,A*42
$GPRMC,224958.000,A,3256.1801,N,11705.6775,W,38.40,284.00,150110,,,A*42
$GPRMC,225003.000,A,3256.1901,N,11705.7203,W,30.10,284.00,150110,,,A*4D
$GPRMC,225006.000,A,3256.1967,N,11705.7489,W,25.70,282.00,150110,,,A*48
$GPRMC,225041.000,A,3256.2005,N,11705.7612,W,0.00,282.00,150110,,,A*75
$GPRMC,225044.000,A,3256.2093,N,11705.7857,W,19.10,292.00,150110,,,A*48
$GPRMC,225046.000,A,3256.2149,N,11705.8057,W,25.50,290.00,150110,,,A*42
$GPRMC,225051.000,A,3256.2264,N,11705.8541,W,32.70,286.00,150110,,,A*49
$GPRMC,225054.000,A,3256.2365,N,11705.8978,W,36.70,286.00,150110,,,A*4E
$GPRMC,225059.000,A,3256.2447,N,11705.9517,W,37.00,280.00,150110,,,A*40
$GPRMC,225102.000,A,3256.2493,N,11705.9942,W,34.60,278.00,150110,,,A*48
$GPRMC,225106.000,A,3256.2511,N,11706.0233,W,23.20,278.00,150110,,,A*42
$GPRMC,225203.000,A,3256.2449,N,11706.0558,W,9.10,264.00,150110,,,A*74
$GPRMC,225206.000,A,3256.2416,N,11706.1174,W,34.70,262.00,150110,,,A*4E
$GPRMC,225210.000,A,3256.2361,N,11706.2059,W,37.30,262.00,150110,,,A*44
$GPRMC,225214.000,A,3256.2347,N,11706.2667,W,38.20,264.00,150110,,,A*47
$GPRMC,225215.000,A,3256.2338,N,11706.2853,W,38.20,262.00,150110,,,A*41
$GPRMC,225221.000,A,3256.2204,N,11706.3576,W,39.20,248.00,150110,,,A*4A
$GPRMC,225224.000,A,3256.2112,N,11706.3936,W,26.90,250.00,150110,,,A*4F
$GPRMC,225226.000,A,3256.2083,N,11706.4075,W,19.50,250.00,150110,,,A*4D
$GPRMC,225247.000,A,3256.2056,N,11706.4202,W,0.00,250.00,150110,,,A*7D
$GPRMC,225251.000,A,3256.2057,N,11706.4182,W,8.70,246.00,150110,,,A*78
$GPRMC,225255.000,A,3256.1966,N,11706.4507,W,22.90,250.00,150110,,,A*4C
$GPRMC,225300.000,A,3256.1918,N,11706.4735,W,8.80,254.00,150110,,,A*7A
$GPRMC,225304.000,A,3256.1900,N,11706.4854,W,7.10,258.00,150110,,,A*75
$GPRMC,225503.000,A,3256.1871,N,11706.5604,W,0.00,258.00,150110,,,A*7F
$GPRMC,225506.000,A,3256.1891,N,11706.5834,W,12.80,290.00,150110,,,A*46
$GPRMC,225511.000,A,3256.1914,N,11706.6221,W,18.00,284.00,150110,,,A*46
$GPRMC,225513.000,A,3256.1931,N,11706.6409,W,17.30,284.00,150110,,,A*43
$GPRMC,225520.000,A,3256.2011,N,11706.6784,W,17.30,284.00,150110,,,A*4D
$GPRMC,225522.000,A,3256.2034,N,11706.6897,W,17.30,284.00,150110,,,A*45
$GPRMC,225659.000,A,3256.1158,N,11706.7499,W,22.20,198.00,150110,,,A*48
$GPRMC,225703.000,A,3256.0711,N,11706.7628,W,29.50,198.00,150110,,,A*48
$GPRMC,225708.000,A,3256.0176,N,11706.7731,W,34.50,196.00,150110,,,A*4F
$GPRMC,225711.000,A,3255.9764,N,11706.7841,W,36.50,196.00,150110,,,A*42
$GPRMC,225715.000,A,3255.9255,N,11706.7966,W,37.60,194.00,150110,,,A*45
$GPRMC,225720.000,A,3255.8563,N,11706.8100,W,44.70,192.00,150110,,,A*44
$GPRMC,225721.000,A,3255.8283,N,11706.8167,W,41.30,192.00,150110,,,A*4C
$GPRMC,225726.000,A,3255.7677,N,11706.8329,W,42.70,194.00,150110,,,A*42
$GPRMC,225728.000,A,3255.7411,N,11706.8400,W,44.50,192.00,150110,,,A*40
$GPRMC,225733.000,A,3255.6825,N,11706.8551,W,50.40,192.00,150110,,,A*41
$GPRMC,225737.000,A,3255.6193,N,11706.8703,W,53.80,190.00,150110,,,A*49
$GPRMC,225742.000,A,3255.5437,N,11706.8878,W,54.40,190.00,150110,,,A*4B
$GPRMC,225746.000,A,3255.4788,N,11706.9050,W,56.10,192.00,150110,,,A*4F
$GPRMC,225749.000,A,3255.4238,N,11706.9196,W,56.50,190.00,150110,,,A*43
$GPRMC,225754.000,A,3255.3478,N,11706.9365,W,57.90,190.00,150110,,,A*49
$GPRMC,225758.000,A,3255.2902,N,11706.9473,W,58.30,188.00,150110,,,A*48
$GPRMC,225802.000,A,3255.2198,N,11706.9583,W,58.80,188.00,150110,,,A*46
$GPRMC,225806.000,A,3255.1497,N,11706.9671,W,59.10,186.00,150110,,,A*43
$GPRMC,225810.000,A,3255.0928,N,11706.9735,W,58.60,186.00,150110,,,A*4B
$GPRMC,225814.000,A,3255.0232,N,11706.9800,W,58.10,184.00,150110,,,A*43
$GPRMC,225818.000,A,3254.9646,N,11706.9840,W,58.30,184.00,150110,,,A*46
$GPRMC,225822.000,A,3254.8954,N,11706.9896,W,58.60,184.00,150110,,,A*4C
$GPRMC,225826.000,A,3254.8245,N,11706.9945,W,56.00,182.00,150110,,,A*42
$GPRMC,225830.000,A,3254.7672,N,11706.9967,W,56.80,182.00,150110,,,A*42
$GPRMC,225834.000,A,3254.6985,N,11706.9993,W,57.90,182.00,150110,,,A*4B
$GPRMC,225838.000,A,3254.6286,N,11706.9999,W,58.50,180.00,150110,,,A*44
$GPRMC,225842.000,A,3254.5687,N,11707.0008,W,59.00,180.00,150110,,,A*42
$GPRMC,225846.000,A,3254.4968,N,11707.0004,W,59.80,180.00,150110,,,A*4D
$GPRMC,225850.000,A,3254.4248,N,11706.9999,W,60.70,180.00,150110,,,A*43
$GPRMC,225854.000,A,3254.3516,N,11706.9995,W,61.20,180.00,150110,,,A*44
$GPRMC,225858.000,A,3254.2887,N,11707.0009,W,61.50,180.00,150110,,,A*4F
$GPRMC,225902.000,A,3254.2131,N,11706.9996,W,61.60,178.00,150110,,,A*46
$GPRMC,225906.000,A,3254.1532,N,11706.9984,W,61.50,178.00,150110,,,A*46
$GPRMC,225907.000,A,3254.1403,N,11706.9982,W,61.80,178.00,150110,,,A*4F
$GPRMC,225912.000,A,3254.0426,N,11706.9969,W,62.10,178.00,150110,,,A*42
$GPRMC,225916.000,A,3253.9694,N,11706.9962,W,62.80,180.00,150110,,,A*46
$GPRMC,225919.000,A,3253.9195,N,11706.9959,W,63.50,178.00,150110,,,A*4C
$GPRMC,225924.000,A,3253.8301,N,11706.9921,W,64.30,176.00,150110,,,A*4C
$GPRMC,225926.000,A,3253.7899,N,11706.9894,W,64.30,178.00,150110,,,A*4A
$GPRMC,225930.000,A,3253.7255,N,11706.9811,W,62.40,172.00,150110,,,A*41
$GPRMC,225934.000,A,3253.6531,N,11706.9628,W,61.20,168.00,150110,,,A*4B
$GPRMC,225942.000,A,3253.5764,N,11706.9354,W,15.70,164.00,150110,,,A*4F
$GPRMC,225946.000,A,3253.5101,N,11706.9095,W,35.30,162.00,150110,,,A*40
$GPRMC,225951.000,A,3253.4304,N,11706.8741,W,53.80,160.00,150110,,,A*46
$GPRMC,225956.000,A,3253.3307,N,11706.8155,W,0.00,156.00,150110,,,A*7D
$GPRMC,230001.000,A,3253.2791,N,11706.7848,W,36.00,154.00,150110,,,A*45
$GPRMC,230004.000,A,3253.2132,N,11706.7446,W,52.60,154.00,150110,,,A*49
$GPRMC,230009.000,A,3253.1366,N,11706.7025,W,57.70,154.00,150110,,,A*41
$GPRMC,230012.000,A,3253.0787,N,11706.6699,W,58.50,154.00,150110,,,A*4C
$GPRMC,230016.000,A,3253.0118,N,11706.6317,W,58.60,154.00,150110,,,A*48
$GPRMC,230021.000,A,3252.9489,N,11706.5956,W,58.90,154.00,150110,,,A*4A
$GPRMC,230024.000,A,3252.8940,N,11706.5669,W,59.80,156.00,150110,,,A*47
$GPRMC,230028.000,A,3252.8249,N,11706.5357,W,61.80,160.00,150110,,,A*4F
$GPRMC,230032.000,A,3252.7641,N,11706.5138,W,61.20,162.00,150110,,,A*44
$GPRMC,230034.000,A,3252.7272,N,11706.5023,W,60.90,164.00,150110,,,A*41
$GPRMC,230038.000,A,3252.6658,N,11706.4858,W,60.40,166.00,150110,,,A*4A
$GPRMC,230042.000,A,3252.5939,N,11706.4716,W,60.40,168.00,150110,,,A*47
$GPRMC,230047.000,A,3252.5235,N,11706.4645,W,59.90,172.00,150110,,,A*4E
$GPRMC,230048.000,A,3252.4995,N,11706.4621,W,58.80,174.00,150110,,,A*45
$GPRMC,230052.000,A,3252.4348,N,11706.4584,W,57.70,174.00,150110,,,A*48
$GPRMC,230057.000,A,3252.3600,N,11706.4596,W,54.60,180.00,150110,,,A*49
$GPRMC,230058.000,A,3252.3383,N,11706.4620,W,54.00,180.00,150110,,,A*40
$GPRMC,230102.000,A,3252.2799,N,11706.4651,W,51.40,180.00,150110,,,A*47
$GPRMC,230104.000,A,3252.2493,N,11706.4685,W,52.10,184.00,150110,,,A*43
$GPRMC,230109.000,A,3252.1835,N,11706.4828,W,54.80,190.00,150110,,,A*4E
$GPRMC,230112.000,A,3252.1259,N,11706.4985,W,59.10,190.00,150110,,,A*46
$GPRMC,230116.000,A,3252.0714,N,11706.5161,W,59.80,194.00,150110,,,A*41
$GPRMC,230120.000,A,3251.9994,N,11706.5461,W,61.10,200.00,150110,,,A*41
$GPRMC,230125.000,A,3251.9267,N,11706.5892,W,61.60,206.00,150110,,,A*42
$GPRMC,230126.000,A,3251.9053,N,11706.6037,W,62.30,208.00,150110,,,A*48
$GPRMC,230131.000,A,3251.8402,N,11706.6502,W,62.00,210.00,150110,,,A*46
$GPRMC,230134.000,A,3251.7869,N,11706.6889,W,61.40,210.00,150110,,,A*44
$GPRMC,230139.000,A,3251.7243,N,11706.7345,W,60.50,210.00,150110,,,A*41
$GPRMC,230142.000,A,3251.6731,N,11706.7717,W,59.60,210.00,150110,,,A*46
$GPRMC,230147.000,A,3251.6129,N,11706.8145,W,58.50,208.00,150110,,,A*49
$GPRMC,230151.000,A,3251.5513,N,11706.8579,W,59.80,210.00,150110,,,A*4E
$GPRMC,230155.000,A,3251.5004,N,11706.8940,W,62.60,210.00,150110,,,A*49
$GPRMC,230159.000,A,3251.4356,N,11706.9408,W,61.40,210.00,150110,,,A*41
$GPRMC,230203.000,A,3251.3845,N,11706.9818,W,61.60,212.00,150110,,,A*4E
$GPRMC,230207.000,A,3251.3335,N,11707.0475,W,60.90,226.00,150110,,,A*40
$GPRMC,230211.000,A,3251.3039,N,11707.1109,W,60.20,242.00,150110,,,A*4E
$GPRMC,230214.000,A,3251.2796,N,11707.1725,W,59.80,244.00,150110,,,A*46
$GPRMC,230218.000,A,3251.2499,N,11707.2495,W,60.50,244.00,150110,,,A*4A
$GPRMC,230223.000,A,3251.2168,N,11707.3220,W,59.60,236.00,150110,,,A*4C
$GPRMC,230227.000,A,3251.1744,N,11707.3870,W,58.40,230.00,150110,,,A*49
$GPRMC,230230.000,A,3251.1287,N,11707.4335,W,60.00,220.00,150110,,,A*46
$GPRMC,230232.000,A,3251.1048,N,11707.4555,W,61.60,218.00,150110,,,A*49
$GPRMC,230237.000,A,3251.0397,N,11707.5132,W,63.70,216.00,150110,,,A*45
$GPRMC,230241.000,A,3250.9773,N,11707.5671,W,63.70,216.00,150110,,,A*42
$GPRMC,230245.000,A,3250.9148,N,11707.6214,W,63.70,216.00,150110,,,A*4C
$GPRMC,230249.000,A,3250.8618,N,11707.6681,W,64.20,216.00,150110,,,A*49
$GPRMC,230253.000,A,3250.8021,N,11707.7227,W,62.30,216.00,150110,,,A*40
$GPRMC,230257.000,A,3250.7546,N,11707.7659,W,61.00,216.00,150110,,,A*42
$GPRMC,230301.000,A,3250.6961,N,11707.8195,W,62.10,218.00,150110,,,A*4C
$GPRMC,230305.000,A,3250.6355,N,11707.8733,W,61.00,216.00,150110,,,A*43
$GPRMC,230308.000,A,3250.5972,N,11707.9082,W,61.00,218.00,150110,,,A*40
$GPRMC,230313.000,A,3250.5292,N,11707.9711,W,62.00,218.00,150110,,,A*41
$GPRMC,230314.000,A,3250.5184,N,11707.9810,W,62.00,218.00,150110,,,A*4C
$GPRMC,230319.000,A,3250.4550,N,11708.0402,W,58.40,218.00,150110,,,A*49
$GPRMC,230320.000,A,3250.4434,N,11708.0510,W,62.10,218.00,150110,,,A*4E
$GPRMC,230325.000,A,3250.3626,N,11708.1228,W,62.80,216.00,150110,,,A*47
$GPRMC,230330.000,A,3250.3034,N,11708.1738,W,62.40,216.00,150110,,,A*4E
$GPRMC,230333.000,A,3250.2532,N,11708.2194,W,62.80,216.00,150110,,,A*40
$GPRMC,230337.000,A,3250.1944,N,11708.2725,W,59.20,218.00,150110,,,A*4A
$GPRMC,230342.000,A,3250.1352,N,11708.3250,W,62.00,216.00,150110,,,A*47
$GPRMC,230345.000,A,3250.0854,N,11708.3690,W,62.70,216.00,150110,,,A*43
$GPRMC,230349.000,A,3250.0256,N,11708.4168,W,62.70,214.00,150110,,,A*42
$GPRMC,230351.000,A,3249.9958,N,11708.4408,W,61.70,214.00,150110,,,A*4F
$GPRMC,230356.000,A,3249.9322,N,11708.4845,W,62.40,210.00,150110,,,A*4E
$GPRMC,230402.000,A,3249.8246,N,11708.5470,W,61.90,206.00,150110,,,A*48
$GPRMC,230407.000,A,3249.7581,N,11708.5816,W,60.20,204.00,150110,,,A*4A
$GPRMC,230411.000,A,3249.6942,N,11708.6131,W,58.10,204.00,150110,,,A*48
$GPRMC,230415.000,A,3249.6320,N,11708.6456,W,58.10,204.00,150110,,,A*46
$GPRMC,230419.000,A,3249.5694,N,11708.6785,W,58.40,204.00,150110,,,A*4B
$GPRMC,230424.000,A,3249.5054,N,11708.7127,W,58.80,206.00,150110,,,A*4E
$GPRMC,230428.000,A,3249.4412,N,11708.7473,W,59.80,204.00,150110,,,A*42
$GPRMC,230431.000,A,3249.3843,N,11708.7782,W,60.90,204.00,150110,,,A*43
$GPRMC,230435.000,A,3249.3288,N,11708.8091,W,61.60,204.00,150110,,,A*4E
$GPRMC,230439.000,A,3249.2624,N,11708.8446,W,61.00,204.00,150110,,,A*49
$GPRMC,230441.000,A,3249.2292,N,11708.8626,W,60.60,204.00,150110,,,A*4C
$GPRMC,230446.000,A,3249.1646,N,11708.8980,W,60.10,204.00,150110,,,A*41
$GPRMC,230450.000,A,3249.0983,N,11708.9330,W,61.00,204.00,150110,,,A*41
$GPRMC,230453.000,A,3249.0453,N,11708.9612,W,60.90,204.00,150110,,,A*4F
$GPRMC,230455.000,A,3249.0133,N,11708.9778,W,60.90,204.00,150110,,,A*47
$GPRMC,230500.000,A,3248.9485,N,11709.0124,W,59.70,204.00,150110,,,A*45
$GPRMC,230504.000,A,3248.8917,N,11709.0425,W,59.00,204.00,150110,,,A*45
$GPRMC,230508.000,A,3248.8280,N,11709.0727,W,60.10,202.00,150110,,,A*40
$GPRMC,230511.000,A,3248.7708,N,11709.0983,W,61.30,200.00,150110,,,A*43
$GPRMC,230516.000,A,3248.7009,N,11709.1236,W,61.10,198.00,150110,,,A*46
$GPRMC,230519.000,A,3248.6546,N,11709.1406,W,60.20,198.00,150110,,,A*41
$GPRMC,230523.000,A,3248.5855,N,11709.1654,W,62.50,196.00,150110,,,A*4A
$GPRMC,230525.000,A,3248.5497,N,11709.1785,W,62.80,196.00,150110,,,A*4E
$GPRMC,230530.000,A,3248.4659,N,11709.2086,W,60.50,196.00,150110,,,A*43
$GPRMC,230534.000,A,3248.4060,N,11709.2306,W,60.60,196.00,150110,,,A*43
$GPRMC,230535.000,A,3248.3824,N,11709.2386,W,60.00,196.00,150110,,,A*43
$GPRMC,230540.000,A,3248.3060,N,11709.2650,W,59.10,196.00,150110,,,A*4C
$GPRMC,230544.000,A,3248.2387,N,11709.2889,W,57.40,196.00,150110,,,A*42
$GPRMC,230548.000,A,3248.1848,N,11709.3078,W,58.40,196.00,150110,,,A*4D
$GPRMC,230552.000,A,3248.1180,N,11709.3321,W,58.50,194.00,150110,,,A*47
$GPRMC,230558.000,A,3248.0251,N,11709.3668,W,57.70,196.00,150110,,,A*44
$GPRMC,230602.000,A,3247.9673,N,11709.3885,W,58.20,196.00,150110,,,A*4D
$GPRMC,230606.000,A,3247.9003,N,11709.4125,W,58.80,196.00,150110,,,A*46
$GPRMC,230610.000,A,3247.8445,N,11709.4322,W,58.30,196.00,150110,,,A*48
$GPRMC,230614.000,A,3247.7793,N,11709.4555,W,57.30,196.00,150110,,,A*42
$GPRMC,230618.000,A,3247.7256,N,11709.4749,W,57.00,196.00,150110,,,A*4E
$GPRMC,230622.000,A,3247.6603,N,11709.4979,W,58.00,196.00,150110,,,A*40
$GPRMC,230626.000,A,3247.5927,N,11709.5228,W,58.50,196.00,150110,,,A*45
$GPRMC,230630.000,A,3247.5353,N,11709.5433,W,58.40,196.00,150110,,,A*46
$GPRMC,230634.000,A,3247.4770,N,11709.5640,W,59.50,196.00,150110,,,A*40
$GPRMC,230638.000,A,3247.4054,N,11709.5901,W,60.50,196.00,150110,,,A*4D
$GPRMC,230642.000,A,3247.3458,N,11709.6123,W,60.90,198.00,150110,,,A*46
$GPRMC,230646.000,A,3247.2752,N,11709.6379,W,60.00,196.00,150110,,,A*40
$GPRMC,230650.000,A,3247.2162,N,11709.6601,W,59.40,196.00,150110,,,A*46
$GPRMC,230654.000,A,3247.1500,N,11709.6869,W,60.60,198.00,150110,,,A*47
$GPRMC,230658.000,A,3247.0798,N,11709.7130,W,61.40,196.00,150110,,,A*40
$GPRMC,230703.000,A,3247.0104,N,11709.7391,W,62.30,198.00,150110,,,A*4F
$GPRMC,230709.000,A,3246.9107,N,11709.7753,W,62.70,196.00,150110,,,A*4E
$GPRMC,230712.000,A,3246.8485,N,11709.7893,W,62.70,190.00,150110,,,A*4F
$GPRMC,230716.000,A,3246.7834,N,11709.7945,W,62.30,182.00,150110,,,A*4F
$GPRMC,230718.000,A,3246.7429,N,11709.7927,W,62.40,176.00,150110,,,A*49
$GPRMC,230723.000,A,3246.6646,N,11709.7797,W,61.20,168.00,150110,,,A*44
$GPRMC,230726.000,A,3246.6048,N,11709.7592,W,60.80,162.00,150110,,,A*4F
$GPRMC,230728.000,A,3246.5690,N,11709.7428,W,60.90,158.00,150110,,,A*49
$GPRMC,230732.000,A,3246.5103,N,11709.7135,W,61.10,158.00,150110,,,A*4F
$GPRMC,230736.000,A,3246.4389,N,11709.6880,W,61.40,166.00,150110,,,A*44
$GPRMC,230741.000,A,3246.3663,N,11709.6788,W,59.80,176.00,150110,,,A*43
$GPRMC,230744.000,A,3246.3047,N,11709.6923,W,59.70,188.00,150110,,,A*47
$GPRMC,230745.000,A,3246.2948,N,11709.6952,W,60.40,190.00,150110,,,A*47
$GPRMC,230751.000,A,3246.2002,N,11709.7225,W,62.30,192.00,150110,,,A*48
$GPRMC,230752.000,A,3246.1757,N,11709.7286,W,62.10,190.00,150110,,,A*46
$GPRMC,230756.000,A,3246.1180,N,11709.7428,W,61.60,190.00,150110,,,A*48
$GPRMC,230800.000,A,3246.0479,N,11709.7599,W,57.80,190.00,150110,,,A*46
$GPRMC,230805.000,A,3245.9838,N,11709.7797,W,54.90,192.00,150110,,,A*4C
$GPRMC,230808.000,A,3245.9312,N,11709.7919,W,53.30,192.00,150110,,,A*47
$GPRMC,230810.000,A,3245.8997,N,11709.7997,W,53.60,192.00,150110,,,A*4B
$GPRMC,230815.000,A,3245.8354,N,11709.8167,W,53.20,192.00,150110,,,A*47
$GPRMC,230816.000,A,3245.8138,N,11709.8220,W,52.20,190.00,150110,,,A*4F
$GPRMC,230821.000,A,3245.7535,N,11709.8249,W,50.30,186.00,150110,,,A*46
$GPRMC,230825.000,A,3245.6920,N,11709.8122,W,49.40,174.00,150110,,,A*47
$GPRMC,230829.000,A,3245.6342,N,11709.7916,W,50.30,158.00,150110,,,A*44
$GPRMC,230833.000,A,3245.5857,N,11709.7612,W,53.10,156.00,150110,,,A*47
$GPRMC,230834.000,A,3245.5685,N,11709.7445,W,53.10,144.00,150110,,,A*42
$GPRMC,230839.000,A,3245.5159,N,11709.6836,W,49.70,138.00,150110,,,A*46
$GPRMC,230843.000,A,3245.4789,N,11709.6410,W,50.70,138.00,150110,,,A*41
$GPRMC,230847.000,A,3245.4347,N,11709.5912,W,51.20,138.00,150110,,,A*4B
$GPRMC,230851.000,A,3245.3849,N,11709.5535,W,52.10,150.00,150110,,,A*49
$GPRMC,230855.000,A,3245.3351,N,11709.5310,W,51.00,158.00,150110,,,A*44
$GPRMC,230859.000,A,3245.2759,N,11709.5131,W,52.30,164.00,150110,,,A*4B
$GPRMC,230900.000,A,3245.2543,N,11709.5083,W,52.30,164.00,150110,,,A*47
$GPRMC,230905.000,A,3245.1931,N,11709.4795,W,52.20,160.00,150110,,,A*4C
$GPRMC,230908.000,A,3245.1516,N,11709.4428,W,52.20,142.00,150110,,,A*4D
$GPRMC,230913.000,A,3245.1077,N,11709.3765,W,52.70,130.00,150110,,,A*48
$GPRMC,230917.000,A,3245.0659,N,11709.3363,W,53.60,150.00,150110,,,A*43
$GPRMC,230921.000,A,3245.0074,N,11709.3142,W,50.80,168.00,150110,,,A*48
$GPRMC,230926.000,A,3244.9476,N,11709.3310,W,49.00,194.00,150110,,,A*47
$GPRMC,230930.000,A,3244.8838,N,11709.3527,W,50.10,196.00,150110,,,A*4E
$GPRMC,230935.000,A,3244.8144,N,11709.3812,W,51.60,194.00,150110,,,A*46
$GPRMC,230939.000,A,3244.7612,N,11709.3942,W,51.70,186.00,150110,,,A*47
$GPRMC,230943.000,A,3244.6969,N,11709.3928,W,52.40,180.00,150110,,,A*42
$GPRMC,230947.000,A,3244.6408,N,11709.3882,W,56.00,178.00,150110,,,A*4A
$GPRMC,230949.000,A,3244.6063,N,11709.3890,W,57.40,182.00,150110,,,A*4E
$GPRMC,230954.000,A,3244.5251,N,11709.3980,W,59.50,184.00,150110,,,A*4B
$GPRMC,230959.000,A,3244.4347,N,11709.4005,W,59.70,180.00,150110,,,A*44
$GPRMC,231004.000,A,3244.3518,N,11709.3908,W,58.80,174.00,150110,,,A*49
$GPRMC,231009.000,A,3244.2765,N,11709.3727,W,59.10,172.00,150110,,,A*40
$GPRMC,231012.000,A,3244.2288,N,11709.3662,W,59.20,174.00,150110,,,A*49
$GPRMC,231014.000,A,3244.1950,N,11709.3626,W,58.50,174.00,150110,,,A*44
$GPRMC,231020.000,A,3244.1046,N,11709.3600,W,57.40,178.00,150110,,,A*4B
$GPRMC,231022.000,A,3244.0594,N,11709.3583,W,56.60,176.00,150110,,,A*47
$GPRMC,231027.000,A,3243.9833,N,11709.3363,W,55.00,158.00,150110,,,A*4D
$GPRMC,231032.000,A,3243.9246,N,11709.3031,W,55.00,156.00,150110,,,A*4B
$GPRMC,231035.000,A,3243.8847,N,11709.2815,W,54.60,158.00,150110,,,A*40
$GPRMC,231037.000,A,3243.8440,N,11709.2755,W,53.70,172.00,150110,,,A*4C
$GPRMC,231041.000,A,3243.7891,N,11709.2838,W,54.60,184.00,150110,,,A*49
$GPRMC,231045.000,A,3243.7314,N,11709.3084,W,58.70,204.00,150110,,,A*43
$GPRMC,231049.000,A,3243.6667,N,11709.3434,W,59.10,202.00,150110,,,A*41
$GPRMC,231054.000,A,3243.5990,N,11709.3706,W,59.10,194.00,150110,,,A*47
$GPRMC,231057.000,A,3243.5404,N,11709.3677,W,58.60,178.00,150110,,,A*47
$GPRMC,231059.000,A,3243.5058,N,11709.3611,W,58.20,174.00,150110,,,A*4C
$GPRMC,231103.000,A,3243.4513,N,11709.3414,W,53.30,170.00,150110,,,A*40
$GPRMC,231108.000,A,3243.3842,N,11709.3267,W,54.60,172.00,150110,,,A*47
$GPRMC,231111.000,A,3243.3341,N,11709.3226,W,54.20,174.00,150110,,,A*40
$GPRMC,231116.000,A,3243.2624,N,11709.3257,W,51.90,176.00,150110,,,A*4A
$GPRMC,231119.000,A,3243.2148,N,11709.3395,W,50.30,194.00,150110,,,A*40
$GPRMC,231123.000,A,3243.1791,N,11709.3577,W,36.90,198.00,150110,,,A*44
$GPRMC,231149.000,A,3243.1953,N,11709.3979,W,0.00,236.00,150110,,,A*71
$GPRMC,231154.000,A,3243.1965,N,11709.4248,W,17.00,276.00,150110,,,A*44
$GPRMC,231204.000,A,3243.1988,N,11709.4547,W,14.00,276.00,150110,,,A*4A
$GPRMC,231208.000,A,3243.1993,N,11709.4765,W,16.70,272.00,150110,,,A*4F
$GPRMC,231212.000,A,3243.1918,N,11709.4979,W,16.00,246.00,150110,,,A*44
$GPRMC,231215.000,A,3243.1885,N,11709.5140,W,15.20,266.00,150110,,,A*46
$GPRMC,231217.000,A,3243.1879,N,11709.5250,W,16.00,266.00,150110,,,A*44
$GPRMC,231221.000,A,3243.1871,N,11709.5441,W,15.30,266.00,150110,,,A*4F
$GPRMC,231226.000,A,3243.1890,N,11709.5672,W,15.20,268.00,150110,,,A*4A
$GPRMC,231230.000,A,3243.1907,N,11709.5875,W,18.10,268.00,150110,,,A*45
$GPRMC,231234.000,A,3243.1926,N,11709.6169,W,19.70,268.00,150110,,,A*42
$GPRMC,231238.000,A,3243.1935,N,11709.6410,W,18.40,268.00,150110,,,A*45
$GPRMC,231257.000,A,3243.1945,N,11709.6590,W,0.00,270.00,150110,,,A*76
$GPRMC,231302.000,A,3243.1943,N,11709.6729,W,17.00,266.00,150110,,,A*40
$GPRMC,231306.000,A,3243.1929,N,11709.6969,W,17.70,268.00,150110,,,A*4B
$GPRMC,231310.000,A,3243.1910,N,11709.7152,W,12.60,266.00,150110,,,A*4D
$GPRMC,231314.000,A,3243.1903,N,11709.7314,W,13.70,266.00,150110,,,A*4B
$GPRMC,231318.000,A,3243.1902,N,11709.7493,W,12.40,268.00,150110,,,A*42
$GPRMC,231322.000,A,3243.1910,N,11709.7543,W,5.50,268.00,150110,,,A*73
$GPRMC,231336.000,A,3243.1913,N,11709.7559,W,0.00,268.00,150110,,,A*7E
$GPRMC,231337.000,A,3243.1921,N,11709.7779,W,18.10,268.00,150110,,,A*46
$GPRMC,231342.000,A,3243.1914,N,11709.8168,W,23.90,266.00,150110,,,A*45
$GPRMC,231346.000,A,3243.1907,N,11709.8445,W,21.50,268.00,150110,,,A*49
$GPRMC,231350.000,A,3243.1920,N,11709.8651,W,11.30,272.00,150110,,,A*42
$GPRMC,231402.000,A,3243.1911,N,11709.8736,W,10.60,270.00,150110,,,A*46
$GPRMC,231406.000,A,3243.1904,N,11709.8980,W,19.60,268.00,150110,,,A*45
$GPRMC,231410.000,A,3243.1892,N,11709.9244,W,21.20,268.00,150110,,,A*41
$GPRMC,231414.000,A,3243.1885,N,11709.9555,W,20.40,266.00,150110,,,A*4D
$GPRMC,231418.000,A,3243.1890,N,11709.9783,W,19.10,270.00,150110,,,A*44
$GPRMC,231422.000,A,3243.1882,N,11709.9944,W,13.00,268.00,150110,,,A*49
$GPRMC,231426.000,A,3243.1887,N,11710.0093,W,14.70,270.00,150110,,,A*43
$GPRMC,231430.000,A,3243.1895,N,11710.0337,W,16.30,268.00,150110,,,A*45
$GPRMC,231434.000,A,3243.1842,N,11710.0469,W,12.30,242.00,150110,,,A*4B
$GPRMC,231438.000,A,3243.1690,N,11710.0486,W,12.40,184.00,150110,,,A*49
$GPRMC,231442.000,A,3243.1568,N,11710.0479,W,9.10,182.00,150110,,,A*79
$GPRMC,231446.000,A,3243.1539,N,11710.0473,W,0.00,180.00,150110,,,A*79
$GPRMC,231448.000,A,3243.1509,N,11710.0472,W,5.70,180.00,150110,,,A*77
$GPRMC,231452.000,A,3243.1403,N,11710.0471,W,13.10,180.00,150110,,,A*45
$GPRMC,231456.000,A,3243.1250,N,11710.0480,W,12.40,180.00,150110,,,A*4B
$GPRMC,231500.000,A,3243.1080,N,11710.0484,W,17.00,182.00,150110,,,A*41
$GPRMC,231504.000,A,3243.0864,N,11710.0464,W,12.60,180.00,150110,,,A*49
$GPRMC,231529.000,A,3243.0416,N,11710.0445,W,5.90,176.00,150110,,,A*7C
$GPRMC,231534.000,A,3243.0197,N,11710.0429,W,11.90,172.00,150110,,,A*47
$GPRMC,231543.000,A,3243.0029,N,11710.0462,W,0.00,174.00,150110,,,A*73
$GPRMC,231546.000,A,3242.9925,N,11710.0473,W,5.90,184.00,150110,,,A*78
$GPRMC,231551.000,A,3242.9776,N,11710.0485,W,9.20,182.00,150110,,,A*7E
$GPRMC,231554.000,A,3242.9673,N,11710.0477,W,9.50,182.00,150110,,,A*75
$GPRMC,231603.000,A,3242.9466,N,11710.0577,W,5.40,254.00,150110,,,A*76
$GPRMC,231608.000,A,3242.9420,N,11710.0820,W,9.70,260.00,150110,,,A*78
$GPRMC,231613.000,A,3242.9410,N,11710.1031,W,12.60,262.00,150110,,,A*41
$GPRMC,231616.000,A,3242.9401,N,11710.1247,W,15.70,266.00,150110,,,A*45
$GPRMC,231621.000,A,3242.9377,N,11710.1464,W,13.20,266.00,150110,,,A*43
$GPRMC,231624.000,A,3242.9375,N,11710.1663,W,16.60,278.00,150110,,,A*4F
$GPRMC,231726.000,A,3242.9477,N,11710.1794,W,0.00,300.00,150110,,,A*7F
$GPRMC,231731.000,A,3242.9410,N,11710.1957,W,13.30,254.00,150110,,,A*48
$GPRMC,231734.000,A,3242.9417,N,11710.2144,W,13.30,260.00,150110,,,A*44
$GPRMC,231739.000,A,3242.9432,N,11710.2367,W,13.30,266.00,150110,,,A*4B
$GPRMC,231742.000,A,3242.9441,N,11710.2518,W,12.30,266.00,150110,,,A*4C
$GPRMC,231841.000,A,3242.9639,N,11710.2529,W,16.50,358.00,150110,,,A*41
$GPRMC,231842.000,A,3242.9719,N,11710.2540,W,17.90,358.00,150110,,,A*43
$GPRMC,231847.000,A,3242.9972,N,11710.2553,W,19.20,358.00,150110,,,A*42
$GPRMC,231848.000,A,3243.0060,N,11710.2558,W,20.40,358.00,150110,,,A*48
$GPRMC,231853.000,A,3243.0356,N,11710.2579,W,24.60,358.00,150110,,,A*41
$GPRMC,231854.000,A,3243.0464,N,11710.2585,W,26.20,358.00,150110,,,A*45
$GPRMC,231859.000,A,3243.0817,N,11710.2599,W,27.30,358.00,150110,,,A*4D
$GPRMC,231900.000,A,3243.0942,N,11710.2599,W,28.00,358.00,150110,,,A*4D
$GPRMC,231904.000,A,3243.1253,N,11710.2598,W,27.70,358.00,150110,,,A*4A
$GPRMC,231909.000,A,3243.1511,N,11710.2590,W,15.50,358.00,150110,,,A*4D
$GPRMC,231913.000,A,3243.1673,N,11710.2590,W,15.70,358.00,150110,,,A*43
$GPRMC,231914.000,A,3243.1747,N,11710.2590,W,16.50,358.00,150110,,,A*43
$GPRMC,231918.000,A,3243.1978,N,11710.2590,W,23.10,358.00,150110,,,A*4F
$GPRMC,231923.000,A,3243.2285,N,11710.2593,W,24.30,358.00,150110,,,A*4B
$GPRMC,231924.000,A,3243.2387,N,11710.2591,W,23.50,358.00,150110,,,A*4C
$GPRMC,231929.000,A,3243.2681,N,11710.2591,W,21.40,358.00,150110,,,A*41
$GPRMC,232001.000,A,3243.2819,N,11710.2599,W,0.00,358.00,150110,,,A*71
$GPRMC,232005.000,A,3243.2937,N,11710.2599,W,13.00,358.00,150110,,,A*4A
$GPRMC,232009.000,A,3243.3135,N,11710.2607,W,18.70,356.00,150110,,,A*4B
$GPRMC,232013.000,A,3243.3373,N,11710.2633,W,23.60,352.00,150110,,,A*4A
$GPRMC,232017.000,A,3243.3681,N,11710.2690,W,23.20,350.00,150110,,,A*49
$GPRMC,232021.000,A,3243.3915,N,11710.2738,W,22.50,350.00,150110,,,A*4B
$GPRMC,232025.000,A,3243.4135,N,11710.2784,W,21.00,350.00,150110,,,A*43
$GPRMC,232029.000,A,3243.4382,N,11710.2834,W,19.00,350.00,150110,,,A*4E
$GPRMC,232117.000,A,3243.4737,N,11710.2910,W,10.20,346.00,150110,,,A*43
$GPRMC,232121.000,A,3243.4952,N,11710.2981,W,18.80,342.00,150110,,,A*45
$GPRMC,232125.000,A,3243.5160,N,11710.3080,W,20.10,338.00,150110,,,A*4F
$GPRMC,232129.000,A,3243.5414,N,11710.3204,W,22.90,338.00,150110,,,A*41
$GPRMC,232133.000,A,3243.5770,N,11710.3359,W,29.20,340.00,150110,,,A*4D
$GPRMC,232137.000,A,3243.6081,N,11710.3491,W,29.20,340.00,150110,,,A*40
$GPRMC,232141.000,A,3243.6375,N,11710.3615,W,28.60,338.00,150110,,,A*4D
$GPRMC,232145.000,A,3243.6724,N,11710.3766,W,29.00,340.00,150110,,,A*44
$GPRMC,232149.000,A,3243.7009,N,11710.3887,W,29.00,340.00,150110,,,A*41
$GPRMC,232151.000,A,3243.7177,N,11710.3956,W,29.00,340.00,150110,,,A*4D
$GPRMC,232155.000,A,3243.7453,N,11710.4065,W,28.90,342.00,150110,,,A*4E
$GPRMC,232159.000,A,3243.7777,N,11710.4194,W,28.40,340.00,150110,,,A*47
$GPRMC,232203.000,A,3243.8042,N,11710.4312,W,29.00,340.00,150110,,,A*4C
$GPRMC,232207.000,A,3243.8408,N,11710.4471,W,31.90,340.00,150110,,,A*40
$GPRMC,232211.000,A,3243.8746,N,11710.4623,W,34.10,338.00,150110,,,A*49
$GPRMC,232215.000,A,3243.9087,N,11710.4780,W,33.90,338.00,150110,,,A*41
$GPRMC,232217.000,A,3243.9282,N,11710.4883,W,33.30,336.00,150110,,,A*4C
$GPRMC,232222.000,A,3243.9582,N,11710.5048,W,28.70,334.00,150110,,,A*4F
$GPRMC,232225.000,A,3243.9671,N,11710.5107,W,11.50,334.00,150110,,,A*45
$GPRMC,232227.000,A,3243.9713,N,11710.5083,W,10.90,336.00,150110,,,A*40
$GPRMC,232230.000,A,3243.9760,N,11710.5003,W,11.30,24.00,150110,,,A*71
$GPRMC,232234.000,A,3243.9814,N,11710.4837,W,9.40,52.00,150110,,,A*48
$GPRMC,232239.000,A,3243.9863,N,11710.4700,W,11.20,56.00,150110,,,A*75
$GPRMC,232241.000,A,3243.9901,N,11710.4615,W,11.20,56.00,150110,,,A*7A
$GPRMC,232246.000,A,3243.9963,N,11710.4506,W,10.60,52.00,150110,,,A*79
$GPRMC,232250.000,A,3244.0045,N,11710.4398,W,9.50,50.00,150110,,,A*45
$GPRMC,232315.000,A,3243.9561,N,11710.3992,W,0.00,52.00,150110,,,A*41
$GPRMC,232320.000,A,3243.9070,N,11710.3700,W,25.80,158.00,150110,,,A*43
$GPRMC,232324.000,A,3243.8680,N,11710.3520,W,25.40,158.00,150110,,,A*43
$GPRMC,232332.000,A,3243.8238,N,11710.3322,W,25.40,158.00,150110,,,A*47
$GPRMC,232335.000,A,3243.8232,N,11710.3327,W,12.60,158.00,150110,,,A*49
$GPRMC,232413.000,A,3243.8056,N,11710.3260,W,8.30,212.00,150110,,,A*7B
$GPRMC,232418.000,A,3243.7959,N,11710.3409,W,11.20,238.00,150110,,,A*41
$GPRMC,232419.000,A,3243.7945,N,11710.3456,W,9.60,244.00,150110,,,A*71
$GPRMC,232423.000,A,3243.7902,N,11710.3566,W,8.50,242.00,150110,,,A*7D
$GPRMC,232558.000,A,3243.7939,N,11710.3575,W,0.00,242.00,150110,,,A*77
$GPRMC,232602.000,A,3243.7869,N,11710.3937,W,12.90,246.00,150110,,,A*4B
$GPRMC,232607.000,A,3243.7944,N,11710.4146,W,15.60,332.00,150110,,,A*43
$GPRMC,232612.000,A,3243.8222,N,11710.4378,W,27.80,338.00,150110,,,A*49
$GPRMC,232616.000,A,3243.8599,N,11710.4567,W,33.10,338.00,150110,,,A*4E
$GPRMC,232620.000,A,3243.8971,N,11710.4738,W,35.10,338.00,150110,,,A*4F
$GPRMC,232624.000,A,3243.9386,N,11710.4971,W,34.80,332.00,150110,,,A*49
$GPRMC,232628.000,A,3243.9695,N,11710.5197,W,35.30,326.00,150110,,,A*4C
$GPRMC,232632.000,A,3244.0021,N,11710.5497,W,41.10,322.00,150110,,,A*40
$GPRMC,232636.000,A,3244.0441,N,11710.5884,W,41.40,322.00,150110,,,A*4D
$GPRMC,232640.000,A,3244.0776,N,11710.6175,W,38.50,324.00,150110,,,A*46
$GPRMC,232644.000,A,3244.1089,N,11710.6439,W,36.20,324.00,150110,,,A*40
$GPRMC,232648.000,A,3244.1409,N,11710.6721,W,26.60,324.00,150110,,,A*4F
$GPRMC,232700.000,A,3244.1630,N,11710.6911,W,10.60,322.00,150110,,,A*44
$GPRMC,232702.000,A,3244.1709,N,11710.6986,W,19.70,322.00,150110,,,A*4B
$GPRMC,232706.000,A,3244.1943,N,11710.7148,W,28.40,332.00,150110,,,A*44
$GPRMC,232710.000,A,3244.2302,N,11710.7307,W,32.10,338.00,150110,,,A*42
$GPRMC,232716.000,A,3244.2827,N,11710.7557,W,34.90,332.00,150110,,,A*4F
$GPRMC,232718.000,A,3244.3012,N,11710.7717,W,35.30,324.00,150110,,,A*44
$GPRMC,232722.000,A,3244.3269,N,11710.8064,W,35.50,306.00,150110,,,A*49
$GPRMC,232726.000,A,3244.3512,N,11710.8508,W,35.50,304.00,150110,,,A*4B
$GPRMC,232728.000,A,3244.3627,N,11710.8716,W,35.10,304.00,150110,,,A*49
$GPRMC,232732.000,A,3244.3803,N,11710.9071,W,34.80,300.00,150110,,,A*41
$GPRMC,232734.000,A,3244.3909,N,11710.9303,W,35.00,300.00,150110,,,A*43
$GPRMC,232738.000,A,3244.4101,N,11710.9694,W,35.60,302.00,150110,,,A*47
$GPRMC,232740.000,A,3244.4221,N,11710.9909,W,34.80,304.00,150110,,,A*4B
$GPRMC,232745.000,A,3244.4428,N,11711.0208,W,25.30,308.00,150110,,,A*44
$GPRMC,232748.000,A,3244.4567,N,11711.0373,W,21.50,320.00,150110,,,A*46
