NMEA Sentence Code,UTC Time,Status,Latitude,Latitude Direction,Longitude,Longitude Direction,Speed (knots),Track Angle (degrees true),Date,MagneticVariation,Magnetic Variation Direction,[FAA Mode]-Optional,Checksum
$GPRMC,164811.9,A,3347.629716,N,11629.876854,W,40.9,107.3,141010,,,A*40
$GPRMC,164814.9,A,3347.621697,N,11629.837251,W,40.2,106.6,141010,,,A*40
$GPRMC,164817.9,A,3347.612021,N,11629.796463,W,41.6,106.7,141010,,,A*4F
$GPRMC,164821.2,A,3347.601447,N,11629.747045,W,45.6,106.9,141010,,,A*41
$GPRMC,164824.9,A,3347.587299,N,11629.695109,W,45.5,108.7,141010,,,A*43
$GPRMC,164827.9,A,3347.578910,N,11629.660252,W,33.4,105.3,141010,,,A*44
$GPRMC,164830.9,A,3347.572126,N,11629.628177,W,32.9,102.9,141010,,,A*4C
$GPRMC,164833.9,A,3347.563110,N,11629.594651,W,36.5,105.3,141010,,,A*48
$GPRMC,164836.9,A,3347.554096,N,11629.555741,W,41.8,105.6,141010,,,A*43
$GPRMC,164839.9,A,3347.543169,N,11629.513554,W,44.4,106.8,141010,,,A*4B
$GPRMC,164842.9,A,3347.532689,N,11629.470518,W,45.4,108.1,141010,,,A*42
$GPRMC,164845.9,A,3347.518225,N,11629.426751,W,47.4,110.3,141010,,,A*4A
$GPRMC,164848.9,A,3347.505203,N,11629.381348,W,48.7,109.5,141010,,,A*4B
$GPRMC,164851.9,A,3347.495158,N,11629.332675,W,49.0,107.1,141010,,,A*49
$GPRMC,164854.2,A,3347.486127,N,11629.297145,W,48.8,108.3,141010,,,A*43
$GPRMC,164858.2,A,3347.467644,N,11629.238428,W,46.4,110.9,141010,,,A*48
$GPRMC,164901.9,A,3347.443713,N,11629.190821,W,47.0,117.5,141010,,,A*41
$GPRMC,164904.9,A,3347.425397,N,11629.153500,W,43.6,118.9,141010,,,A*4C
$GPRMC,164907.9,A,3347.406940,N,11629.114106,W,44.2,119.7,141010,,,A*43
$GPRMC,164910.9,A,3347.385033,N,11629.080444,W,42.0,126.1,141010,,,A*45
$GPRMC,164913.2,A,3347.367560,N,11629.056559,W,40.6,129.1,141010,,,A*4F
$GPRMC,164916.2,A,3347.346011,N,11629.025816,W,39.7,131.0,141010,,,A*4F
$GPRMC,164919.2,A,3347.326104,N,11628.997732,W,36.5,130.2,141010,,,A*45
$GPRMC,164922.2,A,3347.311774,N,11628.973026,W,25.8,124.5,141010,,,A*4D
$GPRMC,164926.2,A,3347.298763,N,11628.953352,W,13.3,123.7,141010,,,A*46
$GPRMC,164929.2,A,3347.296369,N,11628.947746,W,5.4,127.9,141010,,,A*77
$GPRMC,164938.2,A,3347.291091,N,11628.937844,W,16.1,126.1,141010,,,A*40
$GPRMC,164941.0,A,3347.282325,N,11628.923311,W,22.4,124.1,141010,,,A*4C
$GPRMC,164944.2,A,3347.268533,N,11628.898721,W,29.9,124.7,141010,,,A*48
$GPRMC,164947.2,A,3347.253346,N,11628.871805,W,35.4,124.4,141010,,,A*4A
$GPRMC,164950.2,A,3347.235990,N,11628.841467,W,37.4,124.9,141010,,,A*49
$GPRMC,164953.2,A,3347.218015,N,11628.810016,W,37.7,124.1,141010,,,A*4C
$GPRMC,164956.2,A,3347.200690,N,11628.778185,W,38.4,123.6,141010,,,A*4D
$GPRMC,164959.2,A,3347.183532,N,11628.746418,W,37.3,124.5,141010,,,A*41
$GPRMC,165002.2,A,3347.164504,N,11628.714782,W,39.7,124.0,141010,,,A*43
$GPRMC,165005.9,A,3347.140566,N,11628.674612,W,40.2,126.9,141010,,,A*42
$GPRMC,165008.2,A,3347.127741,N,11628.651186,W,34.6,124.7,141010,,,A*44
$GPRMC,165011.9,A,3347.108440,N,11628.617868,W,31.9,124.8,141010,,,A*46
$GPRMC,165015.2,A,3347.096954,N,11628.592948,W,26.2,122.8,141010,,,A*41
$GPRMC,165019.2,A,3347.083176,N,11628.571004,W,16.4,127.8,141010,,,A*4D
$GPRMC,165022.2,A,3347.079570,N,11628.563745,W,5.6,125.0,141010,,,A*79
$GPRMC,165041.2,A,3347.074097,N,11628.557406,W,7.6,113.8,141010,,,A*71
$GPRMC,165044.2,A,3347.065110,N,11628.544143,W,18.8,126.6,141010,,,A*44
$GPRMC,165047.2,A,3347.052853,N,11628.523270,W,26.5,124.1,141010,,,A*4A
$GPRMC,165050.9,A,3347.036920,N,11628.493950,W,30.1,126.4,141010,,,A*47
$GPRMC,165053.9,A,3347.016500,N,11628.461823,W,39.7,125.0,141010,,,A*48
$GPRMC,165056.2,A,3347.001281,N,11628.434424,W,41.8,124.0,141010,,,A*44
$GPRMC,165059.2,A,3346.981049,N,11628.399228,W,42.0,124.3,141010,,,A*4F
$GPRMC,165102.2,A,3346.960576,N,11628.365978,W,39.2,125.0,141010,,,A*47
$GPRMC,165105.2,A,3346.943074,N,11628.335921,W,32.6,124.2,141010,,,A*43
$GPRMC,165108.2,A,3346.930140,N,11628.312045,W,24.3,123.6,141010,,,A*43
$GPRMC,165111.9,A,3346.918069,N,11628.293147,W,16.6,129.5,141010,,,A*46
$GPRMC,165114.9,A,3346.911626,N,11628.284065,W,9.6,132.5,141010,,,A*74
$GPRMC,165117.9,A,3346.908219,N,11628.277179,W,8.7,133.5,141010,,,A*76
$GPRMC,165120.9,A,3346.903726,N,11628.263222,W,18.1,121.2,141010,,,A*4B
$GPRMC,165123.9,A,3346.893423,N,11628.240136,W,27.6,118.9,141010,,,A*4B
$GPRMC,165126.9,A,3346.883099,N,11628.209349,W,34.0,114.8,141010,,,A*44
$GPRMC,165129.2,A,3346.875263,N,11628.185036,W,34.3,113.0,141010,,,A*4E
$GPRMC,165132.2,A,3346.862338,N,11628.152030,W,35.6,112.4,141010,,,A*40
$GPRMC,165135.9,A,3346.850447,N,11628.108718,W,38.0,109.9,141010,,,A*4C
$GPRMC,165138.9,A,3346.841285,N,11628.072298,W,37.6,108.0,141010,,,A*49
$GPRMC,165141.9,A,3346.829363,N,11628.037370,W,37.3,110.1,141010,,,A*4B
$GPRMC,165144.2,A,3346.822724,N,11628.011499,W,34.8,107.4,141010,,,A*46
$GPRMC,165147.2,A,3346.812712,N,11627.977003,W,36.9,107.6,141010,,,A*43
$GPRMC,165151.2,A,3346.800849,N,11627.927090,W,38.9,108.6,141010,,,A*48
$GPRMC,165154.9,A,3346.788113,N,11627.883041,W,39.1,108.1,141010,,,A*42
$GPRMC,165157.2,A,3346.781531,N,11627.855588,W,38.4,105.6,141010,,,A*42
$GPRMC,165200.2,A,3346.771269,N,11627.818476,W,36.2,106.6,141010,,,A*44
$GPRMC,165203.2,A,3346.761143,N,11627.786376,W,35.7,108.8,141010,,,A*44
$GPRMC,165207.2,A,3346.749643,N,11627.736388,W,37.0,107.7,141010,,,A*42
$GPRMC,165210.2,A,3346.739356,N,11627.703624,W,37.0,109.7,141010,,,A*49
$GPRMC,165214.2,A,3346.725778,N,11627.656671,W,36.2,108.4,141010,,,A*48
$GPRMC,165217.9,A,3346.714142,N,11627.613627,W,38.3,108.7,141010,,,A*43
$GPRMC,165220.2,A,3346.706242,N,11627.585015,W,38.8,108.2,141010,,,A*49
$GPRMC,165223.9,A,3346.688964,N,11627.536955,W,41.7,114.7,141010,,,A*45
$GPRMC,165226.9,A,3346.676704,N,11627.500471,W,39.7,112.9,141010,,,A*40
$GPRMC,165229.9,A,3346.664177,N,11627.466322,W,39.1,114.8,141010,,,A*4F
$GPRMC,165232.9,A,3346.644132,N,11627.431072,W,42.3,119.4,141010,,,A*4D
$GPRMC,165235.9,A,3346.628146,N,11627.393881,W,41.7,118.7,141010,,,A*4D
$GPRMC,165238.9,A,3346.615525,N,11627.354414,W,42.5,114.9,141010,,,A*47
$GPRMC,165241.9,A,3346.601342,N,11627.309839,W,45.0,111.2,141010,,,A*4C
$GPRMC,165244.2,A,3346.593986,N,11627.278333,W,42.2,106.6,141010,,,A*49
$GPRMC,165247.2,A,3346.586349,N,11627.237290,W,42.2,102.6,141010,,,A*40
$GPRMC,165251.2,A,3346.579675,N,11627.180909,W,42.0,99.5,141010,,,A*7B
$GPRMC,165254.2,A,3346.571361,N,11627.141428,W,41.0,103.4,141010,,,A*45
$GPRMC,165257.2,A,3346.557043,N,11627.103953,W,41.4,115.6,141010,,,A*47
$GPRMC,165300.9,A,3346.534560,N,11627.059878,W,43.9,121.7,141010,,,A*41
$GPRMC,165303.9,A,3346.515101,N,11627.024784,W,42.8,122.8,141010,,,A*48
$GPRMC,165306.9,A,3346.493226,N,11626.990384,W,41.9,125.5,141010,,,A*4F
$GPRMC,165310.2,A,3346.470130,N,11626.954153,W,41.1,127.9,141010,,,A*4C
$GPRMC,165313.9,A,3346.440815,N,11626.919897,W,40.4,135.2,141010,,,A*4D
$GPRMC,165316.9,A,3346.419674,N,11626.894439,W,33.7,139.8,141010,,,A*40
$GPRMC,165319.9,A,3346.401546,N,11626.876065,W,26.6,142.8,141010,,,A*4C
$GPRMC,165322.9,A,3346.383758,N,11626.866951,W,22.4,152.2,141010,,,A*46
$GPRMC,165325.9,A,3346.367824,N,11626.863578,W,16.9,160.9,141010,,,A*4D
$GPRMC,165328.9,A,3346.355616,N,11626.857253,W,16.9,158.7,141010,,,A*42
$GPRMC,165331.9,A,3346.342135,N,11626.847792,W,20.8,154.4,141010,,,A*48
$GPRMC,165334.9,A,3346.323707,N,11626.838076,W,25.4,155.1,141010,,,A*45
$GPRMC,165337.9,A,3346.299092,N,11626.828418,W,29.9,161.5,141010,,,A*42
$GPRMC,165340.9,A,3346.270425,N,11626.818265,W,34.3,163.3,141010,,,A*40
$GPRMC,165343.9,A,3346.240465,N,11626.807869,W,35.9,164.4,141010,,,A*47
$GPRMC,165346.9,A,3346.213422,N,11626.798700,W,36.3,164.0,141010,,,A*43
$GPRMC,165349.9,A,3346.178850,N,11626.789255,W,41.7,164.8,141010,,,A*42
$GPRMC,165352.9,A,3346.144800,N,11626.778141,W,43.7,163.5,141010,,,A*42
$GPRMC,165355.9,A,3346.109929,N,11626.763834,W,43.1,159.4,141010,,,A*49
$GPRMC,165358.9,A,3346.078271,N,11626.746937,W,41.4,156.6,141010,,,A*4A
$GPRMC,165401.9,A,3346.048239,N,11626.730935,W,39.5,155.5,141010,,,A*43
$GPRMC,165404.9,A,3346.021236,N,11626.711532,W,39.0,152.4,141010,,,A*4D
$GPRMC,165407.9,A,3345.992960,N,11626.688710,W,40.0,149.8,141010,,,A*4F
$GPRMC,165410.9,A,3345.962117,N,11626.669336,W,41.4,152.1,141010,,,A*47
$GPRMC,165413.2,A,3345.935814,N,11626.654759,W,42.4,152.8,141010,,,A*4E
$GPRMC,165416.9,A,3345.899048,N,11626.633550,W,42.1,150.8,141010,,,A*4B
$GPRMC,165419.9,A,3345.866518,N,11626.610548,W,45.2,149.8,141010,,,A*40
$GPRMC,165422.9,A,3345.831648,N,11626.588346,W,45.9,153.3,141010,,,A*4D
$GPRMC,165425.9,A,3345.795991,N,11626.567155,W,46.6,153.8,141010,,,A*46
$GPRMC,165428.9,A,3345.759493,N,11626.546529,W,47.0,154.6,141010,,,A*46
$GPRMC,165431.9,A,3345.724717,N,11626.523972,W,47.3,150.8,141010,,,A*43
$GPRMC,165434.2,A,3345.708294,N,11626.502449,W,42.4,141.6,141010,,,A*47
$GPRMC,165437.2,A,3345.683236,N,11626.473940,W,44.0,137.4,141010,,,A*4C
$GPRMC,165440.2,A,3345.656386,N,11626.442806,W,45.6,134.9,141010,,,A*46
$GPRMC,165443.2,A,3345.632197,N,11626.406755,W,46.0,129.1,141010,,,A*4D
$GPRMC,165446.2,A,3345.607798,N,11626.371112,W,46.1,128.9,141010,,,A*4D
$GPRMC,165449.9,A,3345.578323,N,11626.329408,W,44.5,130.0,141010,,,A*43
$GPRMC,165452.2,A,3345.559280,N,11626.304607,W,43.3,131.5,141010,,,A*4E
$GPRMC,165455.2,A,3345.537396,N,11626.268209,W,45.0,128.5,141010,,,A*4B
$GPRMC,165458.9,A,3345.508131,N,11626.224337,W,45.1,128.1,141010,,,A*4F
$GPRMC,165501.9,A,3345.485748,N,11626.190392,W,43.7,129.1,141010,,,A*4C
$GPRMC,165504.9,A,3345.461955,N,11626.156392,W,44.3,130.2,141010,,,A*43
$GPRMC,165507.2,A,3345.442399,N,11626.130712,W,43.5,130.7,141010,,,A*48
$GPRMC,165510.2,A,3345.420235,N,11626.096926,W,43.7,129.6,141010,,,A*42
$GPRMC,165513.2,A,3345.397642,N,11626.062120,W,44.5,129.1,141010,,,A*49
$GPRMC,165516.9,A,3345.372376,N,11626.018130,W,43.4,127.4,141010,,,A*4F
$GPRMC,165519.2,A,3345.353093,N,11625.994639,W,40.9,130.6,141010,,,A*4A
$GPRMC,165522.2,A,3345.326709,N,11625.964872,W,42.2,134.8,141010,,,A*49
$GPRMC,165525.2,A,3345.301851,N,11625.934907,W,43.2,135.8,141010,,,A*4F
$GPRMC,165528.9,A,3345.266608,N,11625.900737,W,44.3,139.4,141010,,,A*47
$GPRMC,165531.9,A,3345.239048,N,11625.871795,W,44.5,139.0,141010,,,A*4A
$GPRMC,165534.9,A,3345.210588,N,11625.842027,W,45.5,140.1,141010,,,A*4D
$GPRMC,165537.9,A,3345.183164,N,11625.810370,W,45.7,138.6,141010,,,A*4D
$GPRMC,165540.9,A,3345.154272,N,11625.781847,W,44.5,140.1,141010,,,A*40
$GPRMC,165543.9,A,3345.125381,N,11625.756264,W,43.0,140.8,141010,,,A*42
$GPRMC,165546.9,A,3345.098680,N,11625.728541,W,42.2,139.4,141010,,,A*4C
$GPRMC,165550.2,A,3345.070741,N,11625.697459,W,40.6,136.5,141010,,,A*4F
$GPRMC,165553.0,A,3345.052034,N,11625.668952,W,39.3,129.2,141010,,,A*4F
$GPRMC,165556.9,A,3345.032243,N,11625.621750,W,41.4,119.4,141010,,,A*4B
$GPRMC,165559.9,A,3345.016876,N,11625.582722,W,43.7,114.7,141010,,,A*4E
$GPRMC,165602.9,A,3345.005634,N,11625.538913,W,45.5,111.1,141010,,,A*43
$GPRMC,165605.9,A,3344.983274,N,11625.501951,W,44.9,119.1,141010,,,A*4B
$GPRMC,165608.2,A,3344.968973,N,11625.473170,W,43.8,124.8,141010,,,A*4A
$GPRMC,165611.2,A,3344.948672,N,11625.437498,W,42.9,125.5,141010,,,A*41
$GPRMC,165614.2,A,3344.929623,N,11625.403320,W,40.7,126.1,141010,,,A*4F
$GPRMC,165617.9,A,3344.904835,N,11625.364638,W,38.8,126.2,141010,,,A*48
$GPRMC,165620.9,A,3344.882729,N,11625.333462,W,40.6,127.9,141010,,,A*45
$GPRMC,165623.2,A,3344.870832,N,11625.305636,W,41.1,123.1,141010,,,A*49
$GPRMC,165626.9,A,3344.850002,N,11625.263677,W,41.4,121.2,141010,,,A*4E
$GPRMC,165629.9,A,3344.835255,N,11625.223781,W,42.6,117.4,141010,,,A*4C
$GPRMC,165632.9,A,3344.814604,N,11625.191047,W,41.1,121.5,141010,,,A*42
$GPRMC,165635.9,A,3344.792695,N,11625.158891,W,42.2,124.2,141010,,,A*48
$GPRMC,165638.9,A,3344.780804,N,11625.116225,W,42.6,115.7,141010,,,A*4C
$GPRMC,165641.9,A,3344.761748,N,11625.078209,W,41.9,120.1,141010,,,A*41
$GPRMC,165644.9,A,3344.745560,N,11625.045092,W,40.4,119.4,141010,,,A*47
$GPRMC,165647.9,A,3344.727217,N,11625.012344,W,38.8,121.1,141010,,,A*40
$GPRMC,165650.9,A,3344.709408,N,11624.979866,W,38.3,123.7,141010,,,A*43
$GPRMC,165653.2,A,3344.697112,N,11624.956778,W,33.8,123.2,141010,,,A*4B
$GPRMC,165656.0,A,3344.679175,N,11624.932352,W,36.1,134.0,141010,,,A*4B
$GPRMC,165659.9,A,3344.651492,N,11624.898304,W,34.2,137.4,141010,,,A*4F
$GPRMC,165702.9,A,3344.628442,N,11624.878302,W,34.3,142.7,141010,,,A*4B
$GPRMC,165706.2,A,3344.601476,N,11624.854890,W,35.3,142.4,141010,,,A*44
$GPRMC,165709.9,A,3344.571687,N,11624.829277,W,38.1,144.0,141010,,,A*4C
$GPRMC,165712.2,A,3344.553309,N,11624.811227,W,36.4,142.2,141010,,,A*4F
$GPRMC,165715.0,A,3344.527833,N,11624.792825,W,38.0,143.8,141010,,,A*46
$GPRMC,165718.9,A,3344.490471,N,11624.760181,W,41.8,142.7,141010,,,A*47
$GPRMC,165721.9,A,3344.464367,N,11624.735992,W,40.9,143.1,141010,,,A*4B
$GPRMC,165724.2,A,3344.443157,N,11624.717648,W,40.2,144.5,141010,,,A*41
$GPRMC,165727.2,A,3344.414880,N,11624.695268,W,40.9,144.5,141010,,,A*45
$GPRMC,165730.2,A,3344.388278,N,11624.670341,W,41.4,143.0,141010,,,A*43
$GPRMC,165733.2,A,3344.359398,N,11624.645907,W,41.2,145.6,141010,,,A*4B
$GPRMC,165736.9,A,3344.325951,N,11624.619225,W,39.7,147.2,141010,,,A*4F
$GPRMC,165739.9,A,3344.298285,N,11624.597244,W,38.5,149.3,141010,,,A*4B
$GPRMC,165742.9,A,3344.270859,N,11624.578447,W,37.7,149.5,141010,,,A*45
$GPRMC,165745.9,A,3344.238798,N,11624.560618,W,39.3,152.5,141010,,,A*4D
$GPRMC,165748.9,A,3344.211243,N,11624.543649,W,37.5,153.0,141010,,,A*41
$GPRMC,165751.9,A,3344.184609,N,11624.527268,W,35.7,151.5,141010,,,A*4E
$GPRMC,165754.9,A,3344.168272,N,11624.512406,W,23.8,153.3,141010,,,A*45
$GPRMC,165757.9,A,3344.155031,N,11624.503097,W,16.1,158.6,141010,,,A*40
$GPRMC,165800.9,A,3344.148983,N,11624.498959,W,8.5,164.5,141010,,,A*7E
$GPRMC,165842.9,A,3344.145610,N,11624.489644,W,11.1,132.7,141010,,,A*4E
$GPRMC,165845.9,A,3344.132548,N,11624.477455,W,21.1,141.4,141010,,,A*40
$GPRMC,165848.9,A,3344.107382,N,11624.465695,W,31.4,149.9,141010,,,A*47
$GPRMC,165851.9,A,3344.083723,N,11624.448565,W,35.2,149.6,141010,,,A*43
$GPRMC,165854.9,A,3344.058992,N,11624.426730,W,37.6,146.1,141010,,,A*40
$GPRMC,165857.9,A,3344.030207,N,11624.405769,W,40.6,148.7,141010,,,A*4F
$GPRMC,165900.9,A,3344.002161,N,11624.382868,W,40.6,147.2,141010,,,A*42
$GPRMC,165903.9,A,3343.971992,N,11624.363418,W,41.4,149.5,141010,,,A*41
$GPRMC,165906.9,A,3343.942955,N,11624.343071,W,40.5,150.7,141010,,,A*4C
$GPRMC,165909.9,A,3343.912503,N,11624.323578,W,41.1,151.9,141010,,,A*49
$GPRMC,165912.9,A,3343.883996,N,11624.303431,W,40.5,149.7,141010,,,A*46
$GPRMC,165915.9,A,3343.854234,N,11624.280478,W,41.5,148.7,141010,,,A*4F
$GPRMC,165918.9,A,3343.823911,N,11624.260550,W,41.0,150.8,141010,,,A*48
$GPRMC,165921.9,A,3343.795121,N,11624.241053,W,39.7,150.8,141010,,,A*46
$GPRMC,165924.9,A,3343.769026,N,11624.224283,W,35.6,151.7,141010,,,A*49
$GPRMC,165927.9,A,3343.748373,N,11624.209660,W,27.5,152.5,141010,,,A*4D
$GPRMC,165930.9,A,3343.738739,N,11624.197833,W,16.3,146.8,141010,,,A*46
$GPRMC,165933.9,A,3343.733597,N,11624.191434,W,7.8,150.4,141010,,,A*75
$GPRMC,170021.9,A,3343.723281,N,11624.184880,W,7.6,131.0,141010,,,A*70
$GPRMC,170024.9,A,3343.702394,N,11624.168537,W,25.0,138.8,141010,,,A*47
$GPRMC,170027.9,A,3343.675730,N,11624.152135,W,31.3,145.9,141010,,,A*4D
$GPRMC,170030.9,A,3343.653875,N,11624.135598,W,33.3,149.0,141010,,,A*44
$GPRMC,170033.9,A,3343.628146,N,11624.116071,W,36.2,147.7,141010,,,A*4C
$GPRMC,170036.9,A,3343.599468,N,11624.099909,W,36.1,151.3,141010,,,A*49
$GPRMC,170039.9,A,3343.576218,N,11624.081547,W,34.8,150.0,141010,,,A*40
$GPRMC,170042.9,A,3343.551649,N,11624.065287,W,35.9,149.2,141010,,,A*42
$GPRMC,170045.9,A,3343.527869,N,11624.044086,W,37.3,146.2,141010,,,A*4F
$GPRMC,170048.9,A,3343.501082,N,11624.020423,W,39.7,145.8,141010,,,A*41
$GPRMC,170051.9,A,3343.467981,N,11624.001744,W,41.7,149.8,141010,,,A*40
$GPRMC,170054.9,A,3343.437244,N,11623.983241,W,39.9,150.2,141010,,,A*45
$GPRMC,170057.9,A,3343.412676,N,11623.961369,W,37.7,145.3,141010,,,A*46
$GPRMC,170100.9,A,3343.388424,N,11623.937878,W,39.4,141.4,141010,,,A*42
$GPRMC,170103.9,A,3343.364958,N,11623.913746,W,37.3,137.9,141010,,,A*44
$GPRMC,170106.2,A,3343.348346,N,11623.891808,W,37.7,133.8,141010,,,A*4E
$GPRMC,170109.9,A,3343.327748,N,11623.855564,W,39.1,127.2,141010,,,A*41
$GPRMC,170112.9,A,3343.313621,N,11623.819265,W,39.5,118.2,141010,,,A*44
$GPRMC,170115.9,A,3343.302014,N,11623.778292,W,40.5,112.3,141010,,,A*46
$GPRMC,170118.2,A,3343.295339,N,11623.749588,W,39.2,104.0,141010,,,A*40
$GPRMC,170121.9,A,3343.285358,N,11623.702873,W,36.7,102.2,141010,,,A*4F
$GPRMC,170124.9,A,3343.284548,N,11623.665687,W,37.1,95.1,141010,,,A*72
$GPRMC,170128.2,A,3343.282012,N,11623.625797,W,35.5,94.0,141010,,,A*7B
$GPRMC,170131.9,A,3343.278622,N,11623.584386,W,36.2,95.2,141010,,,A*73
$GPRMC,170134.9,A,3343.276801,N,11623.550361,W,33.5,94.0,141010,,,A*76
$GPRMC,170138.2,A,3343.274175,N,11623.519617,W,25.8,91.4,141010,,,A*7B
$GPRMC,170141.9,A,3343.275183,N,11623.497003,W,16.2,87.7,141010,,,A*7C
$GPRMC,170202.2,A,3343.270960,N,11623.488696,W,11.4,129.8,141010,,,A*4C
$GPRMC,170205.9,A,3343.262235,N,11623.477167,W,14.0,141.4,141010,,,A*42
$GPRMC,170208.9,A,3343.253274,N,11623.469877,W,11.9,145.1,141010,,,A*42
$GPRMC,170211.9,A,3343.245370,N,11623.463890,W,11.3,145.1,141010,,,A*41
$GPRMC,170214.9,A,3343.234075,N,11623.458594,W,15.2,157.6,141010,,,A*44
$GPRMC,170218.2,A,3343.218341,N,11623.453711,W,16.0,164.2,141010,,,A*48
$GPRMC,170221.2,A,3343.200930,N,11623.451499,W,19.1,176.2,141010,,,A*4B
$GPRMC,170224.2,A,3343.182737,N,11623.453561,W,23.2,187.3,141010,,,A*4F
$GPRMC,170227.9,A,3343.159836,N,11623.460918,W,25.2,197.6,141010,,,A*4F
$GPRMC,170230.9,A,3343.137399,N,11623.471865,W,28.5,198.4,141010,,,A*43
$GPRMC,170233.9,A,3343.109295,N,11623.482170,W,32.7,197.2,141010,,,A*41
$GPRMC,170236.2,A,3343.084843,N,11623.490121,W,35.2,197.5,141010,,,A*48
$GPRMC,170240.2,A,3343.049858,N,11623.504096,W,32.0,197.5,141010,,,A*46
$GPRMC,170244.2,A,3343.013558,N,11623.518198,W,34.1,198.7,141010,,,A*48
$GPRMC,170248.2,A,3342.979594,N,11623.531627,W,34.4,197.6,141010,,,A*43
$GPRMC,170252.2,A,3342.939386,N,11623.544184,W,38.1,194.6,141010,,,A*4F
$GPRMC,170255.2,A,3342.907185,N,11623.558358,W,41.3,195.9,141010,,,A*48
$GPRMC,170258.2,A,3342.874701,N,11623.570226,W,38.7,198.1,141010,,,A*47
$GPRMC,170301.2,A,3342.845287,N,11623.582574,W,35.4,197.5,141010,,,A*4B
$GPRMC,170304.2,A,3342.816200,N,11623.592558,W,35.1,196.7,141010,,,A*4E
$GPRMC,170307.9,A,3342.785599,N,11623.602633,W,33.5,195.1,141010,,,A*47
$GPRMC,170310.9,A,3342.752779,N,11623.617873,W,36.4,198.2,141010,,,A*43
$GPRMC,170313.9,A,3342.730370,N,11623.622784,W,31.0,195.8,141010,,,A*4C
$GPRMC,170316.2,A,3342.711026,N,11623.632194,W,31.6,203.0,141010,,,A*45
$GPRMC,170319.2,A,3342.697828,N,11623.637145,W,21.6,201.2,141010,,,A*4B
$GPRMC,170322.2,A,3342.688958,N,11623.641981,W,13.7,201.9,141010,,,A*41
$GPRMC,170326.2,A,3342.678775,N,11623.646173,W,12.8,198.2,141010,,,A*4F
$GPRMC,170329.2,A,3342.659107,N,11623.653219,W,23.5,198.5,141010,,,A*43
$GPRMC,170332.2,A,3342.635517,N,11623.662577,W,29.6,198.2,141010,,,A*45
$GPRMC,170335.2,A,3342.605737,N,11623.673421,W,34.3,196.7,141010,,,A*41
$GPRMC,170338.2,A,3342.570776,N,11623.688393,W,42.6,198.3,141010,,,A*4C
$GPRMC,170341.2,A,3342.536301,N,11623.702266,W,42.2,197.9,141010,,,A*4D
$GPRMC,170344.2,A,3342.505199,N,11623.714574,W,40.0,198.4,141010,,,A*4A
$GPRMC,170347.2,A,3342.474106,N,11623.727933,W,39.3,198.1,141010,,,A*4F
$GPRMC,170350.2,A,3342.444279,N,11623.739641,W,37.9,197.9,141010,,,A*47
$GPRMC,170353.2,A,3342.416213,N,11623.750900,W,36.7,197.6,141010,,,A*4A
$GPRMC,170356.2,A,3342.385379,N,11623.762601,W,37.2,197.1,141010,,,A*43
$GPRMC,170359.2,A,3342.355564,N,11623.774264,W,37.0,198.0,141010,,,A*47
$GPRMC,170402.2,A,3342.327046,N,11623.785868,W,34.6,198.7,141010,,,A*44
$GPRMC,170405.2,A,3342.299923,N,11623.795304,W,33.5,198.0,141010,,,A*4E
$GPRMC,170408.2,A,3342.275811,N,11623.804594,W,32.4,197.9,141010,,,A*4F
$GPRMC,170411.2,A,3342.252017,N,11623.813759,W,30.0,198.2,141010,,,A*4B
$GPRMC,170414.2,A,3342.230431,N,11623.822305,W,28.4,198.2,141010,,,A*48
$GPRMC,170417.9,A,3342.201876,N,11623.831883,W,29.0,192.2,141010,,,A*45
$GPRMC,170420.0,A,3342.184212,N,11623.838242,W,30.4,196.9,141010,,,A*43
$GPRMC,170423.2,A,3342.153553,N,11623.851247,W,35.6,198.6,141010,,,A*46
$GPRMC,170426.1,A,3342.121759,N,11623.865500,W,41.9,197.7,141010,,,A*4C
$GPRMC,170429.2,A,3342.085808,N,11623.880117,W,42.7,197.7,141010,,,A*40
$GPRMC,170432.2,A,3342.050726,N,11623.893423,W,44.6,198.4,141010,,,A*4A
$GPRMC,170436.2,A,3342.004883,N,11623.912553,W,44.2,198.1,141010,,,A*40
$GPRMC,170439.2,A,3341.970727,N,11623.926469,W,44.2,198.1,141010,,,A*48
$GPRMC,170442.2,A,3341.935498,N,11623.939353,W,44.2,198.8,141010,,,A*4B
$GPRMC,170445.2,A,3341.901987,N,11623.952953,W,42.5,197.3,141010,,,A*4A
$GPRMC,170448.2,A,3341.866829,N,11623.966562,W,44.2,197.5,141010,,,A*4C
$GPRMC,170451.2,A,3341.831785,N,11623.980630,W,42.8,198.0,141010,,,A*45
$GPRMC,170454.9,A,3341.790175,N,11623.997383,W,43.3,198.1,141010,,,A*46
$GPRMC,170458.2,A,3341.749701,N,11624.013897,W,46.3,197.6,141010,,,A*41
$GPRMC,170501.2,A,3341.712198,N,11624.028513,W,47.6,197.1,141010,,,A*4E
$GPRMC,170504.2,A,3341.672777,N,11624.042887,W,47.0,196.7,141010,,,A*46
$GPRMC,170507.2,A,3341.632450,N,11624.058241,W,49.5,197.0,141010,,,A*41
$GPRMC,170510.2,A,3341.591520,N,11624.075149,W,51.5,198.0,141010,,,A*49
$GPRMC,170513.2,A,3341.551738,N,11624.089538,W,49.3,196.4,141010,,,A*49
$GPRMC,170516.2,A,3341.514510,N,11624.104306,W,47.7,197.6,141010,,,A*43
$GPRMC,170519.2,A,3341.477716,N,11624.117148,W,47.3,196.9,141010,,,A*4C
$GPRMC,170522.2,A,3341.437697,N,11624.131352,W,47.1,198.0,141010,,,A*40
$GPRMC,170525.2,A,3341.399830,N,11624.146593,W,46.7,197.8,141010,,,A*4C
$GPRMC,170529.2,A,3341.350878,N,11624.166054,W,46.3,196.5,141010,,,A*4D
$GPRMC,170532.0,A,3341.317520,N,11624.179494,W,46.4,198.1,141010,,,A*4D
$GPRMC,170535.9,A,3341.268051,N,11624.201773,W,48.1,199.3,141010,,,A*47
$GPRMC,170538.9,A,3341.230928,N,11624.215934,W,46.9,199.1,141010,,,A*4C
$GPRMC,170541.9,A,3341.192316,N,11624.231070,W,48.4,198.0,141010,,,A*42
$GPRMC,170544.9,A,3341.150080,N,11624.250178,W,50.1,198.4,141010,,,A*43
$GPRMC,170547.9,A,3341.116102,N,11624.260510,W,47.0,195.9,141010,,,A*47
$GPRMC,170550.2,A,3341.089276,N,11624.268783,W,46.2,196.8,141010,,,A*4C
$GPRMC,170553.0,A,3341.057565,N,11624.283696,W,45.2,198.3,141010,,,A*4D
$GPRMC,170556.2,A,3341.018514,N,11624.300660,W,45.7,198.9,141010,,,A*4B
$GPRMC,170600.2,A,3340.970567,N,11624.320041,W,47.5,200.0,141010,,,A*45
$GPRMC,170603.0,A,3340.931924,N,11624.334931,W,50.8,197.8,141010,,,A*4F
$GPRMC,170606.2,A,3340.886775,N,11624.350808,W,52.5,196.9,141010,,,A*49
$GPRMC,170609.2,A,3340.842173,N,11624.368067,W,57.8,197.9,141010,,,A*4D
$GPRMC,170612.2,A,3340.795508,N,11624.388234,W,59.9,198.4,141010,,,A*4D
$GPRMC,170616.2,A,3340.731632,N,11624.414192,W,60.0,198.2,141010,,,A*45
$GPRMC,170619.2,A,3340.684618,N,11624.432087,W,59.6,197.9,141010,,,A*44
$GPRMC,170622.0,A,3340.639163,N,11624.450676,W,60.1,198.6,141010,,,A*42
$GPRMC,170625.9,A,3340.580195,N,11624.472711,W,57.9,198.8,141010,,,A*46
$GPRMC,170628.2,A,3340.548815,N,11624.484601,W,54.1,197.8,141010,,,A*48
$GPRMC,170631.2,A,3340.505481,N,11624.501265,W,53.5,199.4,141010,,,A*43
$GPRMC,170634.2,A,3340.463472,N,11624.516376,W,53.2,198.3,141010,,,A*4F
$GPRMC,170637.2,A,3340.422331,N,11624.532258,W,52.5,197.0,141010,,,A*48
$GPRMC,170640.2,A,3340.380657,N,11624.546327,W,52.7,196.6,141010,,,A*4D
$GPRMC,170643.9,A,3340.329201,N,11624.560328,W,52.4,193.0,141010,,,A*4A
$GPRMC,170646.9,A,3340.289365,N,11624.562523,W,51.2,180.9,141010,,,A*46
$GPRMC,170649.9,A,3340.244424,N,11624.555676,W,54.4,169.6,141010,,,A*46
$GPRMC,170652.2,A,3340.212942,N,11624.539651,W,52.7,160.5,141010,,,A*49
$GPRMC,170655.9,A,3340.170603,N,11624.509865,W,48.2,152.7,141010,,,A*4F
$GPRMC,170658.9,A,3340.139788,N,11624.486537,W,44.0,150.3,141010,,,A*49
$GPRMC,170701.9,A,3340.113107,N,11624.462806,W,42.6,147.4,141010,,,A*49
$GPRMC,170704.2,A,3340.088902,N,11624.446733,W,45.1,148.9,141010,,,A*44
$GPRMC,170707.2,A,3340.059600,N,11624.417404,W,45.2,127.1,141010,,,A*47
$GPRMC,170710.2,A,3340.039682,N,11624.379233,W,44.0,118.1,141010,,,A*4F
$GPRMC,170713.2,A,3340.022541,N,11624.342408,W,42.6,120.8,141010,,,A*4E
$GPRMC,170716.2,A,3340.001405,N,11624.310704,W,40.5,134.8,141010,,,A*47
$GPRMC,170719.9,A,3339.962721,N,11624.285331,W,43.2,148.5,141010,,,A*49
$GPRMC,170722.9,A,3339.939051,N,11624.257151,W,40.6,134.1,141010,,,A*4C
$GPRMC,170725.2,A,3339.927875,N,11624.229763,W,38.5,120.2,141010,,,A*45
$GPRMC,170729.2,A,3339.922667,N,11624.180147,W,38.6,103.4,141010,,,A*45
$GPRMC,170732.2,A,3339.916869,N,11624.138461,W,42.5,112.7,141010,,,A*47
$GPRMC,170735.2,A,3339.905751,N,11624.095773,W,45.2,113.0,141010,,,A*46
$GPRMC,170738.9,A,3339.876932,N,11624.056596,W,42.2,128.8,141010,,,A*4F
$GPRMC,170741.9,A,3339.861971,N,11624.024892,W,38.5,118.8,141010,,,A*45
$GPRMC,170744.9,A,3339.848627,N,11623.990744,W,38.6,115.8,141010,,,A*4C
$GPRMC,170747.9,A,3339.828385,N,11623.955731,W,40.0,127.6,141010,,,A*49
$GPRMC,170750.2,A,3339.809086,N,11623.936965,W,36.9,139.3,141010,,,A*4F
$GPRMC,170753.9,A,3339.764947,N,11623.930298,W,39.6,171.5,141010,,,A*42
$GPRMC,170756.9,A,3339.725274,N,11623.940104,W,44.2,186.2,141010,,,A*49
$GPRMC,170759.9,A,3339.689667,N,11623.948976,W,41.9,187.3,141010,,,A*4C
$GPRMC,170802.9,A,3339.657743,N,11623.948186,W,40.6,172.9,141010,,,A*40
$GPRMC,170805.9,A,3339.630869,N,11623.928231,W,41.3,148.7,141010,,,A*4B
$GPRMC,170808.9,A,3339.611148,N,11623.893150,W,41.8,128.6,141010,,,A*46
$GPRMC,170811.9,A,3339.593162,N,11623.860600,W,39.3,129.1,141010,,,A*43
$GPRMC,170814.9,A,3339.568464,N,11623.838645,W,35.5,148.2,141010,,,A*43
$GPRMC,170817.9,A,3339.540686,N,11623.838902,W,28.5,180.1,141010,,,A*43
$GPRMC,170820.9,A,3339.517341,N,11623.873573,W,36.6,227.4,141010,,,A*49
$GPRMC,170824.2,A,3339.508666,N,11623.914249,W,35.8,250.9,141010,,,A*46
$GPRMC,170827.0,A,3339.530809,N,11623.952008,W,36.6,292.3,141010,,,A*47
$GPRMC,170830.2,A,3339.557559,N,11623.982734,W,37.0,307.1,141010,,,A*47
$GPRMC,170833.0,A,3339.569881,N,11624.011987,W,30.3,286.8,141010,,,A*44
$GPRMC,170836.9,A,3339.572360,N,11624.049998,W,26.2,268.6,141010,,,A*4D
$GPRMC,170845.9,A,3339.486728,N,11624.020839,W,30.0,131.7,141010,,,A*45
$GPRMC,170848.9,A,3339.479073,N,11623.985605,W,32.0,103.1,141010,,,A*44
$GPRMC,170851.2,A,3339.474999,N,11623.957925,W,33.9,105.7,141010,,,A*4D
$GPRMC,170854.9,A,3339.463757,N,11623.920907,W,31.3,118.3,141010,,,A*49
$GPRMC,170858.2,A,3339.440319,N,11623.909503,W,26.6,145.4,141010,,,A*4E
$GPRMC,170901.9,A,3339.395402,N,11623.911317,W,35.8,170.6,141010,,,A*48
$GPRMC,170904.9,A,3339.364764,N,11623.892299,W,39.6,156.3,141010,,,A*4E
$GPRMC,170907.9,A,3339.343434,N,11623.865656,W,38.0,140.6,141010,,,A*44
$GPRMC,170910.9,A,3339.349718,N,11623.829556,W,30.7,101.6,141010,,,A*44
$GPRMC,170913.2,A,3339.355650,N,11623.799703,W,33.7,91.1,141010,,,A*76
$GPRMC,170916.9,A,3339.355481,N,11623.756182,W,34.1,96.7,141010,,,A*7A
$GPRMC,170919.9,A,3339.340395,N,11623.731854,W,28.9,123.0,141010,,,A*4D
$GPRMC,170922.9,A,3339.312605,N,11623.727487,W,29.0,169.4,141010,,,A*49
$GPRMC,170925.9,A,3339.284331,N,11623.743492,W,30.6,208.8,141010,,,A*42
$GPRMC,170928.9,A,3339.263992,N,11623.775597,W,36.3,237.9,141010,,,A*4A
$GPRMC,170931.9,A,3339.259763,N,11623.806562,W,34.1,255.2,141010,,,A*45
$GPRMC,170934.9,A,3339.256250,N,11623.840865,W,34.8,259.0,141010,,,A*45
$GPRMC,170937.9,A,3339.250325,N,11623.878435,W,38.5,264.3,141010,,,A*4D
$GPRMC,170940.2,A,3339.254723,N,11623.905901,W,37.9,278.2,141010,,,A*4E
$GPRMC,170943.9,A,3339.279803,N,11623.939102,W,33.7,304.6,141010,,,A*44
$GPRMC,170946.2,A,3339.297411,N,11623.962400,W,39.4,307.8,141010,,,A*48
$GPRMC,170949.9,A,3339.320965,N,11624.005287,W,40.1,297.4,141010,,,A*46
$GPRMC,170952.9,A,3339.327580,N,11624.048996,W,42.1,284.6,141010,,,A*4C
$GPRMC,170955.9,A,3339.337917,N,11624.086105,W,40.2,292.0,141010,,,A*48
$GPRMC,170958.2,A,3339.356021,N,11624.108707,W,36.0,309.5,141010,,,A*43
$GPRMC,171001.9,A,3339.386801,N,11624.137627,W,37.8,318.8,141010,,,A*40
$GPRMC,171004.9,A,3339.402451,N,11624.166879,W,33.8,300.9,141010,,,A*4A
$GPRMC,171007.9,A,3339.407401,N,11624.197686,W,28.1,283.2,141010,,,A*4B
$GPRMC,171010.9,A,3339.402194,N,11624.220840,W,20.0,265.5,141010,,,A*4C
$GPRMC,171019.2,A,3339.315110,N,11624.167016,W,40.3,128.0,141010,,,A*42
$GPRMC,171022.9,A,3339.289787,N,11624.117270,W,41.0,131.1,141010,,,A*43
$GPRMC,171025.9,A,3339.264197,N,11624.091798,W,36.8,148.9,141010,,,A*42
$GPRMC,171028.9,A,3339.232085,N,11624.073110,W,40.0,147.8,141010,,,A*43
$GPRMC,171031.9,A,3339.204559,N,11624.046367,W,41.3,137.3,141010,,,A*40
$GPRMC,171034.2,A,3339.186377,N,11624.021703,W,42.9,131.2,141010,,,A*44
$GPRMC,171037.9,A,3339.164936,N,11623.972796,W,46.3,123.4,141010,,,A*40
$GPRMC,171040.9,A,3339.146722,N,11623.930028,W,47.2,123.7,141010,,,A*4C
$GPRMC,171043.9,A,3339.122880,N,11623.891419,W,48.8,127.6,141010,,,A*46
$GPRMC,171046.9,A,3339.099805,N,11623.850819,W,48.4,127.4,141010,,,A*40
$GPRMC,171049.9,A,3339.072994,N,11623.817752,W,44.5,131.4,141010,,,A*4A
$GPRMC,171052.9,A,3339.053356,N,11623.788541,W,39.1,128.1,141010,,,A*4D
$GPRMC,171055.9,A,3339.044688,N,11623.756307,W,34.0,109.3,141010,,,A*40
$GPRMC,171059.2,A,3339.048541,N,11623.724077,W,29.0,86.9,141010,,,A*7C
$GPRMC,171102.0,A,3339.045000,N,11623.697553,W,30.2,102.9,141010,,,A*41
$GPRMC,171105.2,A,3339.027123,N,11623.676691,W,24.9,129.4,141010,,,A*48
$GPRMC,171108.9,A,3338.995054,N,11623.676096,W,25.8,179.4,141010,,,A*4A
$GPRMC,171112.2,A,3338.965880,N,11623.704433,W,34.7,214.5,141010,,,A*4D
$GPRMC,171115.0,A,3338.967090,N,11623.752960,W,39.7,256.1,141010,,,A*44
$GPRMC,171118.9,A,3338.997657,N,11623.787721,W,32.7,305.8,141010,,,A*44
$GPRMC,171121.9,A,3339.022738,N,11623.812363,W,34.7,312.4,141010,,,A*4D
$GPRMC,171124.2,A,3339.038006,N,11623.830941,W,31.1,307.2,141010,,,A*49
$GPRMC,171127.9,A,3339.047964,N,11623.868068,W,31.6,292.4,141010,,,A*47
$GPRMC,171130.9,A,3339.064961,N,11623.895722,W,32.2,309.0,141010,,,A*4E
$GPRMC,171133.9,A,3339.080589,N,11623.921043,W,32.3,305.1,141010,,,A*4F
$GPRMC,171136.9,A,3339.091077,N,11623.951979,W,32.9,291.0,141010,,,A*4E
$GPRMC,171140.2,A,3339.090797,N,11623.992218,W,34.9,276.2,141010,,,A*42
$GPRMC,171143.9,A,3339.099394,N,11624.027583,W,31.1,290.4,141010,,,A*42
$GPRMC,171146.9,A,3339.114175,N,11624.055405,W,32.6,293.6,141010,,,A*41
$GPRMC,171149.9,A,3339.118059,N,11624.088826,W,30.8,271.1,141010,,,A*47
$GPRMC,171152.9,A,3339.101916,N,11624.116134,W,30.0,233.5,141010,,,A*41
$GPRMC,171155.9,A,3339.072792,N,11624.133754,W,34.8,210.8,141010,,,A*46
$GPRMC,171158.9,A,3339.043055,N,11624.151866,W,37.8,213.2,141010,,,A*45
$GPRMC,171202.2,A,3339.016447,N,11624.180761,W,39.3,222.6,141010,,,A*42
$GPRMC,171205.0,A,3339.009422,N,11624.214981,W,38.3,243.3,141010,,,A*47
$GPRMC,171208.9,A,3338.997167,N,11624.260701,W,34.9,254.3,141010,,,A*4D
$GPRMC,171211.9,A,3338.988271,N,11624.293131,W,33.0,250.3,141010,,,A*4C
$GPRMC,171214.9,A,3338.972110,N,11624.322118,W,32.0,230.5,141010,,,A*49
$GPRMC,171217.9,A,3338.948581,N,11624.346239,W,35.8,218.5,141010,,,A*48
$GPRMC,171220.9,A,3338.923908,N,11624.368850,W,37.7,217.7,141010,,,A*45
$GPRMC,171223.9,A,3338.900622,N,11624.390213,W,37.5,216.6,141010,,,A*48
$GPRMC,171226.9,A,3338.870552,N,11624.417357,W,42.4,217.4,141010,,,A*46
$GPRMC,171229.2,A,3338.847670,N,11624.437391,W,42.9,217.7,141010,,,A*43
$GPRMC,171232.9,A,3338.812049,N,11624.467497,W,41.1,216.5,141010,,,A*42
$GPRMC,171235.9,A,3338.787730,N,11624.483874,W,36.1,204.4,141010,,,A*46
