NMEA Sentence Code,UTC Time,Status,Latitude,Latitude Direction,Longitude,Longitude Direction,Speed (knots),Track Angle (degrees true),Date,MagneticVariation,Magnetic Variation Direction,[FAA Mode]-Optional,Checksum
$GPRMC,011026.53,A,3311.8131,N,11722.4803,W,13.097,144.973,281110,0,W,A*11
$GPRMC,011029.53,A,3311.8045,N,11722.4727,W,12.719,144.189,281110,0,W,A*18
$GPRMC,011032.53,A,3311.7954,N,11722.4653,W,14.159,143.593,281110,0,W,A*1A
$GPRMC,011035.53,A,3311.7854,N,11722.4569,W,14.398,144.368,281110,0,W,A*1C
$GPRMC,011038.53,A,3311.7757,N,11722.4480,W,15.027,144.254,281110,0,W,A*13
$GPRMC,011041.53,A,3311.7651,N,11722.4395,W,15.864,145.478,281110,0,W,A*1F
$GPRMC,011044.53,A,3311.7547,N,11722.4314,W,14.982,145.786,281110,0,W,A*1D
$GPRMC,011047.53,A,3311.7451,N,11722.4236,W,12.812,146.910,281110,0,W,A*15
$GPRMC,011050.53,A,3311.7387,N,11722.4169,W,8.072,110.592,281110,0,W,A*26
$GPRMC,011053.53,A,3311.7398,N,11722.4098,W,9.146,55.728,281110,0,W,A*10
$GPRMC,011056.53,A,3311.7460,N,11722.4011,W,13.345,53.454,281110,0,W,A*20
$GPRMC,011059.53,A,3311.7534,N,11722.3905,W,15.042,54.583,281110,0,W,A*2A
$GPRMC,011102.53,A,3311.7603,N,11722.3801,W,12.829,53.131,281110,0,W,A*2F
$GPRMC,011105.53,A,3311.7669,N,11722.3697,W,13.575,50.028,281110,0,W,A*2A
$GPRMC,011108.53,A,3311.7738,N,11722.3596,W,13.313,56.234,281110,0,W,A*2F
$GPRMC,011111.53,A,3311.7791,N,11722.3491,W,11.019,77.683,281110,0,W,A*22
$GPRMC,011114.53,A,3311.7770,N,11722.3387,W,9.071,127.038,281110,0,W,A*2D
$GPRMC,011117.53,A,3311.7720,N,11722.3308,W,9.760,113.342,281110,0,W,A*22
$GPRMC,011120.53,A,3311.7712,N,11722.3192,W,12.372,88.089,281110,0,W,A*2C
$GPRMC,011123.53,A,3311.7700,N,11722.3053,W,12.306,88.363,281110,0,W,A*24
$GPRMC,011126.53,A,3311.7701,N,11722.2926,W,12.123,87.877,281110,0,W,A*2E
$GPRMC,011129.53,A,3311.7697,N,11722.2800,W,12.559,90.786,281110,0,W,A*24
$GPRMC,011132.53,A,3311.7692,N,11722.2670,W,13.208,89.782,281110,0,W,A*2C
$GPRMC,011135.53,A,3311.7685,N,11722.2529,W,14.253,91.632,281110,0,W,A*28
$GPRMC,011138.53,A,3311.7680,N,11722.2365,W,16.215,91.456,281110,0,W,A*2E
$GPRMC,011141.53,A,3311.7677,N,11722.2212,W,14.247,91.032,281110,0,W,A*2A
$GPRMC,011144.53,A,3311.7676,N,11722.2097,W,8.495,94.740,281110,0,W,A*12
$GPRMC,011147.53,A,3311.7662,N,11722.2043,W,5.547,133.973,281110,0,W,A*2C
$GPRMC,011150.53,A,3311.7618,N,11722.2020,W,7.336,167.326,281110,0,W,A*2B
$GPRMC,011153.53,A,3311.7544,N,11722.2032,W,10.421,180.535,281110,0,W,A*1B
$GPRMC,011156.53,A,3311.7443,N,11722.2036,W,13.684,179.997,281110,0,W,A*10
$GPRMC,011159.53,A,3311.7320,N,11722.2042,W,16.371,179.637,281110,0,W,A*11
$GPRMC,011202.53,A,3311.7171,N,11722.2036,W,18.114,180.016,281110,0,W,A*15
$GPRMC,011205.53,A,3311.7018,N,11722.2035,W,18.975,179.158,281110,0,W,A*1D
$GPRMC,011208.53,A,3311.6858,N,11722.2035,W,18.104,179.356,281110,0,W,A*1F
$GPRMC,011211.53,A,3311.6712,N,11722.2035,W,15.992,179.380,281110,0,W,A*17
$GPRMC,011214.53,A,3311.6615,N,11722.2040,W,9.161,181.936,281110,0,W,A*2F
$GPRMC,011217.53,A,3311.6533,N,11722.2038,W,12.687,178.189,281110,0,W,A*1B
$GPRMC,011220.53,A,3311.6420,N,11722.2038,W,14.586,179.595,281110,0,W,A*10
$GPRMC,011223.53,A,3311.6291,N,11722.2041,W,16.168,181.680,281110,0,W,A*17
$GPRMC,011226.53,A,3311.6161,N,11722.2048,W,16.035,180.667,281110,0,W,A*16
$GPRMC,011229.53,A,3311.6025,N,11722.2048,W,17.151,179.938,281110,0,W,A*19
$GPRMC,011232.53,A,3311.5879,N,11722.2044,W,17.493,176.929,281110,0,W,A*19
$GPRMC,011235.53,A,3311.5734,N,11722.2038,W,17.328,180.550,281110,0,W,A*1F
$GPRMC,011238.53,A,3311.5599,N,11722.2040,W,13.266,178.606,281110,0,W,A*10
$GPRMC,011241.53,A,3311.5524,N,11722.2025,W,8.390,148.448,281110,0,W,A*22
$GPRMC,011244.53,A,3311.5494,N,11722.1925,W,14.621,95.688,281110,0,W,A*2A
$GPRMC,011247.53,A,3311.5502,N,11722.1739,W,21.688,86.851,281110,0,W,A*29
$GPRMC,011250.53,A,3311.5514,N,11722.1529,W,20.980,87.838,281110,0,W,A*23
$GPRMC,011253.53,A,3311.5521,N,11722.1312,W,21.378,88.796,281110,0,W,A*20
$GPRMC,011256.53,A,3311.5524,N,11722.1098,W,20.672,89.613,281110,0,W,A*22
$GPRMC,011259.53,A,3311.5526,N,11722.0904,W,18.311,89.905,281110,0,W,A*21
$GPRMC,011302.53,A,3311.5525,N,11722.0723,W,16.746,90.150,281110,0,W,A*2E
$GPRMC,011305.53,A,3311.5517,N,11722.0562,W,15.737,91.554,281110,0,W,A*2B
$GPRMC,011308.53,A,3311.5513,N,11722.0405,W,15.163,89.489,281110,0,W,A*2D
$GPRMC,011311.53,A,3311.5514,N,11722.0245,W,15.893,89.189,281110,0,W,A*23
$GPRMC,011314.53,A,3311.5518,N,11722.0086,W,16.172,87.663,281110,0,W,A*2F
$GPRMC,011317.53,A,3311.5521,N,11721.9923,W,16.246,88.886,281110,0,W,A*24
$GPRMC,011320.53,A,3311.5525,N,11721.9759,W,16.496,90.315,281110,0,W,A*24
$GPRMC,011323.53,A,3311.5530,N,11721.9602,W,13.040,87.179,281110,0,W,A*28
$GPRMC,011326.53,A,3311.5515,N,11721.9496,W,10.604,109.384,281110,0,W,A*17
$GPRMC,011329.53,A,3311.5438,N,11721.9424,W,13.066,169.533,281110,0,W,A*12
$GPRMC,011332.53,A,3311.5308,N,11721.9426,W,19.023,179.448,281110,0,W,A*19
$GPRMC,011335.53,A,3311.5125,N,11721.9444,W,23.585,180.175,281110,0,W,A*1A
$GPRMC,011338.53,A,3311.4921,N,11721.9451,W,24.279,178.419,281110,0,W,A*15
$GPRMC,011341.53,A,3311.4724,N,11721.9436,W,21.679,170.719,281110,0,W,A*1B
$GPRMC,011344.53,A,3311.4551,N,11721.9351,W,20.326,147.639,281110,0,W,A*11
$GPRMC,011347.53,A,3311.4433,N,11721.9207,W,20.075,131.190,281110,0,W,A*15
$GPRMC,011350.53,A,3311.4328,N,11721.9050,W,19.248,135.535,281110,0,W,A*17
$GPRMC,011353.53,A,3311.4203,N,11721.8946,W,18.436,156.491,281110,0,W,A*17
$GPRMC,011356.53,A,3311.4060,N,11721.8914,W,16.586,177.754,281110,0,W,A*1F
$GPRMC,011359.53,A,3311.3930,N,11721.8929,W,15.243,181.685,281110,0,W,A*1C
$GPRMC,011402.53,A,3311.3804,N,11721.8931,W,15.450,179.249,281110,0,W,A*1D
$GPRMC,011405.53,A,3311.3666,N,11721.8929,W,15.503,174.844,281110,0,W,A*14
$GPRMC,011408.53,A,3311.3536,N,11721.8893,W,15.654,155.426,281110,0,W,A*15
$GPRMC,011411.53,A,3311.3433,N,11721.8802,W,15.925,128.954,281110,0,W,A*1A
$GPRMC,011414.53,A,3311.3355,N,11721.8681,W,13.549,122.567,281110,0,W,A*1B
$GPRMC,011429.53,A,3311.3310,N,11721.8594,W,5.368,116.873,281110,0,W,A*2E
$GPRMC,011432.53,A,3311.3306,N,11721.8512,W,10.816,77.898,281110,0,W,A*28
$GPRMC,011435.53,A,3311.3374,N,11721.8400,W,16.933,41.749,281110,0,W,A*2E
$GPRMC,011438.53,A,3311.3523,N,11721.8287,W,20.260,39.810,281110,0,W,A*2A
$GPRMC,011441.53,A,3311.3660,N,11721.8159,W,17.705,42.158,281110,0,W,A*2B
$GPRMC,011444.53,A,3311.3744,N,11721.8073,W,6.930,41.298,281110,0,W,A*14
$GPRMC,011450.53,A,3311.3794,N,11721.8014,W,11.864,51.575,281110,0,W,A*2E
$GPRMC,011453.53,A,3311.3878,N,11721.7890,W,18.960,56.319,281110,0,W,A*2C
$GPRMC,011456.53,A,3311.3981,N,11721.7709,W,23.572,55.782,281110,0,W,A*23
$GPRMC,011459.53,A,3311.4107,N,11721.7524,W,24.409,52.720,281110,0,W,A*25
