NMEA Sentence Code,UTC Time,Status,Latitude,Latitude Direction,Longitude,Longitude Direction,Speed (knots),Track Angle (degrees true),Date,MagneticVariation,Magnetic Variation Direction,[FAA Mode]-Optional,Checksum
$GPRMC,181146.2,A,3247.539326,N,11715.249873,W,10.7,355.2,260710,,,A*4A
$GPRMC,181204.2,A,3247.553064,N,11715.250879,W,4.5,324.7,260710,,,A*70
$GPRMC,181207.2,A,3247.561392,N,11715.256465,W,8.0,325.2,260710,,,A*72
$GPRMC,181210.2,A,3247.574176,N,11715.258779,W,10.6,340.0,260710,,,A*46
$GPRMC,181213.2,A,3247.584001,N,11715.261387,W,12.0,344.4,260710,,,A*40
$GPRMC,181216.2,A,3247.593158,N,11715.263828,W,11.9,356.3,260710,,,A*4C
$GPRMC,181219.2,A,3247.604285,N,11715.265923,W,12.9,348.2,260710,,,A*4C
$GPRMC,181222.2,A,3247.607607,N,11715.271194,W,9.3,347.0,260710,,,A*75
$GPRMC,181225.2,A,3247.609524,N,11715.272667,W,4.7,348.8,260710,,,A*78
$GPRMC,181228.2,A,3247.618255,N,11715.277965,W,7.9,326.1,260710,,,A*70
$GPRMC,181231.2,A,3247.635356,N,11715.282043,W,12.9,333.5,260710,,,A*46
$GPRMC,181234.2,A,3247.654178,N,11715.281924,W,16.2,347.4,260710,,,A*4C
$GPRMC,181237.2,A,3247.662349,N,11715.285905,W,12.2,353.4,260710,,,A*4C
$GPRMC,181240.2,A,3247.670205,N,11715.285964,W,8.6,1.3,260710,,,A*7D
$GPRMC,181243.2,A,3247.676543,N,11715.283962,W,6.7,26.8,260710,,,A*4C
$GPRMC,181246.2,A,3247.681780,N,11715.278153,W,7.9,40.6,260710,,,A*43
$GPRMC,181249.2,A,3247.686927,N,11715.266552,W,11.1,57.5,260710,,,A*78
$GPRMC,181252.2,A,3247.689704,N,11715.243592,W,17.0,75.5,260710,,,A*7E
$GPRMC,181255.2,A,3247.694868,N,11715.215755,W,22.2,76.2,260710,,,A*7A
$GPRMC,181258.2,A,3247.697917,N,11715.190310,W,22.9,77.3,260710,,,A*7D
$GPRMC,181301.2,A,3247.703516,N,11715.166205,W,23.0,76.2,260710,,,A*75
$GPRMC,181304.2,A,3247.708042,N,11715.141112,W,24.8,76.5,260710,,,A*77
$GPRMC,181307.2,A,3247.713854,N,11715.116331,W,26.2,75.9,260710,,,A*77
$GPRMC,181310.2,A,3247.719557,N,11715.089959,W,26.4,75.5,260710,,,A*7C
$GPRMC,181313.2,A,3247.725491,N,11715.065053,W,26.6,73.7,260710,,,A*7C
$GPRMC,181316.2,A,3247.732550,N,11715.039581,W,29.3,74.4,260710,,,A*7E
$GPRMC,181319.2,A,3247.738991,N,11715.013517,W,25.7,75.2,260710,,,A*72
$GPRMC,181322.2,A,3247.744194,N,11714.988875,W,25.8,75.6,260710,,,A*74
$GPRMC,181325.2,A,3247.749234,N,11714.961852,W,26.7,75.8,260710,,,A*77
$GPRMC,181328.2,A,3247.754495,N,11714.935740,W,27.4,76.1,260710,,,A*7E
$GPRMC,181331.2,A,3247.758626,N,11714.911274,W,26.4,78.3,260710,,,A*79
$GPRMC,181334.2,A,3247.763964,N,11714.885035,W,27.4,76.3,260710,,,A*79
$GPRMC,181337.2,A,3247.769930,N,11714.857528,W,27.5,76.0,260710,,,A*75
$GPRMC,181340.2,A,3247.775950,N,11714.831467,W,26.7,76.8,260710,,,A*7F
$GPRMC,181343.2,A,3247.780434,N,11714.806887,W,26.6,75.9,260710,,,A*7C
$GPRMC,181346.2,A,3247.786736,N,11714.783385,W,26.8,73.6,260710,,,A*72
$GPRMC,181349.2,A,3247.793128,N,11714.766874,W,17.0,70.3,260710,,,A*72
$GPRMC,181352.2,A,3247.793955,N,11714.760121,W,8.5,75.2,260710,,,A*4A
$GPRMC,181355.2,A,3247.795052,N,11714.754170,W,8.8,71.7,260710,,,A*4A
$GPRMC,181358.2,A,3247.796495,N,11714.743089,W,12.6,77.7,260710,,,A*79
$GPRMC,181401.2,A,3247.798962,N,11714.724908,W,18.7,78.8,260710,,,A*73
$GPRMC,181404.2,A,3247.803784,N,11714.702815,W,23.1,77.8,260710,,,A*75
$GPRMC,181407.2,A,3247.809061,N,11714.678142,W,26.1,74.9,260710,,,A*70
$GPRMC,181410.2,A,3247.814735,N,11714.653469,W,25.5,73.7,260710,,,A*77
$GPRMC,181413.2,A,3247.821393,N,11714.626002,W,28.5,73.6,260710,,,A*7D
$GPRMC,181416.2,A,3247.829595,N,11714.600047,W,28.9,73.1,260710,,,A*7E
$GPRMC,181419.2,A,3247.834937,N,11714.572841,W,27.0,75.7,260710,,,A*77
$GPRMC,181422.2,A,3247.841274,N,11714.547299,W,26.1,74.1,260710,,,A*7F
$GPRMC,181425.2,A,3247.847030,N,11714.522519,W,26.3,74.2,260710,,,A*71
$GPRMC,181428.2,A,3247.852954,N,11714.496511,W,27.1,74.7,260710,,,A*73
$GPRMC,181431.2,A,3247.857641,N,11714.471127,W,24.6,77.2,260710,,,A*7F
$GPRMC,181434.2,A,3247.860395,N,11714.450576,W,20.3,79.6,260710,,,A*7A
$GPRMC,181437.2,A,3247.862824,N,11714.441228,W,12.0,81.7,260710,,,A*72
$GPRMC,181504.2,A,3247.863877,N,11714.432150,W,5.4,63.7,260710,,,A*42
$GPRMC,181507.2,A,3247.868549,N,11714.421257,W,12.4,63.8,260710,,,A*75
$GPRMC,181510.9,A,3247.873016,N,11714.399522,W,17.7,75.9,260710,,,A*7C
$GPRMC,181513.2,A,3247.876349,N,11714.382106,W,22.9,78.8,260710,,,A*74
$GPRMC,181516.2,A,3247.881834,N,11714.356471,W,26.8,76.7,260710,,,A*70
$GPRMC,181519.2,A,3247.887814,N,11714.328548,W,28.3,75.3,260710,,,A*7B
$GPRMC,181522.2,A,3247.894976,N,11714.301069,W,27.7,71.4,260710,,,A*71
$GPRMC,181525.2,A,3247.902245,N,11714.271917,W,29.2,73.9,260710,,,A*71
$GPRMC,181528.2,A,3247.910284,N,11714.245217,W,28.3,73.3,260710,,,A*74
$GPRMC,181531.2,A,3247.915814,N,11714.217174,W,27.3,74.9,260710,,,A*79
$GPRMC,181534.2,A,3247.922162,N,11714.192808,W,25.8,74.5,260710,,,A*79
$GPRMC,181537.2,A,3247.927726,N,11714.169033,W,25.1,75.7,260710,,,A*77
$GPRMC,181540.2,A,3247.930672,N,11714.143676,W,23.7,75.9,260710,,,A*70
$GPRMC,181543.2,A,3247.935564,N,11714.123638,W,19.4,71.3,260710,,,A*7A
$GPRMC,181546.2,A,3247.939258,N,11714.115225,W,9.7,70.0,260710,,,A*46
$GPRMC,181549.9,A,3247.942126,N,11714.109406,W,4.4,69.1,260710,,,A*49
$GPRMC,181604.9,A,3247.942278,N,11714.101414,W,5.1,86.4,260710,,,A*40
$GPRMC,181607.9,A,3247.943380,N,11714.093529,W,6.4,76.5,260710,,,A*49
$GPRMC,181641.2,A,3247.945083,N,11714.089169,W,4.6,60.1,260710,,,A*4E
$GPRMC,181644.2,A,3247.949465,N,11714.069893,W,14.3,65.6,260710,,,A*7F
$GPRMC,181647.9,A,3247.955306,N,11714.042289,W,20.3,78.8,260710,,,A*75
$GPRMC,181650.0,A,3247.958751,N,11714.029035,W,18.5,61.8,260710,,,A*7C
$GPRMC,181653.9,A,3247.971814,N,11714.008622,W,21.6,52.3,260710,,,A*72
$GPRMC,181656.9,A,3247.983038,N,11713.991090,W,21.7,59.6,260710,,,A*72
$GPRMC,181659.9,A,3247.992932,N,11713.968336,W,25.0,61.2,260710,,,A*7B
$GPRMC,181702.2,A,3248.000250,N,11713.951429,W,25.4,64.6,260710,,,A*7B
$GPRMC,181705.2,A,3248.009827,N,11713.931647,W,22.9,62.9,260710,,,A*70
$GPRMC,181708.2,A,3248.018410,N,11713.910069,W,23.8,62.4,260710,,,A*71
$GPRMC,181711.2,A,3248.027706,N,11713.889300,W,24.8,63.9,260710,,,A*77
$GPRMC,181714.2,A,3248.038887,N,11713.866672,W,25.7,61.9,260710,,,A*77
$GPRMC,181717.2,A,3248.049892,N,11713.842792,W,28.6,63.1,260710,,,A*79
$GPRMC,181720.2,A,3248.060591,N,11713.816413,W,28.3,64.8,260710,,,A*78
$GPRMC,181723.2,A,3248.073105,N,11713.789431,W,31.0,60.3,260710,,,A*7D
$GPRMC,181726.2,A,3248.084896,N,11713.763314,W,29.8,62.3,260710,,,A*74
$GPRMC,181729.2,A,3248.096090,N,11713.737388,W,30.3,63.3,260710,,,A*70
$GPRMC,181732.2,A,3248.109392,N,11713.708762,W,32.0,63.5,260710,,,A*77
$GPRMC,181735.2,A,3248.120799,N,11713.679616,W,31.4,61.9,260710,,,A*78
$GPRMC,181738.2,A,3248.133986,N,11713.654954,W,29.1,56.7,260710,,,A*77
$GPRMC,181741.2,A,3248.144800,N,11713.635842,W,21.6,54.6,260710,,,A*7B
$GPRMC,181744.2,A,3248.154375,N,11713.623100,W,14.3,50.1,260710,,,A*7E
$GPRMC,181747.2,A,3248.158668,N,11713.616397,W,6.7,47.7,260710,,,A*45
$GPRMC,181750.9,A,3248.161040,N,11713.608591,W,6.8,68.3,260710,,,A*47
$GPRMC,181809.9,A,3248.169561,N,11713.597417,W,16.0,54.5,260710,,,A*70
$GPRMC,181812.9,A,3248.183420,N,11713.581507,W,23.9,48.9,260710,,,A*73
$GPRMC,181815.9,A,3248.201813,N,11713.562001,W,29.1,46.9,260710,,,A*73
$GPRMC,181818.9,A,3248.217887,N,11713.540013,W,29.4,47.6,260710,,,A*7C
$GPRMC,181821.0,A,3248.230624,N,11713.521663,W,34.3,47.7,260710,,,A*71
$GPRMC,181825.2,A,3248.256958,N,11713.488405,W,32.6,43.7,260710,,,A*74
$GPRMC,181828.0,A,3248.269919,N,11713.465890,W,29.9,51.9,260710,,,A*79
$GPRMC,181831.2,A,3248.283167,N,11713.444924,W,21.0,56.1,260710,,,A*75
$GPRMC,181858.2,A,3248.291654,N,11713.430269,W,13.7,67.3,260710,,,A*79
$GPRMC,181901.2,A,3248.301794,N,11713.406796,W,24.7,67.8,260710,,,A*7E
$GPRMC,181904.2,A,3248.310777,N,11713.380961,W,26.4,70.5,260710,,,A*73
$GPRMC,181907.9,A,3248.320619,N,11713.346413,W,27.2,70.5,260710,,,A*74
$GPRMC,181910.2,A,3248.325697,N,11713.325400,W,30.3,75.6,260710,,,A*7C
$GPRMC,181913.0,A,3248.330806,N,11713.297925,W,29.3,75.9,260710,,,A*7A
$GPRMC,181916.2,A,3248.339232,N,11713.269351,W,25.9,71.3,260710,,,A*79
$GPRMC,181919.9,A,3248.344727,N,11713.243709,W,19.4,75.9,260710,,,A*7B
$GPRMC,181922.9,A,3248.347963,N,11713.230145,W,12.1,71.0,260710,,,A*77
$GPRMC,182041.2,A,3248.351339,N,11713.215699,W,10.1,75.5,260710,,,A*73
$GPRMC,182044.2,A,3248.355560,N,11713.194626,W,16.3,74.8,260710,,,A*7E
$GPRMC,182047.2,A,3248.359104,N,11713.175228,W,17.0,78.2,260710,,,A*76
$GPRMC,182050.2,A,3248.361974,N,11713.158154,W,15.8,77.0,260710,,,A*74
$GPRMC,182053.9,A,3248.362867,N,11713.143572,W,7.7,78.6,260710,,,A*43
$GPRMC,182247.0,A,3248.365504,N,11713.141991,W,5.0,40.7,260710,,,A*4E
$GPRMC,182250.2,A,3248.369974,N,11713.142454,W,5.5,341.0,260710,,,A*7A
$GPRMC,182253.2,A,3248.379466,N,11713.146081,W,9.1,334.6,260710,,,A*72
$GPRMC,182256.0,A,3248.399044,N,11713.152099,W,18.0,336.2,260710,,,A*44
$GPRMC,182259.9,A,3248.443286,N,11713.159033,W,29.8,348.8,260710,,,A*4C
$GPRMC,182302.2,A,3248.463613,N,11713.162772,W,30.5,353.5,260710,,,A*4A
$GPRMC,182305.2,A,3248.490898,N,11713.167054,W,30.9,354.0,260710,,,A*44
$GPRMC,182308.9,A,3248.526156,N,11713.170626,W,30.8,354.5,260710,,,A*44
$GPRMC,182311.9,A,3248.551415,N,11713.175019,W,30.5,353.9,260710,,,A*47
$GPRMC,182315.2,A,3248.581110,N,11713.178098,W,30.7,354.5,260710,,,A*48
$GPRMC,182318.2,A,3248.606806,N,11713.183073,W,30.1,350.2,260710,,,A*43
$GPRMC,182321.9,A,3248.636403,N,11713.190824,W,29.3,346.8,260710,,,A*47
$GPRMC,182325.2,A,3248.667703,N,11713.196998,W,31.9,349.1,260710,,,A*4A
$GPRMC,182328.9,A,3248.700072,N,11713.201309,W,32.4,352.0,260710,,,A*47
$GPRMC,182331.9,A,3248.731191,N,11713.206440,W,36.2,351.7,260710,,,A*4A
$GPRMC,182334.2,A,3248.754960,N,11713.210879,W,37.3,350.8,260710,,,A*4E
$GPRMC,182337.2,A,3248.787275,N,11713.219190,W,39.9,345.1,260710,,,A*42
$GPRMC,182340.2,A,3248.817127,N,11713.236230,W,41.8,332.5,260710,,,A*4E
$GPRMC,182343.2,A,3248.845794,N,11713.264177,W,45.4,321.1,260710,,,A*4D
$GPRMC,182346.2,A,3248.876013,N,11713.295293,W,47.0,319.3,260710,,,A*48
$GPRMC,182349.2,A,3248.906083,N,11713.325742,W,47.3,320.6,260710,,,A*47
$GPRMC,182352.2,A,3248.938592,N,11713.355361,W,49.6,324.6,260710,,,A*48
$GPRMC,182355.2,A,3248.971420,N,11713.383538,W,50.2,322.9,260710,,,A*4E
$GPRMC,182359.2,A,3249.017776,N,11713.424924,W,53.1,324.0,260710,,,A*4E
$GPRMC,182402.2,A,3249.051187,N,11713.457502,W,52.7,320.5,260710,,,A*47
$GPRMC,182405.2,A,3249.086093,N,11713.491116,W,53.1,319.9,260710,,,A*44
$GPRMC,182408.2,A,3249.121468,N,11713.525828,W,54.4,319.2,260710,,,A*46
$GPRMC,182411.9,A,3249.166408,N,11713.570143,W,54.9,317.4,260710,,,A*41
$GPRMC,182415.2,A,3249.204464,N,11713.608969,W,53.8,318.9,260710,,,A*4B
$GPRMC,182418.9,A,3249.246189,N,11713.653369,W,54.2,319.0,260710,,,A*4C
$GPRMC,182421.9,A,3249.284779,N,11713.688390,W,55.5,322.5,260710,,,A*4A
$GPRMC,182424.9,A,3249.323023,N,11713.722645,W,56.1,320.7,260710,,,A*40
$GPRMC,182427.9,A,3249.356578,N,11713.757958,W,55.7,318.6,260710,,,A*44
$GPRMC,182430.9,A,3249.391612,N,11713.795452,W,56.5,319.1,260710,,,A*48
$GPRMC,182433.9,A,3249.425444,N,11713.830476,W,56.0,320.6,260710,,,A*4C
$GPRMC,182436.9,A,3249.463240,N,11713.863471,W,55.1,325.4,260710,,,A*4D
$GPRMC,182439.9,A,3249.504163,N,11713.890706,W,55.7,331.8,260710,,,A*40
$GPRMC,182442.9,A,3249.547649,N,11713.915738,W,56.0,336.4,260710,,,A*4A
$GPRMC,182445.9,A,3249.589378,N,11713.934629,W,55.0,341.1,260710,,,A*4C
$GPRMC,182448.9,A,3249.633982,N,11713.945630,W,53.7,346.6,260710,,,A*43
$GPRMC,182451.9,A,3249.678035,N,11713.954187,W,53.7,350.7,260710,,,A*4C
$GPRMC,182454.9,A,3249.722199,N,11713.955167,W,53.8,359.2,260710,,,A*4C
$GPRMC,182457.9,A,3249.769804,N,11713.956700,W,54.7,359.3,260710,,,A*40
$GPRMC,182500.9,A,3249.817253,N,11713.957316,W,55.5,358.6,260710,,,A*48
$GPRMC,182503.9,A,3249.865533,N,11713.958960,W,56.0,359.2,260710,,,A*48
$GPRMC,182506.9,A,3249.909639,N,11713.958804,W,53.8,0.7,260710,,,A*4B
$GPRMC,182509.9,A,3249.957765,N,11713.958202,W,56.1,357.7,260710,,,A*46
$GPRMC,182512.9,A,3250.008174,N,11713.963712,W,57.6,352.0,260710,,,A*49
$GPRMC,182515.9,A,3250.054314,N,11713.974414,W,54.7,345.8,260710,,,A*4C
$GPRMC,182518.9,A,3250.095443,N,11713.990820,W,52.2,341.5,260710,,,A*42
$GPRMC,182521.9,A,3250.134658,N,11714.009601,W,51.1,340.3,260710,,,A*4E
$GPRMC,182524.9,A,3250.175001,N,11714.027975,W,50.3,339.2,260710,,,A*48
$GPRMC,182527.9,A,3250.217992,N,11714.045681,W,54.0,338.0,260710,,,A*4B
$GPRMC,182530.9,A,3250.260072,N,11714.064994,W,55.4,337.7,260710,,,A*4F
$GPRMC,182533.9,A,3250.307413,N,11714.082979,W,57.5,339.9,260710,,,A*47
$GPRMC,182536.9,A,3250.346540,N,11714.107555,W,55.9,338.2,260710,,,A*4A
$GPRMC,182539.9,A,3250.387622,N,11714.127622,W,54.6,338.1,260710,,,A*43
$GPRMC,182542.9,A,3250.432601,N,11714.146286,W,55.7,339.7,260710,,,A*4D
$GPRMC,182545.9,A,3250.476106,N,11714.162964,W,55.4,342.7,260710,,,A*44
$GPRMC,182548.9,A,3250.522595,N,11714.173512,W,55.2,349.1,260710,,,A*41
$GPRMC,182551.9,A,3250.564084,N,11714.181557,W,52.1,352.9,260710,,,A*44
$GPRMC,182554.9,A,3250.606833,N,11714.188104,W,51.3,353.1,260710,,,A*41
$GPRMC,182557.9,A,3250.659031,N,11714.180419,W,53.3,4.3,260710,,,A*42
$GPRMC,182600.9,A,3250.704265,N,11714.171155,W,53.5,6.9,260710,,,A*44
$GPRMC,182603.2,A,3250.741273,N,11714.164419,W,55.6,7.7,260710,,,A*49
$GPRMC,182606.2,A,3250.789219,N,11714.155638,W,55.7,7.2,260710,,,A*43
$GPRMC,182609.2,A,3250.836205,N,11714.148020,W,55.9,7.8,260710,,,A*4D
$GPRMC,182612.9,A,3250.891757,N,11714.135665,W,53.6,12.4,260710,,,A*7F
$GPRMC,182615.9,A,3250.935654,N,11714.119553,W,56.6,19.7,260710,,,A*70
$GPRMC,182618.9,A,3250.979114,N,11714.097640,W,55.7,25.0,260710,,,A*7A
$GPRMC,182621.9,A,3251.021233,N,11714.071177,W,57.3,28.9,260710,,,A*7A
$GPRMC,182624.9,A,3251.065122,N,11714.040222,W,57.9,30.3,260710,,,A*74
$GPRMC,182627.9,A,3251.105363,N,11714.013188,W,56.1,29.8,260710,,,A*78
$GPRMC,182630.9,A,3251.143102,N,11713.985838,W,55.3,30.6,260710,,,A*7D
$GPRMC,182633.9,A,3251.180368,N,11713.957952,W,54.5,31.5,260710,,,A*78
$GPRMC,182636.9,A,3251.218396,N,11713.929113,W,55.5,31.0,260710,,,A*7E
$GPRMC,182639.9,A,3251.262043,N,11713.902851,W,56.0,28.5,260710,,,A*7A
$GPRMC,182642.9,A,3251.305373,N,11713.874899,W,58.0,26.2,260710,,,A*75
$GPRMC,182645.9,A,3251.347514,N,11713.852262,W,56.1,22.9,260710,,,A*79
$GPRMC,182648.9,A,3251.394351,N,11713.836129,W,56.7,16.4,260710,,,A*7F
$GPRMC,182652.2,A,3251.449778,N,11713.824385,W,57.7,11.1,260710,,,A*73
$GPRMC,182655.9,A,3251.505900,N,11713.818998,W,58.1,6.2,260710,,,A*42
$GPRMC,182658.9,A,3251.556175,N,11713.813333,W,59.0,5.4,260710,,,A*46
$GPRMC,182701.9,A,3251.599748,N,11713.812126,W,56.1,4.8,260710,,,A*44
$GPRMC,182704.9,A,3251.647352,N,11713.809577,W,56.7,4.4,260710,,,A*4E
$GPRMC,182707.9,A,3251.690867,N,11713.802909,W,54.1,4.5,260710,,,A*41
$GPRMC,182710.9,A,3251.736119,N,11713.799793,W,55.7,3.8,260710,,,A*47
$GPRMC,182713.9,A,3251.781768,N,11713.795450,W,55.6,4.4,260710,,,A*42
$GPRMC,182716.9,A,3251.833031,N,11713.788589,W,58.4,5.1,260710,,,A*48
$GPRMC,182719.9,A,3251.879098,N,11713.784014,W,57.1,4.9,260710,,,A*44
$GPRMC,182722.9,A,3251.923411,N,11713.783501,W,55.5,3.4,260710,,,A*4D
$GPRMC,182725.9,A,3251.967441,N,11713.780027,W,54.2,3.5,260710,,,A*4A
$GPRMC,182728.9,A,3252.015190,N,11713.775102,W,56.6,4.9,260710,,,A*40
$GPRMC,182731.9,A,3252.057897,N,11713.773214,W,55.0,2.8,260710,,,A*40
$GPRMC,182735.2,A,3252.114589,N,11713.765184,W,56.9,5.2,260710,,,A*41
$GPRMC,182738.9,A,3252.171206,N,11713.759678,W,54.8,4.9,260710,,,A*46
$GPRMC,182741.9,A,3252.217142,N,11713.753864,W,55.1,3.9,260710,,,A*4E
$GPRMC,182744.9,A,3252.263051,N,11713.750559,W,54.8,2.6,260710,,,A*4D
$GPRMC,182747.9,A,3252.317494,N,11713.743022,W,57.0,5.2,260710,,,A*42
$GPRMC,182750.2,A,3252.354092,N,11713.739710,W,57.1,4.7,260710,,,A*44
$GPRMC,182753.9,A,3252.415380,N,11713.733493,W,59.9,2.1,260710,,,A*4A
$GPRMC,182756.9,A,3252.461406,N,11713.727117,W,56.3,5.1,260710,,,A*4B
$GPRMC,182759.9,A,3252.506712,N,11713.723213,W,55.9,4.3,260710,,,A*4B
$GPRMC,182802.9,A,3252.554581,N,11713.720902,W,57.1,3.7,260710,,,A*44
$GPRMC,182805.9,A,3252.602146,N,11713.715641,W,57.0,4.7,260710,,,A*44
$GPRMC,182808.9,A,3252.647850,N,11713.711626,W,56.9,4.5,260710,,,A*49
$GPRMC,182811.9,A,3252.694713,N,11713.708612,W,56.9,3.3,260710,,,A*49
$GPRMC,182814.9,A,3252.744300,N,11713.704506,W,57.9,4.0,260710,,,A*49
$GPRMC,182817.9,A,3252.792206,N,11713.698324,W,57.7,5.1,260710,,,A*4A
$GPRMC,182820.9,A,3252.841438,N,11713.690657,W,58.4,5.8,260710,,,A*48
$GPRMC,182823.9,A,3252.889707,N,11713.685616,W,57.9,5.7,260710,,,A*4C
$GPRMC,182826.9,A,3252.930508,N,11713.688564,W,55.8,2.9,260710,,,A*46
$GPRMC,182829.9,A,3252.976478,N,11713.685528,W,55.0,3.4,260710,,,A*4C
$GPRMC,182832.9,A,3253.023706,N,11713.681464,W,55.9,4.0,260710,,,A*43
$GPRMC,182835.9,A,3253.073289,N,11713.674848,W,57.3,4.0,260710,,,A*43
$GPRMC,182838.9,A,3253.124747,N,11713.664647,W,58.5,5.9,260710,,,A*4B
$GPRMC,182841.9,A,3253.171712,N,11713.661786,W,57.0,4.4,260710,,,A*4A
$GPRMC,182844.9,A,3253.221824,N,11713.655057,W,58.5,5.1,260710,,,A*41
$GPRMC,182847.2,A,3253.259223,N,11713.652333,W,57.6,4.7,260710,,,A*46
$GPRMC,182850.9,A,3253.318010,N,11713.647214,W,56.6,3.7,260710,,,A*4B
$GPRMC,182853.9,A,3253.362236,N,11713.643984,W,54.7,3.0,260710,,,A*41
$GPRMC,182856.9,A,3253.408973,N,11713.641891,W,54.5,3.1,260710,,,A*41
$GPRMC,182859.9,A,3253.460142,N,11713.635013,W,57.2,4.5,260710,,,A*4C
$GPRMC,182902.9,A,3253.510897,N,11713.626856,W,57.6,5.4,260710,,,A*4B
$GPRMC,182905.9,A,3253.556051,N,11713.620850,W,55.2,5.7,260710,,,A*49
$GPRMC,182908.9,A,3253.601414,N,11713.617719,W,54.3,6.3,260710,,,A*41
$GPRMC,182911.9,A,3253.653227,N,11713.602523,W,56.7,12.9,260710,,,A*7E
$GPRMC,182914.9,A,3253.702797,N,11713.587030,W,59.5,16.5,260710,,,A*7C
$GPRMC,182917.9,A,3253.749498,N,11713.568681,W,58.8,18.7,260710,,,A*71
$GPRMC,182920.9,A,3253.797705,N,11713.549707,W,59.8,18.3,260710,,,A*78
$GPRMC,182923.9,A,3253.838147,N,11713.533356,W,56.5,18.8,260710,,,A*75
$GPRMC,182926.9,A,3253.882709,N,11713.515836,W,56.2,18.2,260710,,,A*79
$GPRMC,182929.9,A,3253.924799,N,11713.499523,W,55.2,18.0,260710,,,A*7F
$GPRMC,182933.2,A,3253.975534,N,11713.477463,W,57.3,17.9,260710,,,A*7E
$GPRMC,182936.2,A,3254.021703,N,11713.460295,W,57.0,17.9,260710,,,A*78
$GPRMC,182939.2,A,3254.066353,N,11713.443964,W,56.9,15.3,260710,,,A*71
$GPRMC,182942.2,A,3254.112408,N,11713.431981,W,57.0,9.5,260710,,,A*4B
$GPRMC,182945.2,A,3254.159620,N,11713.425515,W,57.1,4.5,260710,,,A*43
$GPRMC,182948.9,A,3254.218953,N,11713.423887,W,57.8,358.6,260710,,,A*48
$GPRMC,182951.9,A,3254.267081,N,11713.430145,W,56.7,353.0,260710,,,A*48
$GPRMC,182954.9,A,3254.314067,N,11713.440042,W,57.7,351.0,260710,,,A*42
$GPRMC,182957.9,A,3254.358934,N,11713.454777,W,57.5,343.3,260710,,,A*40
$GPRMC,183000.9,A,3254.402088,N,11713.476416,W,57.7,336.5,260710,,,A*4E
$GPRMC,183003.9,A,3254.444232,N,11713.502496,W,57.3,331.9,260710,,,A*49
$GPRMC,183006.9,A,3254.484488,N,11713.532268,W,57.3,326.8,260710,,,A*44
$GPRMC,183009.9,A,3254.517853,N,11713.564377,W,55.4,323.3,260710,,,A*4D
$GPRMC,183012.9,A,3254.557722,N,11713.597748,W,56.7,324.5,260710,,,A*4F
$GPRMC,183015.9,A,3254.603240,N,11713.629177,W,57.0,329.4,260710,,,A*4D
$GPRMC,183018.9,A,3254.644372,N,11713.655531,W,56.7,332.2,260710,,,A*44
$GPRMC,183021.9,A,3254.686010,N,11713.681465,W,57.2,332.5,260710,,,A*4D
$GPRMC,183024.9,A,3254.728623,N,11713.707592,W,57.3,332.2,260710,,,A*4B
$GPRMC,183027.9,A,3254.769428,N,11713.734666,W,57.4,332.7,260710,,,A*4E
$GPRMC,183030.9,A,3254.810537,N,11713.760394,W,55.5,331.6,260710,,,A*4E
$GPRMC,183033.9,A,3254.852510,N,11713.785510,W,56.4,330.2,260710,,,A*48
$GPRMC,183036.9,A,3254.891884,N,11713.817257,W,58.0,325.4,260710,,,A*4A
$GPRMC,183039.9,A,3254.927242,N,11713.852408,W,56.7,320.6,260710,,,A*4A
$GPRMC,183042.9,A,3254.962772,N,11713.893683,W,59.4,316.1,260710,,,A*43
$GPRMC,183045.9,A,3254.995021,N,11713.936348,W,59.5,313.0,260710,,,A*44
$GPRMC,183048.9,A,3255.025345,N,11713.981903,W,58.2,310.1,260710,,,A*46
$GPRMC,183051.9,A,3255.056256,N,11714.025021,W,57.1,310.4,260710,,,A*49
$GPRMC,183054.9,A,3255.088534,N,11714.066551,W,57.6,312.6,260710,,,A*4E
$GPRMC,183057.9,A,3255.121518,N,11714.106941,W,57.2,315.3,260710,,,A*4D
$GPRMC,183100.9,A,3255.157186,N,11714.143405,W,57.0,320.0,260710,,,A*47
$GPRMC,183103.9,A,3255.195535,N,11714.178175,W,56.4,324.1,260710,,,A*4C
$GPRMC,183106.9,A,3255.236554,N,11714.209293,W,57.0,326.7,260710,,,A*4B
$GPRMC,183109.9,A,3255.278829,N,11714.237914,W,57.4,330.2,260710,,,A*46
$GPRMC,183112.9,A,3255.321255,N,11714.265031,W,58.1,332.9,260710,,,A*4A
$GPRMC,183115.9,A,3255.363585,N,11714.289681,W,57.4,335.4,260710,,,A*4E
$GPRMC,183118.9,A,3255.403114,N,11714.310679,W,53.4,337.4,260710,,,A*4E
$GPRMC,183121.9,A,3255.449669,N,11714.327722,W,56.8,342.9,260710,,,A*4A
$GPRMC,183124.9,A,3255.496784,N,11714.341690,W,56.5,344.0,260710,,,A*45
$GPRMC,183127.9,A,3255.542230,N,11714.356392,W,56.7,344.1,260710,,,A*46
$GPRMC,183130.9,A,3255.588710,N,11714.372652,W,58.0,343.3,260710,,,A*42
$GPRMC,183133.9,A,3255.634203,N,11714.389570,W,57.3,342.9,260710,,,A*42
$GPRMC,183136.9,A,3255.679843,N,11714.406127,W,56.9,344.2,260710,,,A*40
$GPRMC,183139.9,A,3255.726054,N,11714.420410,W,56.7,345.2,260710,,,A*40
$GPRMC,183142.9,A,3255.771387,N,11714.433053,W,56.1,347.7,260710,,,A*43
$GPRMC,183145.9,A,3255.814695,N,11714.443229,W,53.6,349.3,260710,,,A*4E
$GPRMC,183148.9,A,3255.857665,N,11714.451473,W,52.0,351.0,260710,,,A*4C
$GPRMC,183151.9,A,3255.896859,N,11714.460355,W,50.3,351.2,260710,,,A*4A
$GPRMC,183154.9,A,3255.940905,N,11714.465272,W,52.3,353.6,260710,,,A*48
$GPRMC,183157.9,A,3255.988316,N,11714.469159,W,55.5,354.9,260710,,,A*48
$GPRMC,183200.9,A,3256.037891,N,11714.472336,W,57.1,356.0,260710,,,A*4F
$GPRMC,183203.9,A,3256.085564,N,11714.476581,W,57.0,356.6,260710,,,A*4B
$GPRMC,183206.9,A,3256.133870,N,11714.481079,W,57.7,356.1,260710,,,A*40
$GPRMC,183209.9,A,3256.182484,N,11714.484613,W,56.8,356.2,260710,,,A*40
$GPRMC,183212.9,A,3256.233503,N,11714.486829,W,58.9,357.0,260710,,,A*44
$GPRMC,183215.9,A,3256.278587,N,11714.490392,W,55.8,356.6,260710,,,A*47
$GPRMC,183218.9,A,3256.327708,N,11714.493043,W,58.1,355.7,260710,,,A*4E
$GPRMC,183221.9,A,3256.374551,N,11714.498491,W,57.2,353.9,260710,,,A*48
$GPRMC,183224.9,A,3256.420713,N,11714.507362,W,57.2,352.1,260710,,,A*4A
$GPRMC,183227.9,A,3256.467905,N,11714.514026,W,58.2,352.6,260710,,,A*4A
$GPRMC,183230.9,A,3256.517363,N,11714.521840,W,58.7,351.9,260710,,,A*47
$GPRMC,183233.9,A,3256.561799,N,11714.531956,W,57.0,350.4,260710,,,A*47
$GPRMC,183236.9,A,3256.605377,N,11714.542380,W,54.7,349.8,260710,,,A*42
$GPRMC,183239.9,A,3256.649048,N,11714.552422,W,54.1,350.0,260710,,,A*42
$GPRMC,183242.9,A,3256.698296,N,11714.561551,W,57.4,350.9,260710,,,A*49
$GPRMC,183245.9,A,3256.746431,N,11714.570435,W,57.4,351.6,260710,,,A*4A
$GPRMC,183248.9,A,3256.795787,N,11714.577371,W,58.5,352.7,260710,,,A*4B
$GPRMC,183251.9,A,3256.841226,N,11714.585644,W,56.9,352.1,260710,,,A*41
$GPRMC,183254.9,A,3256.892474,N,11714.591713,W,59.2,351.9,260710,,,A*42
$GPRMC,183257.9,A,3256.941973,N,11714.599005,W,58.6,351.8,260710,,,A*48
$GPRMC,183300.9,A,3256.988168,N,11714.606416,W,57.0,351.7,260710,,,A*49
$GPRMC,183303.2,A,3257.023850,N,11714.614073,W,56.7,351.3,260710,,,A*4C
$GPRMC,183306.9,A,3257.082806,N,11714.626729,W,56.6,350.4,260710,,,A*44
$GPRMC,183309.9,A,3257.130259,N,11714.635283,W,57.0,351.1,260710,,,A*47
$GPRMC,183312.9,A,3257.179763,N,11714.641936,W,58.1,350.8,260710,,,A*4C
$GPRMC,183315.9,A,3257.226563,N,11714.654374,W,57.7,349.4,260710,,,A*45
$GPRMC,183318.9,A,3257.274634,N,11714.665590,W,58.5,350.8,260710,,,A*49
$GPRMC,183321.9,A,3257.315247,N,11714.675685,W,56.4,350.0,260710,,,A*44
$GPRMC,183324.9,A,3257.365048,N,11714.683732,W,57.9,351.3,260710,,,A*41
$GPRMC,183327.9,A,3257.416522,N,11714.690695,W,59.7,351.8,260710,,,A*4D
$GPRMC,183330.9,A,3257.463965,N,11714.702541,W,58.8,350.5,260710,,,A*44
$GPRMC,183333.9,A,3257.510993,N,11714.711212,W,58.2,350.5,260710,,,A*42
$GPRMC,183336.9,A,3257.560401,N,11714.720825,W,58.2,348.9,260710,,,A*4F
$GPRMC,183339.9,A,3257.607454,N,11714.734535,W,58.4,346.5,260710,,,A*4F
$GPRMC,183342.9,A,3257.654117,N,11714.747787,W,58.0,344.9,260710,,,A*42
$GPRMC,183345.9,A,3257.699846,N,11714.762532,W,58.3,344.0,260710,,,A*48
$GPRMC,183348.9,A,3257.749018,N,11714.779023,W,59.0,342.6,260710,,,A*47
$GPRMC,183351.9,A,3257.791971,N,11714.796904,W,57.1,341.6,260710,,,A*4D
$GPRMC,183354.9,A,3257.837811,N,11714.814747,W,57.2,342.5,260710,,,A*43
$GPRMC,183357.9,A,3257.884583,N,11714.831341,W,56.4,341.9,260710,,,A*43
$GPRMC,183400.9,A,3257.927841,N,11714.849134,W,55.4,341.1,260710,,,A*49
$GPRMC,183403.9,A,3257.970895,N,11714.867782,W,55.1,340.6,260710,,,A*45
$GPRMC,183406.9,A,3258.017397,N,11714.886263,W,57.2,340.7,260710,,,A*4B
$GPRMC,183409.9,A,3258.067946,N,11714.901876,W,58.6,343.1,260710,,,A*4B
$GPRMC,183412.9,A,3258.109523,N,11714.919279,W,55.5,341.9,260710,,,A*4F
$GPRMC,183415.9,A,3258.158000,N,11714.933795,W,58.0,342.7,260710,,,A*42
$GPRMC,183418.9,A,3258.206836,N,11714.952319,W,59.2,342.9,260710,,,A*40
$GPRMC,183421.9,A,3258.254373,N,11714.970053,W,59.1,343.0,260710,,,A*41
$GPRMC,183424.9,A,3258.299142,N,11714.987284,W,56.5,342.7,260710,,,A*48
$GPRMC,183427.9,A,3258.341405,N,11715.004380,W,55.3,342.0,260710,,,A*4D
$GPRMC,183430.9,A,3258.385549,N,11715.022072,W,56.2,341.8,260710,,,A*49
$GPRMC,183433.9,A,3258.429150,N,11715.039036,W,56.9,341.7,260710,,,A*49
$GPRMC,183436.9,A,3258.474276,N,11715.056267,W,56.4,342.6,260710,,,A*43
$GPRMC,183439.9,A,3258.521126,N,11715.073026,W,57.6,342.4,260710,,,A*4A
$GPRMC,183442.9,A,3258.563281,N,11715.090593,W,56.1,341.5,260710,,,A*4C
$GPRMC,183445.9,A,3258.608563,N,11715.107058,W,56.8,342.1,260710,,,A*4D
$GPRMC,183448.9,A,3258.655937,N,11715.124252,W,57.5,343.3,260710,,,A*43
$GPRMC,183451.9,A,3258.699880,N,11715.141115,W,56.2,342.6,260710,,,A*47
$GPRMC,183454.9,A,3258.744691,N,11715.156866,W,56.6,342.7,260710,,,A*43
$GPRMC,183457.9,A,3258.789046,N,11715.173034,W,56.7,342.3,260710,,,A*40
$GPRMC,183500.9,A,3258.832960,N,11715.189966,W,55.0,342.5,260710,,,A*48
$GPRMC,183503.9,A,3258.878445,N,11715.205946,W,56.0,343.1,260710,,,A*4C
$GPRMC,183506.9,A,3258.923263,N,11715.222738,W,57.9,343.0,260710,,,A*4F
$GPRMC,183509.9,A,3258.970794,N,11715.239058,W,58.4,343.2,260710,,,A*40
$GPRMC,183512.9,A,3259.016121,N,11715.256950,W,57.3,342.2,260710,,,A*4B
$GPRMC,183515.9,A,3259.063469,N,11715.271862,W,56.8,345.7,260710,,,A*4A
$GPRMC,183518.9,A,3259.108563,N,11715.283039,W,55.0,349.0,260710,,,A*4B
$GPRMC,183521.9,A,3259.158308,N,11715.289069,W,57.4,352.8,260710,,,A*44
$GPRMC,183524.9,A,3259.200105,N,11715.298694,W,54.7,351.5,260710,,,A*4A
$GPRMC,183527.9,A,3259.244776,N,11715.305744,W,55.6,352.5,260710,,,A*41
$GPRMC,183530.9,A,3259.291886,N,11715.315117,W,56.5,351.8,260710,,,A*40
$GPRMC,183533.9,A,3259.339591,N,11715.322728,W,57.1,352.6,260710,,,A*4D
$GPRMC,183536.9,A,3259.389181,N,11715.330388,W,58.3,352.7,260710,,,A*47
$GPRMC,183539.9,A,3259.439131,N,11715.335428,W,58.8,353.6,260710,,,A*4C
$GPRMC,183542.9,A,3259.486356,N,11715.341121,W,56.9,353.1,260710,,,A*40
$GPRMC,183545.9,A,3259.528694,N,11715.349225,W,55.8,351.9,260710,,,A*4E
$GPRMC,183548.9,A,3259.574191,N,11715.356912,W,56.0,352.6,260710,,,A*4E
$GPRMC,183551.9,A,3259.620238,N,11715.363398,W,55.7,353.1,260710,,,A*48
$GPRMC,183554.9,A,3259.666730,N,11715.372391,W,56.4,352.0,260710,,,A*4B
$GPRMC,183557.9,A,3259.714502,N,11715.378682,W,57.0,352.5,260710,,,A*42
$GPRMC,183600.9,A,3259.758545,N,11715.386970,W,55.4,353.2,260710,,,A*4B
$GPRMC,183603.9,A,3259.804140,N,11715.393707,W,54.7,353.5,260710,,,A*40
$GPRMC,183606.9,A,3259.844374,N,11715.401723,W,51.8,352.9,260710,,,A*49
$GPRMC,183609.9,A,3259.888500,N,11715.409401,W,52.0,352.5,260710,,,A*4F
$GPRMC,183612.9,A,3259.928876,N,11715.417704,W,51.6,351.3,260710,,,A*4B
$GPRMC,183615.9,A,3259.976527,N,11715.425462,W,55.8,351.3,260710,,,A*46
$GPRMC,183618.9,A,3300.019878,N,11715.433110,W,54.7,351.3,260710,,,A*48
$GPRMC,183621.9,A,3300.065344,N,11715.440421,W,55.3,352.1,260710,,,A*4A
$GPRMC,183624.9,A,3300.112199,N,11715.449563,W,56.4,351.2,260710,,,A*46
$GPRMC,183627.9,A,3300.165092,N,11715.457564,W,57.9,352.0,260710,,,A*4A
$GPRMC,183630.9,A,3300.205898,N,11715.474607,W,56.6,341.6,260710,,,A*46
$GPRMC,183633.9,A,3300.252943,N,11715.495290,W,57.8,337.2,260710,,,A*4F
$GPRMC,183636.9,A,3300.296628,N,11715.520331,W,57.8,332.8,260710,,,A*4A
$GPRMC,183639.9,A,3300.335888,N,11715.549903,W,56.1,326.7,260710,,,A*4F
$GPRMC,183642.9,A,3300.374662,N,11715.583440,W,58.2,322.6,260710,,,A*48
$GPRMC,183645.9,A,3300.407399,N,11715.623486,W,55.7,316.9,260710,,,A*4E
$GPRMC,183648.9,A,3300.439529,N,11715.659519,W,53.1,316.9,260710,,,A*49
$GPRMC,183651.9,A,3300.468519,N,11715.694136,W,51.0,315.9,260710,,,A*4E
$GPRMC,183654.9,A,3300.499948,N,11715.728968,W,52.9,316.0,260710,,,A*48
$GPRMC,183657.9,A,3300.532989,N,11715.766294,W,55.4,316.9,260710,,,A*47
$GPRMC,183700.9,A,3300.568187,N,11715.802726,W,54.6,317.2,260710,,,A*45
$GPRMC,183703.2,A,3300.593141,N,11715.830129,W,53.9,316.7,260710,,,A*47
$GPRMC,183706.9,A,3300.636742,N,11715.876048,W,55.1,316.9,260710,,,A*44
$GPRMC,183709.9,A,3300.668668,N,11715.914247,W,54.0,316.4,260710,,,A*4C
$GPRMC,183712.9,A,3300.701500,N,11715.951131,W,54.0,317.2,260710,,,A*41
$GPRMC,183715.9,A,3300.732869,N,11715.989338,W,53.6,316.1,260710,,,A*49
$GPRMC,183718.9,A,3300.765399,N,11716.026977,W,54.8,315.7,260710,,,A*40
$GPRMC,183721.9,A,3300.797721,N,11716.066330,W,56.0,316.1,260710,,,A*42
$GPRMC,183724.2,A,3300.823029,N,11716.094664,W,55.3,316.5,260710,,,A*4E
$GPRMC,183727.9,A,3300.862311,N,11716.141931,W,54.6,316.0,260710,,,A*4C
$GPRMC,183730.9,A,3300.895288,N,11716.179275,W,53.8,315.0,260710,,,A*49
$GPRMC,183733.9,A,3300.931871,N,11716.215709,W,55.5,319.8,260710,,,A*41
$GPRMC,183736.9,A,3300.968578,N,11716.247039,W,54.1,323.0,260710,,,A*4B
$GPRMC,183739.9,A,3301.006355,N,11716.277204,W,54.3,326.1,260710,,,A*44
$GPRMC,183742.9,A,3301.046682,N,11716.303781,W,54.9,331.7,260710,,,A*43
$GPRMC,183745.9,A,3301.088383,N,11716.327068,W,55.8,336.1,260710,,,A*45
$GPRMC,183748.9,A,3301.132897,N,11716.346556,W,56.0,340.0,260710,,,A*42
$GPRMC,183751.9,A,3301.180678,N,11716.362911,W,57.1,344.8,260710,,,A*49
$GPRMC,183754.9,A,3301.226641,N,11716.374500,W,56.4,348.8,260710,,,A*4A
$GPRMC,183757.9,A,3301.271012,N,11716.384635,W,55.1,350.1,260710,,,A*47
$GPRMC,183800.9,A,3301.318192,N,11716.395058,W,57.5,350.9,260710,,,A*4E
$GPRMC,183803.9,A,3301.365193,N,11716.402655,W,56.4,351.0,260710,,,A*4C
$GPRMC,183806.9,A,3301.411881,N,11716.411026,W,55.9,350.0,260710,,,A*48
$GPRMC,183809.9,A,3301.457965,N,11716.422870,W,56.6,346.7,260710,,,A*49
$GPRMC,183812.9,A,3301.500665,N,11716.438431,W,56.5,343.0,260710,,,A*4C
$GPRMC,183815.9,A,3301.545277,N,11716.458321,W,56.9,339.0,260710,,,A*4C
$GPRMC,183818.9,A,3301.588528,N,11716.481230,W,56.1,334.8,260710,,,A*45
$GPRMC,183821.9,A,3301.628851,N,11716.507692,W,56.4,331.3,260710,,,A*4D
$GPRMC,183824.9,A,3301.670111,N,11716.533387,W,55.7,330.6,260710,,,A*4A
$GPRMC,183827.9,A,3301.711001,N,11716.559744,W,55.7,331.2,260710,,,A*4D
$GPRMC,183830.9,A,3301.749558,N,11716.587717,W,55.6,330.2,260710,,,A*4A
$GPRMC,183833.2,A,3301.782135,N,11716.609101,W,56.3,331.4,260710,,,A*4F
$GPRMC,183836.2,A,3301.822379,N,11716.637208,W,55.9,331.1,260710,,,A*4E
$GPRMC,183839.2,A,3301.862766,N,11716.665480,W,56.5,330.5,260710,,,A*44
$GPRMC,183842.9,A,3301.911815,N,11716.699958,W,56.0,329.9,260710,,,A*47
$GPRMC,183845.9,A,3301.953521,N,11716.727936,W,57.1,330.4,260710,,,A*45
$GPRMC,183848.9,A,3301.996237,N,11716.755013,W,57.1,331.0,260710,,,A*4F
$GPRMC,183851.9,A,3302.037806,N,11716.782697,W,57.1,330.5,260710,,,A*4A
$GPRMC,183854.9,A,3302.076166,N,11716.810561,W,55.3,330.8,260710,,,A*46
$GPRMC,183857.9,A,3302.115617,N,11716.837376,W,56.5,330.1,260710,,,A*49
$GPRMC,183900.9,A,3302.160122,N,11716.865195,W,57.1,331.6,260710,,,A*42
$GPRMC,183903.9,A,3302.200062,N,11716.892494,W,56.4,330.6,260710,,,A*48
$GPRMC,183906.9,A,3302.239006,N,11716.920067,W,55.1,330.0,260710,,,A*45
$GPRMC,183909.9,A,3302.281568,N,11716.949137,W,57.2,330.3,260710,,,A*4D
$GPRMC,183912.9,A,3302.322885,N,11716.976667,W,56.3,331.2,260710,,,A*4F
$GPRMC,183915.9,A,3302.364498,N,11717.002132,W,56.4,331.4,260710,,,A*47
$GPRMC,183918.9,A,3302.406109,N,11717.030329,W,56.6,331.2,260710,,,A*49
$GPRMC,183921.9,A,3302.444802,N,11717.061107,W,56.0,329.2,260710,,,A*42
$GPRMC,183924.9,A,3302.485930,N,11717.084499,W,55.6,333.9,260710,,,A*46
$GPRMC,183927.9,A,3302.529002,N,11717.107036,W,56.1,337.6,260710,,,A*4E
$GPRMC,183930.9,A,3302.576313,N,11717.125480,W,56.9,341.6,260710,,,A*41
$GPRMC,183933.9,A,3302.620379,N,11717.141025,W,54.9,344.2,260710,,,A*44
$GPRMC,183936.9,A,3302.665686,N,11717.155127,W,55.7,345.1,260710,,,A*4E
$GPRMC,183939.9,A,3302.714068,N,11717.165865,W,57.5,346.9,260710,,,A*47
$GPRMC,183942.9,A,3302.760220,N,11717.179079,W,57.0,345.5,260710,,,A*44
$GPRMC,183945.9,A,3302.806774,N,11717.191627,W,57.0,346.2,260710,,,A*47
$GPRMC,183948.9,A,3302.851319,N,11717.206953,W,56.4,345.5,260710,,,A*47
$GPRMC,183951.9,A,3302.894957,N,11717.221972,W,55.4,345.2,260710,,,A*44
$GPRMC,183954.9,A,3302.943261,N,11717.232845,W,57.5,346.9,260710,,,A*48
$GPRMC,183957.9,A,3302.988078,N,11717.247206,W,55.8,345.8,260710,,,A*44
$GPRMC,184000.9,A,3303.032517,N,11717.262620,W,55.9,344.5,260710,,,A*47
$GPRMC,184003.9,A,3303.076638,N,11717.274792,W,55.6,345.6,260710,,,A*48
$GPRMC,184006.9,A,3303.120246,N,11717.288744,W,55.2,344.9,260710,,,A*40
$GPRMC,184009.9,A,3303.169894,N,11717.302500,W,57.8,346.3,260710,,,A*46
$GPRMC,184012.9,A,3303.217083,N,11717.316223,W,57.9,346.1,260710,,,A*48
$GPRMC,184015.9,A,3303.263871,N,11717.328633,W,58.0,346.2,260710,,,A*44
$GPRMC,184018.9,A,3303.309530,N,11717.343577,W,57.4,345.7,260710,,,A*4F
$GPRMC,184021.9,A,3303.352702,N,11717.359680,W,56.3,344.8,260710,,,A*40
$GPRMC,184024.9,A,3303.403628,N,11717.371168,W,59.3,347.5,260710,,,A*45
$GPRMC,184027.9,A,3303.448133,N,11717.385936,W,57.7,346.3,260710,,,A*41
$GPRMC,184030.9,A,3303.494326,N,11717.399077,W,58.2,347.3,260710,,,A*4A
$GPRMC,184033.9,A,3303.540563,N,11717.412776,W,57.1,345.8,260710,,,A*41
$GPRMC,184036.9,A,3303.585302,N,11717.427729,W,56.8,345.8,260710,,,A*48
$GPRMC,184039.9,A,3303.633098,N,11717.442040,W,58.5,345.7,260710,,,A*4E
$GPRMC,184042.9,A,3303.677416,N,11717.455394,W,56.9,346.2,260710,,,A*48
$GPRMC,184045.9,A,3303.724426,N,11717.471078,W,56.3,345.8,260710,,,A*4F
$GPRMC,184048.9,A,3303.767383,N,11717.485158,W,56.8,344.3,260710,,,A*44
$GPRMC,184051.9,A,3303.813562,N,11717.500043,W,57.6,344.9,260710,,,A*4B
$GPRMC,184054.9,A,3303.860314,N,11717.513524,W,59.3,345.3,260710,,,A*4B
$GPRMC,184057.9,A,3303.909760,N,11717.528844,W,60.3,345.7,260710,,,A*4C
$GPRMC,184100.2,A,3303.948198,N,11717.538998,W,60.3,347.3,260710,,,A*47
$GPRMC,184103.9,A,3304.009172,N,11717.553997,W,58.3,346.3,260710,,,A*48
$GPRMC,184106.9,A,3304.053728,N,11717.566279,W,55.9,346.4,260710,,,A*46
$GPRMC,184109.9,A,3304.097158,N,11717.583077,W,56.1,344.8,260710,,,A*42
$GPRMC,184112.9,A,3304.144706,N,11717.597342,W,57.1,345.4,260710,,,A*46
$GPRMC,184115.9,A,3304.189000,N,11717.612370,W,55.2,344.4,260710,,,A*4E
$GPRMC,184118.9,A,3304.235182,N,11717.626443,W,56.5,346.0,260710,,,A*4E
$GPRMC,184121.9,A,3304.281581,N,11717.639875,W,55.8,345.0,260710,,,A*46
$GPRMC,184124.9,A,3304.325924,N,11717.654651,W,55.1,344.4,260710,,,A*40
$GPRMC,184127.9,A,3304.372546,N,11717.667809,W,56.5,345.4,260710,,,A*4C
$GPRMC,184130.9,A,3304.418358,N,11717.683103,W,57.8,345.9,260710,,,A*40
$GPRMC,184133.9,A,3304.466247,N,11717.697328,W,57.2,345.2,260710,,,A*4A
$GPRMC,184136.9,A,3304.515791,N,11717.708447,W,57.6,346.2,260710,,,A*4A
$GPRMC,184139.9,A,3304.562173,N,11717.720323,W,57.3,346.8,260710,,,A*4F
$GPRMC,184142.9,A,3304.604585,N,11717.736455,W,55.7,345.4,260710,,,A*45
$GPRMC,184145.9,A,3304.645885,N,11717.751248,W,54.7,344.6,260710,,,A*43
$GPRMC,184148.9,A,3304.694424,N,11717.765416,W,57.0,345.6,260710,,,A*4A
$GPRMC,184151.9,A,3304.741322,N,11717.778231,W,56.4,346.0,260710,,,A*45
$GPRMC,184154.9,A,3304.785545,N,11717.792781,W,55.4,344.7,260710,,,A*43
$GPRMC,184157.9,A,3304.830280,N,11717.807118,W,56.0,345.6,260710,,,A*4D
$GPRMC,184200.9,A,3304.876796,N,11717.819292,W,56.5,345.7,260710,,,A*46
$GPRMC,184203.2,A,3304.911508,N,11717.829901,W,56.7,345.6,260710,,,A*4A
$GPRMC,184206.2,A,3304.957310,N,11717.843450,W,56.4,346.9,260710,,,A*48
$GPRMC,184209.2,A,3305.002944,N,11717.858592,W,56.8,342.5,260710,,,A*45
$GPRMC,184212.2,A,3305.046995,N,11717.877396,W,56.9,339.1,260710,,,A*45
$GPRMC,184215.2,A,3305.090550,N,11717.900084,W,56.7,334.4,260710,,,A*4B
$GPRMC,184218.9,A,3305.143011,N,11717.932742,W,56.7,331.7,260710,,,A*48
$GPRMC,184221.9,A,3305.183849,N,11717.960427,W,56.5,331.3,260710,,,A*4A
$GPRMC,184224.9,A,3305.222637,N,11717.985883,W,55.2,331.1,260710,,,A*4F
$GPRMC,184227.9,A,3305.264607,N,11718.011868,W,56.7,331.5,260710,,,A*41
$GPRMC,184230.9,A,3305.305934,N,11718.040010,W,58.0,332.5,260710,,,A*47
$GPRMC,184233.9,A,3305.349564,N,11718.065881,W,57.3,332.0,260710,,,A*4B
$GPRMC,184236.9,A,3305.390970,N,11718.094807,W,57.4,330.6,260710,,,A*40
$GPRMC,184239.9,A,3305.434454,N,11718.122632,W,58.1,331.9,260710,,,A*4D
$GPRMC,184242.9,A,3305.475753,N,11718.151024,W,57.5,330.8,260710,,,A*4E
$GPRMC,184245.9,A,3305.518702,N,11718.178723,W,58.1,331.0,260710,,,A*4E
$GPRMC,184248.9,A,3305.561302,N,11718.205608,W,57.8,331.6,260710,,,A*48
$GPRMC,184251.9,A,3305.603410,N,11718.230284,W,57.0,332.4,260710,,,A*4C
$GPRMC,184254.9,A,3305.644516,N,11718.256833,W,57.3,331.8,260710,,,A*47
$GPRMC,184257.9,A,3305.688277,N,11718.285397,W,58.8,331.7,260710,,,A*44
$GPRMC,184300.9,A,3305.729780,N,11718.313624,W,57.6,331.0,260710,,,A*45
$GPRMC,184303.9,A,3305.772650,N,11718.340038,W,57.7,332.4,260710,,,A*4F
$GPRMC,184306.9,A,3305.813731,N,11718.368789,W,56.4,331.5,260710,,,A*43
$GPRMC,184309.9,A,3305.856034,N,11718.394955,W,57.5,331.6,260710,,,A*40
$GPRMC,184312.9,A,3305.896404,N,11718.421537,W,56.3,331.2,260710,,,A*43
$GPRMC,184315.9,A,3305.938613,N,11718.450709,W,57.5,331.5,260710,,,A*4C
$GPRMC,184318.9,A,3305.981457,N,11718.477031,W,57.1,331.5,260710,,,A*4C
$GPRMC,184321.9,A,3306.023440,N,11718.501444,W,56.4,331.6,260710,,,A*43
$GPRMC,184324.9,A,3306.062703,N,11718.530757,W,56.6,330.6,260710,,,A*47
$GPRMC,184327.9,A,3306.103357,N,11718.558090,W,56.3,331.3,260710,,,A*44
$GPRMC,184330.9,A,3306.144428,N,11718.584274,W,56.5,331.3,260710,,,A*41
$GPRMC,184333.9,A,3306.186776,N,11718.611862,W,56.9,331.4,260710,,,A*4D
$GPRMC,184336.2,A,3306.217908,N,11718.632368,W,55.8,331.9,260710,,,A*40
$GPRMC,184339.9,A,3306.268399,N,11718.664889,W,56.3,331.3,260710,,,A*4B
$GPRMC,184342.9,A,3306.309686,N,11718.693364,W,56.1,330.8,260710,,,A*42
$GPRMC,184345.9,A,3306.352402,N,11718.719598,W,57.3,331.6,260710,,,A*4F
$GPRMC,184348.9,A,3306.394521,N,11718.746840,W,57.6,331.2,260710,,,A*4B
$GPRMC,184351.9,A,3306.436416,N,11718.773975,W,57.0,331.1,260710,,,A*4D
$GPRMC,184354.9,A,3306.474277,N,11718.800577,W,55.1,330.6,260710,,,A*4F
$GPRMC,184357.9,A,3306.517161,N,11718.825420,W,56.3,332.3,260710,,,A*4E
$GPRMC,184400.9,A,3306.558023,N,11718.851931,W,55.7,332.3,260710,,,A*4E
$GPRMC,184403.9,A,3306.597467,N,11718.878097,W,55.2,331.8,260710,,,A*49
$GPRMC,184406.9,A,3306.640702,N,11718.904262,W,56.7,332.7,260710,,,A*4D
$GPRMC,184409.9,A,3306.685192,N,11718.929612,W,57.4,333.1,260710,,,A*4D
$GPRMC,184412.9,A,3306.727915,N,11718.955336,W,56.7,332.8,260710,,,A*4B
$GPRMC,184415.9,A,3306.770708,N,11718.981060,W,56.6,333.0,260710,,,A*4D
$GPRMC,184418.9,A,3306.812665,N,11719.005277,W,56.6,333.0,260710,,,A*41
$GPRMC,184421.9,A,3306.855064,N,11719.028754,W,56.5,333.4,260710,,,A*43
$GPRMC,184424.9,A,3306.897412,N,11719.054039,W,57.0,332.9,260710,,,A*42
$GPRMC,184427.9,A,3306.940354,N,11719.080937,W,56.8,333.2,260710,,,A*42
$GPRMC,184430.9,A,3306.981830,N,11719.106174,W,56.1,333.3,260710,,,A*48
$GPRMC,184433.9,A,3307.024705,N,11719.130600,W,56.7,334.0,260710,,,A*46
$GPRMC,184436.9,A,3307.066938,N,11719.156350,W,56.6,333.1,260710,,,A*42
$GPRMC,184439.9,A,3307.108319,N,11719.181660,W,56.8,333.4,260710,,,A*4A
$GPRMC,184442.9,A,3307.152221,N,11719.206105,W,57.6,333.8,260710,,,A*48
$GPRMC,184445.9,A,3307.195445,N,11719.232208,W,57.4,333.0,260710,,,A*43
$GPRMC,184448.9,A,3307.238144,N,11719.258235,W,57.2,332.9,260710,,,A*42
$GPRMC,184451.9,A,3307.279468,N,11719.284739,W,56.7,332.9,260710,,,A*48
$GPRMC,184454.9,A,3307.321990,N,11719.308912,W,55.9,333.2,260710,,,A*4E
$GPRMC,184457.2,A,3307.354146,N,11719.328727,W,57.0,333.2,260710,,,A*46
$GPRMC,184500.9,A,3307.404721,N,11719.360297,W,56.9,333.2,260710,,,A*41
$GPRMC,184503.9,A,3307.446883,N,11719.385558,W,56.4,333.5,260710,,,A*46
$GPRMC,184506.9,A,3307.491849,N,11719.409819,W,57.2,333.6,260710,,,A*40
$GPRMC,184509.9,A,3307.534279,N,11719.435971,W,56.6,333.3,260710,,,A*48
$GPRMC,184512.9,A,3307.576584,N,11719.460686,W,56.6,333.3,260710,,,A*46
$GPRMC,184515.9,A,3307.618931,N,11719.485446,W,56.6,333.0,260710,,,A*4E
$GPRMC,184518.9,A,3307.660673,N,11719.511743,W,57.0,332.6,260710,,,A*4F
$GPRMC,184521.9,A,3307.702052,N,11719.537899,W,57.3,333.0,260710,,,A*4D
$GPRMC,184524.9,A,3307.743903,N,11719.563684,W,56.6,332.4,260710,,,A*42
$GPRMC,184527.9,A,3307.785502,N,11719.588780,W,56.6,333.8,260710,,,A*4B
$GPRMC,184530.9,A,3307.827844,N,11719.614059,W,56.6,333.0,260710,,,A*48
$GPRMC,184533.9,A,3307.870878,N,11719.637453,W,56.0,333.7,260710,,,A*48
$GPRMC,184536.9,A,3307.911315,N,11719.662791,W,56.8,333.2,260710,,,A*4B
$GPRMC,184539.9,A,3307.955395,N,11719.688132,W,57.1,333.7,260710,,,A*4A
$GPRMC,184542.9,A,3307.995935,N,11719.713993,W,56.0,334.6,260710,,,A*4C
$GPRMC,184545.9,A,3308.037574,N,11719.736064,W,56.2,336.3,260710,,,A*4F
$GPRMC,184548.9,A,3308.080668,N,11719.758097,W,56.9,336.5,260710,,,A*49
$GPRMC,184551.9,A,3308.124187,N,11719.780383,W,57.2,336.9,260710,,,A*4D
$GPRMC,184554.9,A,3308.169096,N,11719.801677,W,57.6,337.1,260710,,,A*45
$GPRMC,184557.9,A,3308.214106,N,11719.824944,W,56.8,336.6,260710,,,A*46
$GPRMC,184600.9,A,3308.257066,N,11719.847516,W,56.3,336.8,260710,,,A*4C
$GPRMC,184603.9,A,3308.300150,N,11719.868306,W,56.9,337.4,260710,,,A*45
$GPRMC,184606.9,A,3308.346285,N,11719.890104,W,56.4,338.2,260710,,,A*4A
$GPRMC,184609.9,A,3308.388492,N,11719.909768,W,55.8,336.8,260710,,,A*41
$GPRMC,184612.9,A,3308.431998,N,11719.932667,W,57.3,336.7,260710,,,A*49
$GPRMC,184615.9,A,3308.475224,N,11719.956319,W,57.2,336.5,260710,,,A*4F
$GPRMC,184618.9,A,3308.520256,N,11719.977179,W,57.6,340.2,260710,,,A*43
$GPRMC,184621.9,A,3308.565053,N,11719.993144,W,56.4,346.1,260710,,,A*4D
$GPRMC,184624.9,A,3308.613294,N,11720.001835,W,56.6,353.0,260710,,,A*43
$GPRMC,184627.9,A,3308.661678,N,11720.001965,W,57.1,358.0,260710,,,A*4A
$GPRMC,184630.9,A,3308.708898,N,11720.006112,W,56.8,357.3,260710,,,A*49
$GPRMC,184633.9,A,3308.754190,N,11720.008162,W,55.6,358.4,260710,,,A*4E
$GPRMC,184636.9,A,3308.802068,N,11720.009775,W,55.0,355.3,260710,,,A*4C
$GPRMC,184639.9,A,3308.850313,N,11720.020837,W,57.5,347.5,260710,,,A*4B
$GPRMC,184642.2,A,3308.884430,N,11720.034216,W,56.8,341.2,260710,,,A*42
$GPRMC,184645.9,A,3308.936931,N,11720.063951,W,56.5,334.7,260710,,,A*4A
$GPRMC,184648.9,A,3308.979885,N,11720.087368,W,57.1,334.4,260710,,,A*4E
$GPRMC,184651.9,A,3309.021772,N,11720.112420,W,56.3,334.3,260710,,,A*46
$GPRMC,184654.9,A,3309.064690,N,11720.136665,W,56.4,334.6,260710,,,A*48
$GPRMC,184657.9,A,3309.108177,N,11720.161642,W,56.6,334.2,260710,,,A*4F
$GPRMC,184700.9,A,3309.151968,N,11720.185717,W,57.1,334.6,260710,,,A*4F
$GPRMC,184703.9,A,3309.192747,N,11720.210402,W,57.1,334.2,260710,,,A*4C
$GPRMC,184706.9,A,3309.235027,N,11720.235746,W,56.9,334.2,260710,,,A*4B
$GPRMC,184709.9,A,3309.277170,N,11720.260110,W,55.5,334.1,260710,,,A*48
$GPRMC,184712.9,A,3309.320882,N,11720.283614,W,56.1,335.8,260710,,,A*44
$GPRMC,184715.9,A,3309.365167,N,11720.304583,W,56.9,337.4,260710,,,A*45
$GPRMC,184718.9,A,3309.409147,N,11720.327774,W,56.8,336.9,260710,,,A*41
$GPRMC,184721.9,A,3309.452176,N,11720.349614,W,57.3,337.1,260710,,,A*4B
$GPRMC,184724.9,A,3309.494862,N,11720.371613,W,56.3,336.8,260710,,,A*4D
$GPRMC,184727.9,A,3309.537202,N,11720.395943,W,57.0,335.4,260710,,,A*47
$GPRMC,184730.9,A,3309.581897,N,11720.418062,W,56.9,337.0,260710,,,A*4C
$GPRMC,184733.9,A,3309.627139,N,11720.440675,W,57.9,337.3,260710,,,A*42
$GPRMC,184736.9,A,3309.671766,N,11720.462009,W,57.0,337.1,260710,,,A*4E
$GPRMC,184739.9,A,3309.713948,N,11720.483856,W,55.6,336.8,260710,,,A*47
$GPRMC,184742.9,A,3309.755463,N,11720.505788,W,55.5,336.8,260710,,,A*4D
$GPRMC,184745.9,A,3309.800389,N,11720.528426,W,56.7,336.9,260710,,,A*4E
$GPRMC,184748.9,A,3309.843631,N,11720.548613,W,53.6,337.2,260710,,,A*4E
$GPRMC,184751.9,A,3309.884782,N,11720.569083,W,53.3,337.0,260710,,,A*4F
$GPRMC,184754.9,A,3309.927333,N,11720.590757,W,55.3,336.9,260710,,,A*4A
$GPRMC,184757.9,A,3309.968449,N,11720.612834,W,54.3,336.5,260710,,,A*46
$GPRMC,184800.9,A,3310.007372,N,11720.634018,W,53.8,336.7,260710,,,A*40
$GPRMC,184803.9,A,3310.050993,N,11720.654105,W,56.3,339.1,260710,,,A*48
$GPRMC,184806.9,A,3310.091795,N,11720.675079,W,54.2,335.9,260710,,,A*46
$GPRMC,184809.9,A,3310.134090,N,11720.699644,W,55.6,332.6,260710,,,A*42
$GPRMC,184812.9,A,3310.172139,N,11720.728311,W,55.6,328.9,260710,,,A*42
$GPRMC,184815.9,A,3310.211527,N,11720.756396,W,55.9,328.4,260710,,,A*4C
$GPRMC,184819.2,A,3310.254146,N,11720.788749,W,55.7,328.4,260710,,,A*42
$GPRMC,184822.9,A,3310.298094,N,11720.827655,W,53.2,326.5,260710,,,A*45
$GPRMC,184825.9,A,3310.339007,N,11720.856288,W,55.5,327.7,260710,,,A*42
$GPRMC,184828.9,A,3310.379630,N,11720.886309,W,55.4,327.3,260710,,,A*49
$GPRMC,184831.9,A,3310.417705,N,11720.916852,W,54.8,326.7,260710,,,A*4C
$GPRMC,184834.9,A,3310.458436,N,11720.946163,W,55.9,327.2,260710,,,A*4B
$GPRMC,184837.9,A,3310.497541,N,11720.975430,W,54.0,328.5,260710,,,A*49
$GPRMC,184840.2,A,3310.527407,N,11720.995702,W,53.8,330.0,260710,,,A*44
$GPRMC,184843.9,A,3310.567391,N,11721.026033,W,50.6,326.3,260710,,,A*4C
$GPRMC,184846.0,A,3310.595129,N,11721.047507,W,53.6,327.1,260710,,,A*49
$GPRMC,184849.2,A,3310.635126,N,11721.078881,W,52.4,325.6,260710,,,A*4B
$GPRMC,184852.9,A,3310.683946,N,11721.119098,W,56.0,324.5,260710,,,A*4D
$GPRMC,184855.9,A,3310.724061,N,11721.152391,W,57.7,325.6,260710,,,A*4B
$GPRMC,184858.9,A,3310.761999,N,11721.183726,W,55.9,325.2,260710,,,A*45
$GPRMC,184901.9,A,3310.803790,N,11721.216796,W,58.2,325.3,260710,,,A*47
$GPRMC,184904.2,A,3310.833246,N,11721.241657,W,57.2,325.0,260710,,,A*46
$GPRMC,184907.9,A,3310.879162,N,11721.281952,W,55.1,324.5,260710,,,A*46
$GPRMC,184910.9,A,3310.916994,N,11721.314403,W,56.3,325.4,260710,,,A*4C
$GPRMC,184913.9,A,3310.956634,N,11721.345018,W,57.0,325.3,260710,,,A*41
$GPRMC,184916.9,A,3310.996480,N,11721.378757,W,57.6,324.7,260710,,,A*44
$GPRMC,184919.9,A,3311.036277,N,11721.413005,W,58.2,324.6,260710,,,A*47
$GPRMC,184922.9,A,3311.072395,N,11721.444501,W,57.1,323.8,260710,,,A*44
$GPRMC,184925.2,A,3311.105486,N,11721.470512,W,60.8,324.2,260710,,,A*49
$GPRMC,184928.9,A,3311.155177,N,11721.512997,W,59.9,324.6,260710,,,A*4A
$GPRMC,184931.9,A,3311.194680,N,11721.543163,W,58.0,326.1,260710,,,A*4A
$GPRMC,184934.9,A,3311.236368,N,11721.576263,W,59.2,327.4,260710,,,A*45
$GPRMC,184937.9,A,3311.274506,N,11721.610598,W,57.6,325.0,260710,,,A*42
$GPRMC,184940.9,A,3311.312419,N,11721.644919,W,57.1,324.8,260710,,,A*46
$GPRMC,184943.9,A,3311.350854,N,11721.677417,W,57.3,324.3,260710,,,A*4C
$GPRMC,184946.9,A,3311.393117,N,11721.709326,W,57.8,325.4,260710,,,A*48
$GPRMC,184949.9,A,3311.433774,N,11721.739453,W,56.6,325.6,260710,,,A*42
$GPRMC,184952.9,A,3311.471532,N,11721.771609,W,56.7,324.8,260710,,,A*41
$GPRMC,184955.9,A,3311.511541,N,11721.804684,W,57.3,324.9,260710,,,A*49
$GPRMC,184958.9,A,3311.548214,N,11721.836107,W,56.5,325.4,260710,,,A*49
$GPRMC,185001.9,A,3311.585637,N,11721.867236,W,56.5,325.3,260710,,,A*4B
$GPRMC,185004.9,A,3311.624030,N,11721.899707,W,59.0,324.2,260710,,,A*4B
$GPRMC,185007.9,A,3311.663400,N,11721.932678,W,56.0,324.3,260710,,,A*4B
$GPRMC,185010.9,A,3311.703480,N,11721.967544,W,56.6,324.0,260710,,,A*4B
$GPRMC,185014.2,A,3311.744067,N,11722.000313,W,56.8,326.3,260710,,,A*4A
$GPRMC,185017.9,A,3311.786077,N,11722.039251,W,52.4,323.3,260710,,,A*4D
$GPRMC,185020.2,A,3311.818496,N,11722.063932,W,56.3,325.5,260710,,,A*43
$GPRMC,185023.9,A,3311.866150,N,11722.104511,W,55.7,323.5,260710,,,A*41
$GPRMC,185026.9,A,3311.906616,N,11722.139680,W,58.7,320.3,260710,,,A*4B
$GPRMC,185029.9,A,3311.941274,N,11722.178882,W,58.2,315.6,260710,,,A*48
$GPRMC,185032.9,A,3311.973807,N,11722.225083,W,58.7,308.7,260710,,,A*47
$GPRMC,185035.9,A,3312.000492,N,11722.271198,W,57.5,304.6,260710,,,A*44
$GPRMC,185039.2,A,3312.025516,N,11722.326056,W,56.9,296.4,260710,,,A*4C
$GPRMC,185042.9,A,3312.048433,N,11722.390378,W,56.5,291.6,260710,,,A*4D
$GPRMC,185045.9,A,3312.066035,N,11722.443732,W,57.4,291.7,260710,,,A*46
$GPRMC,185048.9,A,3312.082577,N,11722.497978,W,57.4,291.4,260710,,,A*48
$GPRMC,185051.2,A,3312.095697,N,11722.537568,W,56.0,292.2,260710,,,A*46
$GPRMC,185054.9,A,3312.118161,N,11722.601349,W,57.1,293.2,260710,,,A*40
$GPRMC,185057.9,A,3312.137518,N,11722.656623,W,61.1,292.1,260710,,,A*48
$GPRMC,185100.2,A,3312.154300,N,11722.701062,W,61.4,293.1,260710,,,A*4E
$GPRMC,185103.2,A,3312.172902,N,11722.757334,W,59.9,292.0,260710,,,A*44
$GPRMC,185106.2,A,3312.191826,N,11722.813358,W,59.4,292.5,260710,,,A*46
$GPRMC,185109.2,A,3312.214116,N,11722.867385,W,59.9,297.5,260710,,,A*46
$GPRMC,185112.9,A,3312.248041,N,11722.925683,W,58.4,305.3,260710,,,A*49
$GPRMC,185115.9,A,3312.276632,N,11722.970329,W,56.5,308.0,260710,,,A*45
$GPRMC,185118.9,A,3312.311131,N,11723.008328,W,55.5,315.9,260710,,,A*4C
$GPRMC,185121.9,A,3312.346358,N,11723.045382,W,55.6,318.5,260710,,,A*42
$GPRMC,185124.9,A,3312.383856,N,11723.074544,W,53.0,326.0,260710,,,A*4D
$GPRMC,185127.9,A,3312.422964,N,11723.103615,W,55.1,330.1,260710,,,A*45
$GPRMC,185130.9,A,3312.466052,N,11723.131496,W,56.7,331.5,260710,,,A*47
$GPRMC,185133.9,A,3312.509454,N,11723.156782,W,57.0,332.7,260710,,,A*4E
$GPRMC,185136.9,A,3312.550659,N,11723.182900,W,56.6,332.3,260710,,,A*46
$GPRMC,185139.9,A,3312.592073,N,11723.210320,W,56.5,332.4,260710,,,A*4D
$GPRMC,185142.9,A,3312.636118,N,11723.234690,W,57.3,332.7,260710,,,A*4C
$GPRMC,185145.9,A,3312.680519,N,11723.259961,W,58.0,332.2,260710,,,A*40
$GPRMC,185148.9,A,3312.722983,N,11723.287587,W,58.0,331.8,260710,,,A*45
$GPRMC,185151.9,A,3312.765670,N,11723.313714,W,57.7,332.5,260710,,,A*4F
$GPRMC,185154.9,A,3312.807976,N,11723.340127,W,57.2,332.7,260710,,,A*4F
$GPRMC,185157.9,A,3312.852716,N,11723.366830,W,58.1,335.3,260710,,,A*40
$GPRMC,185200.9,A,3312.897780,N,11723.386428,W,57.9,342.3,260710,,,A*4B
$GPRMC,185203.9,A,3312.946995,N,11723.400319,W,58.6,345.4,260710,,,A*43
$GPRMC,185206.9,A,3312.991590,N,11723.413859,W,57.1,345.5,260710,,,A*41
$GPRMC,185209.9,A,3313.037470,N,11723.427374,W,57.9,345.7,260710,,,A*4C
$GPRMC,185212.9,A,3313.085870,N,11723.442828,W,57.8,346.3,260710,,,A*44
$GPRMC,185215.9,A,3313.131229,N,11723.455925,W,57.2,346.1,260710,,,A*49
$GPRMC,185218.9,A,3313.175844,N,11723.470778,W,56.1,346.1,260710,,,A*46
$GPRMC,185221.9,A,3313.223585,N,11723.484582,W,57.8,346.0,260710,,,A*49
$GPRMC,185224.9,A,3313.267731,N,11723.499196,W,56.9,346.0,260710,,,A*4C
$GPRMC,185227.9,A,3313.313608,N,11723.513043,W,57.1,344.9,260710,,,A*4E
$GPRMC,185230.9,A,3313.360109,N,11723.529848,W,59.0,340.5,260710,,,A*47
$GPRMC,185233.9,A,3313.406165,N,11723.552930,W,58.3,334.3,260710,,,A*4C
$GPRMC,185236.9,A,3313.448880,N,11723.584074,W,59.9,328.0,260710,,,A*46
$GPRMC,185239.9,A,3313.485464,N,11723.618695,W,56.8,321.3,260710,,,A*45
$GPRMC,185242.9,A,3313.521965,N,11723.657678,W,58.5,317.5,260710,,,A*42
$GPRMC,185245.9,A,3313.553106,N,11723.698171,W,56.4,315.1,260710,,,A*49
$GPRMC,185248.9,A,3313.588267,N,11723.736016,W,56.7,317.0,260710,,,A*43
$GPRMC,185251.9,A,3313.626323,N,11723.776941,W,58.4,317.3,260710,,,A*4C
$GPRMC,185254.9,A,3313.659790,N,11723.815598,W,56.9,317.0,260710,,,A*4F
$GPRMC,185257.9,A,3313.693959,N,11723.856266,W,57.9,316.3,260710,,,A*43
$GPRMC,185300.9,A,3313.727421,N,11723.894588,W,57.2,316.0,260710,,,A*4D
$GPRMC,185303.9,A,3313.761710,N,11723.934487,W,58.2,316.2,260710,,,A*45
$GPRMC,185306.9,A,3313.800526,N,11723.973874,W,58.3,316.7,260710,,,A*48
$GPRMC,185309.9,A,3313.837135,N,11724.015659,W,58.6,317.7,260710,,,A*4E
$GPRMC,185312.9,A,3313.874474,N,11724.052633,W,57.7,319.1,260710,,,A*4A
$GPRMC,185315.9,A,3313.912086,N,11724.090448,W,57.8,318.2,260710,,,A*48
$GPRMC,185318.9,A,3313.945445,N,11724.128755,W,57.0,318.5,260710,,,A*4E
$GPRMC,185321.9,A,3313.983228,N,11724.166443,W,57.6,320.6,260710,,,A*43
$GPRMC,185324.9,A,3314.023024,N,11724.202135,W,58.0,323.0,260710,,,A*45
$GPRMC,185327.9,A,3314.059355,N,11724.234898,W,56.9,322.0,260710,,,A*43
$GPRMC,185330.9,A,3314.097308,N,11724.269519,W,57.3,321.6,260710,,,A*4D
$GPRMC,185333.9,A,3314.132883,N,11724.303106,W,56.3,322.3,260710,,,A*48
$GPRMC,185336.9,A,3314.173401,N,11724.339123,W,60.4,322.4,260710,,,A*45
$GPRMC,185339.9,A,3314.211313,N,11724.372024,W,57.7,323.2,260710,,,A*40
$GPRMC,185342.9,A,3314.249202,N,11724.408855,W,57.9,320.5,260710,,,A*4E
$GPRMC,185345.9,A,3314.279991,N,11724.448902,W,56.0,313.7,260710,,,A*46
$GPRMC,185348.9,A,3314.308488,N,11724.498093,W,57.9,307.2,260710,,,A*4D
$GPRMC,185351.9,A,3314.333314,N,11724.543926,W,57.5,301.3,260710,,,A*44
$GPRMC,185354.9,A,3314.355334,N,11724.593649,W,57.8,295.2,260710,,,A*48
$GPRMC,185357.9,A,3314.376068,N,11724.648376,W,59.1,292.5,260710,,,A*4B
$GPRMC,185400.9,A,3314.393908,N,11724.703491,W,59.3,292.0,260710,,,A*4D
$GPRMC,185403.9,A,3314.412684,N,11724.754161,W,58.0,295.5,260710,,,A*43
$GPRMC,185406.9,A,3314.437530,N,11724.804739,W,58.5,301.2,260710,,,A*42
$GPRMC,185409.9,A,3314.468603,N,11724.851192,W,58.3,309.8,260710,,,A*47
$GPRMC,185412.9,A,3314.499428,N,11724.891042,W,56.5,313.9,260710,,,A*4A
$GPRMC,185415.9,A,3314.534532,N,11724.930670,W,56.6,316.7,260710,,,A*44
$GPRMC,185418.9,A,3314.580579,N,11724.957930,W,57.3,329.1,260710,,,A*4D
$GPRMC,185421.9,A,3314.622488,N,11724.982714,W,56.7,336.7,260710,,,A*4E
$GPRMC,185424.9,A,3314.665947,N,11725.001003,W,56.4,338.7,260710,,,A*49
$GPRMC,185427.9,A,3314.709506,N,11725.020659,W,57.2,339.8,260710,,,A*4B
$GPRMC,185430.9,A,3314.754830,N,11725.040611,W,57.3,339.7,260710,,,A*49
$GPRMC,185433.2,A,3314.791411,N,11725.054906,W,57.9,340.3,260710,,,A*4B
$GPRMC,185436.2,A,3314.835159,N,11725.077075,W,57.6,337.3,260710,,,A*45
$GPRMC,185439.2,A,3314.879199,N,11725.101681,W,57.6,333.0,260710,,,A*44
$GPRMC,185442.2,A,3314.920416,N,11725.131622,W,58.5,328.1,260710,,,A*4A
$GPRMC,185445.2,A,3314.961637,N,11725.162154,W,58.3,327.5,260710,,,A*44
$GPRMC,185448.9,A,3315.008153,N,11725.203432,W,57.4,325.2,260710,,,A*4C
$GPRMC,185451.2,A,3315.037531,N,11725.228616,W,56.7,325.2,260710,,,A*4C
$GPRMC,185454.9,A,3315.091334,N,11725.267747,W,59.6,326.5,260710,,,A*49
$GPRMC,185457.2,A,3315.120542,N,11725.292424,W,57.4,326.1,260710,,,A*49
$GPRMC,185500.9,A,3315.167840,N,11725.330030,W,55.9,326.0,260710,,,A*4B
$GPRMC,185503.9,A,3315.206159,N,11725.361547,W,56.7,325.1,260710,,,A*43
$GPRMC,185506.2,A,3315.236495,N,11725.386541,W,57.0,326.1,260710,,,A*41
$GPRMC,185509.9,A,3315.290150,N,11725.429512,W,62.6,325.1,260710,,,A*42
$GPRMC,185512.9,A,3315.329372,N,11725.460143,W,57.2,326.0,260710,,,A*44
$GPRMC,185515.9,A,3315.367865,N,11725.488602,W,56.1,327.2,260710,,,A*41
$GPRMC,185518.2,A,3315.399527,N,11725.514041,W,58.6,327.0,260710,,,A*43
$GPRMC,185522.2,A,3315.453077,N,11725.555465,W,57.0,326.3,260710,,,A*47
$GPRMC,185525.9,A,3315.503279,N,11725.596234,W,58.1,325.7,260710,,,A*47
$GPRMC,185528.9,A,3315.542169,N,11725.628964,W,57.6,325.5,260710,,,A*4F
$GPRMC,185531.9,A,3315.580460,N,11725.660088,W,57.2,326.6,260710,,,A*46
$GPRMC,185534.9,A,3315.620035,N,11725.690031,W,57.2,326.1,260710,,,A*44
$GPRMC,185537.9,A,3315.662643,N,11725.721225,W,59.6,326.6,260710,,,A*47
$GPRMC,185540.9,A,3315.697692,N,11725.754634,W,56.1,324.4,260710,,,A*4F
$GPRMC,185543.9,A,3315.739438,N,11725.787444,W,57.3,325.6,260710,,,A*40
$GPRMC,185546.9,A,3315.781735,N,11725.821449,W,59.1,326.5,260710,,,A*4A
$GPRMC,185549.9,A,3315.823673,N,11725.848047,W,57.8,327.9,260710,,,A*4E
$GPRMC,185552.9,A,3315.860518,N,11725.884508,W,58.2,322.1,260710,,,A*4B
$GPRMC,185555.9,A,3315.895972,N,11725.923202,W,58.6,315.6,260710,,,A*40
$GPRMC,185558.9,A,3315.928098,N,11725.967183,W,59.0,312.1,260710,,,A*4A
$GPRMC,185601.9,A,3315.961768,N,11726.010996,W,58.4,311.7,260710,,,A*46
$GPRMC,185604.9,A,3315.995339,N,11726.055056,W,58.2,311.9,260710,,,A*44
$GPRMC,185607.9,A,3316.027513,N,11726.099537,W,58.7,309.7,260710,,,A*4A
$GPRMC,185610.9,A,3316.058236,N,11726.140099,W,56.4,311.5,260710,,,A*46
$GPRMC,185613.9,A,3316.088687,N,11726.181410,W,57.4,310.7,260710,,,A*4C
$GPRMC,185616.9,A,3316.120333,N,11726.223723,W,57.2,310.9,260710,,,A*40
$GPRMC,185619.9,A,3316.150937,N,11726.266291,W,57.8,311.0,260710,,,A*49
$GPRMC,185622.9,A,3316.184711,N,11726.309257,W,58.3,312.3,260710,,,A*44
$GPRMC,185625.9,A,3316.214848,N,11726.353499,W,57.8,311.2,260710,,,A*47
$GPRMC,185628.9,A,3316.247528,N,11726.396187,W,57.7,311.5,260710,,,A*4C
$GPRMC,185631.9,A,3316.279111,N,11726.438085,W,56.7,311.7,260710,,,A*44
$GPRMC,185634.9,A,3316.309410,N,11726.482110,W,57.9,310.3,260710,,,A*45
$GPRMC,185637.9,A,3316.341412,N,11726.523967,W,56.8,313.0,260710,,,A*4A
$GPRMC,185640.9,A,3316.377563,N,11726.559218,W,56.2,320.5,260710,,,A*49
$GPRMC,185643.9,A,3316.417941,N,11726.594731,W,57.2,324.3,260710,,,A*4B
$GPRMC,185646.9,A,3316.459367,N,11726.625363,W,57.7,326.6,260710,,,A*42
$GPRMC,185649.9,A,3316.500245,N,11726.655004,W,58.5,327.5,260710,,,A*4B
$GPRMC,185652.9,A,3316.537074,N,11726.686675,W,57.4,327.0,260710,,,A*40
$GPRMC,185655.9,A,3316.578376,N,11726.717989,W,58.7,328.6,260710,,,A*4D
$GPRMC,185658.9,A,3316.622697,N,11726.746933,W,58.8,329.4,260710,,,A*4F
$GPRMC,185701.9,A,3316.666661,N,11726.775603,W,59.4,329.1,260710,,,A*4F
$GPRMC,185704.9,A,3316.703444,N,11726.807743,W,58.0,326.7,260710,,,A*4E
$GPRMC,185707.9,A,3316.743495,N,11726.840306,W,57.9,326.8,260710,,,A*4A
$GPRMC,185710.9,A,3316.782524,N,11726.872168,W,57.2,327.4,260710,,,A*47
$GPRMC,185713.9,A,3316.823499,N,11726.903096,W,57.1,327.4,260710,,,A*43
$GPRMC,185716.9,A,3316.864306,N,11726.932116,W,57.0,327.8,260710,,,A*42
$GPRMC,185719.9,A,3316.901708,N,11726.964686,W,56.5,326.6,260710,,,A*43
$GPRMC,185722.9,A,3316.946493,N,11726.993690,W,58.4,328.6,260710,,,A*47
$GPRMC,185725.9,A,3316.989666,N,11727.022599,W,58.4,328.8,260710,,,A*4D
$GPRMC,185728.9,A,3317.023421,N,11727.057051,W,56.8,325.2,260710,,,A*4F
$GPRMC,185731.9,A,3317.062631,N,11727.088196,W,57.2,326.6,260710,,,A*45
$GPRMC,185734.9,A,3317.107870,N,11727.120595,W,59.4,328.2,260710,,,A*4F
$GPRMC,185737.9,A,3317.146193,N,11727.150232,W,57.6,328.5,260710,,,A*4B
$GPRMC,185740.9,A,3317.184634,N,11727.181442,W,57.2,327.2,260710,,,A*4E
$GPRMC,185743.9,A,3317.232202,N,11727.210455,W,59.9,329.2,260710,,,A*44
$GPRMC,185746.9,A,3317.275153,N,11727.241310,W,59.6,329.0,260710,,,A*4A
$GPRMC,185749.9,A,3317.317535,N,11727.271848,W,60.4,327.9,260710,,,A*4E
$GPRMC,185752.9,A,3317.360307,N,11727.301757,W,60.1,329.5,260710,,,A*43
$GPRMC,185755.9,A,3317.403608,N,11727.333384,W,59.0,328.2,260710,,,A*4A
$GPRMC,185758.9,A,3317.443783,N,11727.364224,W,58.5,327.2,260710,,,A*43
$GPRMC,185801.9,A,3317.482936,N,11727.394957,W,58.0,327.5,260710,,,A*4F
$GPRMC,185804.9,A,3317.520582,N,11727.424830,W,56.9,327.5,260710,,,A*4B
$GPRMC,185807.9,A,3317.555444,N,11727.459384,W,55.6,325.1,260710,,,A*45
$GPRMC,185810.9,A,3317.598777,N,11727.490380,W,58.4,326.0,260710,,,A*4D
$GPRMC,185813.9,A,3317.639499,N,11727.519165,W,57.4,325.6,260710,,,A*46
$GPRMC,185816.9,A,3317.678346,N,11727.552426,W,58.4,322.3,260710,,,A*43
$GPRMC,185819.9,A,3317.709802,N,11727.595370,W,58.4,314.4,260710,,,A*4D
$GPRMC,185822.9,A,3317.742021,N,11727.637901,W,57.9,313.9,260710,,,A*4C
$GPRMC,185825.9,A,3317.775643,N,11727.679279,W,57.1,314.0,260710,,,A*45
$GPRMC,185828.9,A,3317.811741,N,11727.719435,W,58.2,315.5,260710,,,A*47
$GPRMC,185831.9,A,3317.844400,N,11727.759728,W,56.9,314.4,260710,,,A*47
$GPRMC,185834.9,A,3317.875893,N,11727.802624,W,57.3,312.6,260710,,,A*45
$GPRMC,185837.9,A,3317.911401,N,11727.842153,W,58.8,314.7,260710,,,A*42
$GPRMC,185840.9,A,3317.946023,N,11727.882089,W,57.5,315.2,260710,,,A*48
$GPRMC,185843.9,A,3317.976415,N,11727.920849,W,56.4,314.2,260710,,,A*45
