NMEA Sentence Code,UTC Time,Status,Latitude,Latitude Direction,Longitude,Longitude Direction,Speed (knots),Track Angle (degrees true),Date,MagneticVariation,Magnetic Variation Direction,[FAA Mode]-Optional,Checksum
$GPRMC,191841.9,A,3251.379965,N,11649.670101,W,48.7,89.0,220910,,,A*7B
$GPRMC,191844.9,A,3251.380989,N,11649.624451,W,48.4,88.0,220910,,,A*79
$GPRMC,191847.9,A,3251.384919,N,11649.574909,W,49.0,87.0,220910,,,A*7B
$GPRMC,191850.9,A,3251.386976,N,11649.525825,W,48.1,87.6,220910,,,A*7B
$GPRMC,191853.9,A,3251.389689,N,11649.479971,W,48.2,86.9,220910,,,A*7D
$GPRMC,191856.9,A,3251.392231,N,11649.431404,W,48.7,87.0,220910,,,A*7B
$GPRMC,191859.9,A,3251.394482,N,11649.381132,W,49.9,86.7,220910,,,A*79
$GPRMC,191902.9,A,3251.398741,N,11649.332732,W,49.8,86.4,220910,,,A*7A
$GPRMC,191905.9,A,3251.399457,N,11649.286498,W,48.7,87.3,220910,,,A*7D
$GPRMC,191908.9,A,3251.400494,N,11649.239018,W,49.2,87.9,220910,,,A*7E
$GPRMC,191911.9,A,3251.402548,N,11649.191502,W,48.7,87.8,220910,,,A*7E
$GPRMC,191914.9,A,3251.404617,N,11649.141788,W,49.6,87.1,220910,,,A*70
$GPRMC,191917.9,A,3251.407258,N,11649.090995,W,50.3,87.3,220910,,,A*7F
$GPRMC,191920.2,A,3251.407641,N,11649.052302,W,50.1,89.8,220910,,,A*71
$GPRMC,191923.9,A,3251.405288,N,11648.994408,W,49.2,96.6,220910,,,A*7E
$GPRMC,191926.9,A,3251.395595,N,11648.946363,W,49.8,105.1,220910,,,A*4D
$GPRMC,191929.9,A,3251.381609,N,11648.898629,W,49.2,110.0,220910,,,A*47
$GPRMC,191932.9,A,3251.364554,N,11648.856965,W,48.9,116.1,220910,,,A*45
$GPRMC,191935.9,A,3251.343462,N,11648.817562,W,48.3,122.9,220910,,,A*48
$GPRMC,191939.2,A,3251.316703,N,11648.777870,W,47.6,128.8,220910,,,A*4D
$GPRMC,191942.9,A,3251.285138,N,11648.731974,W,46.1,130.0,220910,,,A*4F
$GPRMC,191945.9,A,3251.251925,N,11648.702320,W,48.9,141.0,220910,,,A*4E
$GPRMC,191948.9,A,3251.215251,N,11648.677769,W,49.8,147.9,220910,,,A*4E
$GPRMC,191951.2,A,3251.187731,N,11648.657772,W,50.4,147.8,220910,,,A*4B
$GPRMC,191954.9,A,3251.142132,N,11648.626919,W,50.6,149.5,220910,,,A*4D
$GPRMC,191957.9,A,3251.102698,N,11648.598859,W,54.2,149.2,220910,,,A*49
$GPRMC,192000.9,A,3251.067322,N,11648.571093,W,54.1,149.2,220910,,,A*4D
$GPRMC,192003.9,A,3251.026806,N,11648.542977,W,55.5,148.7,220910,,,A*44
$GPRMC,192006.0,A,3250.998691,N,11648.522880,W,55.1,148.1,220910,,,A*48
$GPRMC,192009.2,A,3250.958273,N,11648.488855,W,53.4,141.0,220910,,,A*43
$GPRMC,192012.2,A,3250.926166,N,11648.454282,W,52.0,136.5,220910,,,A*46
$GPRMC,192015.2,A,3250.897551,N,11648.415790,W,51.8,132.8,220910,,,A*4B
$GPRMC,192018.2,A,3250.868876,N,11648.377529,W,51.4,131.7,220910,,,A*4D
$GPRMC,192021.2,A,3250.841011,N,11648.339096,W,50.8,131.4,220910,,,A*40
$GPRMC,192024.2,A,3250.813425,N,11648.301659,W,49.6,131.8,220910,,,A*45
$GPRMC,192027.2,A,3250.786218,N,11648.264712,W,49.0,131.9,220910,,,A*46
$GPRMC,192030.2,A,3250.759504,N,11648.229282,W,47.6,132.0,220910,,,A*4F
$GPRMC,192033.9,A,3250.728663,N,11648.188978,W,43.2,131.3,220910,,,A*45
$GPRMC,192036.9,A,3250.706758,N,11648.159625,W,39.6,130.5,220910,,,A*40
$GPRMC,192039.2,A,3250.691117,N,11648.136736,W,37.5,125.1,220910,,,A*41
$GPRMC,192043.2,A,3250.668694,N,11648.095080,W,35.7,119.8,220910,,,A*42
$GPRMC,192046.9,A,3250.651358,N,11648.051928,W,37.2,116.5,220910,,,A*45
$GPRMC,192049.9,A,3250.638592,N,11648.020827,W,36.1,113.3,220910,,,A*4C
$GPRMC,192052.9,A,3250.625698,N,11647.985185,W,37.0,112.9,220910,,,A*40
$GPRMC,192056.2,A,3250.612784,N,11647.949834,W,36.5,113.4,220910,,,A*4C
$GPRMC,192059.9,A,3250.599457,N,11647.910071,W,35.9,113.2,220910,,,A*49
$GPRMC,192102.2,A,3250.590142,N,11647.885153,W,35.9,113.1,220910,,,A*4A
$GPRMC,192105.9,A,3250.576470,N,11647.846384,W,35.3,113.0,220910,,,A*46
$GPRMC,192108.9,A,3250.564261,N,11647.813356,W,36.2,112.5,220910,,,A*47
$GPRMC,192111.2,A,3250.556022,N,11647.788804,W,35.6,112.9,220910,,,A*4A
$GPRMC,192114.2,A,3250.545105,N,11647.756052,W,35.6,112.1,220910,,,A*49
$GPRMC,192117.0,A,3250.533900,N,11647.726009,W,35.5,112.5,220910,,,A*4A
$GPRMC,192120.9,A,3250.519207,N,11647.683347,W,35.9,113.2,220910,,,A*4E
$GPRMC,192123.9,A,3250.505153,N,11647.652154,W,35.8,114.1,220910,,,A*4B
$GPRMC,192126.9,A,3250.493288,N,11647.620945,W,34.9,112.5,220910,,,A*4A
$GPRMC,192129.9,A,3250.485641,N,11647.588389,W,34.9,111.4,220910,,,A*4A
$GPRMC,192132.9,A,3250.474278,N,11647.554559,W,35.4,112.6,220910,,,A*47
$GPRMC,192135.2,A,3250.464274,N,11647.529330,W,35.7,112.8,220910,,,A*48
$GPRMC,192139.2,A,3250.448660,N,11647.486414,W,35.3,113.0,220910,,,A*43
$GPRMC,192142.2,A,3250.436323,N,11647.453955,W,36.1,113.0,220910,,,A*45
$GPRMC,192146.2,A,3250.421287,N,11647.410414,W,35.8,112.1,220910,,,A*4D
$GPRMC,192150.2,A,3250.405407,N,11647.366696,W,36.1,112.8,220910,,,A*4F
$GPRMC,192153.9,A,3250.390012,N,11647.326407,W,35.9,112.9,220910,,,A*48
$GPRMC,192156.9,A,3250.378092,N,11647.292646,W,35.3,112.3,220910,,,A*4A
$GPRMC,192200.2,A,3250.367267,N,11647.257015,W,35.0,109.6,220910,,,A*42
$GPRMC,192203.9,A,3250.356232,N,11647.217241,W,33.4,105.5,220910,,,A*42
$GPRMC,192206.9,A,3250.351625,N,11647.182045,W,36.0,100.1,220910,,,A*4B
$GPRMC,192210.2,A,3250.349453,N,11647.141448,W,36.9,96.7,220910,,,A*7A
$GPRMC,192214.2,A,3250.347236,N,11647.093705,W,35.3,92.5,220910,,,A*7E
$GPRMC,192217.2,A,3250.347202,N,11647.059597,W,36.5,87.6,220910,,,A*77
$GPRMC,192220.2,A,3250.349089,N,11647.022862,W,36.7,85.6,220910,,,A*77
$GPRMC,192223.2,A,3250.353989,N,11646.984629,W,37.5,81.0,220910,,,A*72
$GPRMC,192226.2,A,3250.359774,N,11646.949409,W,36.1,78.9,220910,,,A*7A
$GPRMC,192229.2,A,3250.366123,N,11646.914064,W,35.4,78.3,220910,,,A*76
$GPRMC,192232.9,A,3250.372504,N,11646.870556,W,35.9,78.5,220910,,,A*7F
$GPRMC,192235.9,A,3250.377326,N,11646.835920,W,35.8,79.6,220910,,,A*74
$GPRMC,192238.9,A,3250.383678,N,11646.800280,W,37.1,77.9,220910,,,A*71
$GPRMC,192241.9,A,3250.388962,N,11646.764061,W,37.5,78.9,220910,,,A*7B
$GPRMC,192244.2,A,3250.393546,N,11646.738976,W,36.2,78.7,220910,,,A*7B
$GPRMC,192247.9,A,3250.400261,N,11646.696669,W,36.8,79.1,220910,,,A*75
$GPRMC,192250.2,A,3250.404274,N,11646.668693,W,36.7,79.8,220910,,,A*7A
$GPRMC,192253.0,A,3250.409625,N,11646.637551,W,36.3,82.9,220910,,,A*70
$GPRMC,192256.0,A,3250.411720,N,11646.601853,W,36.7,88.0,220910,,,A*75
$GPRMC,192259.9,A,3250.410257,N,11646.556503,W,36.0,94.5,220910,,,A*71
$GPRMC,192303.2,A,3250.405427,N,11646.515671,W,37.7,98.7,220910,,,A*78
$GPRMC,192306.9,A,3250.396641,N,11646.473457,W,35.4,99.5,220910,,,A*7C
$GPRMC,192309.9,A,3250.393117,N,11646.437414,W,36.3,100.1,220910,,,A*44
$GPRMC,192312.9,A,3250.387755,N,11646.402927,W,35.7,100.8,220910,,,A*4E
$GPRMC,192315.2,A,3250.383805,N,11646.376522,W,35.9,99.8,220910,,,A*7E
$GPRMC,192318.9,A,3250.376158,N,11646.332541,W,36.3,100.1,220910,,,A*47
$GPRMC,192321.9,A,3250.370310,N,11646.296445,W,36.5,100.5,220910,,,A*4D
$GPRMC,192324.9,A,3250.365656,N,11646.260110,W,36.2,99.3,220910,,,A*77
$GPRMC,192327.9,A,3250.360268,N,11646.224382,W,36.1,100.2,220910,,,A*42
$GPRMC,192331.2,A,3250.353636,N,11646.186329,W,36.5,100.1,220910,,,A*4C
$GPRMC,192334.2,A,3250.348315,N,11646.151745,W,35.8,100.1,220910,,,A*4D
$GPRMC,192337.2,A,3250.343219,N,11646.116773,W,36.2,100.5,220910,,,A*43
$GPRMC,192340.0,A,3250.338327,N,11646.085417,W,36.0,100.2,220910,,,A*4E
$GPRMC,192343.9,A,3250.331383,N,11646.038694,W,36.5,99.2,220910,,,A*78
$GPRMC,192346.9,A,3250.325917,N,11646.004647,W,36.6,100.8,220910,,,A*46
$GPRMC,192349.9,A,3250.320577,N,11645.969995,W,36.8,100.6,220910,,,A*47
$GPRMC,192352.9,A,3250.315589,N,11645.933693,W,36.2,100.3,220910,,,A*43
$GPRMC,192355.9,A,3250.310032,N,11645.899618,W,36.3,99.8,220910,,,A*7D
$GPRMC,192358.9,A,3250.305496,N,11645.863784,W,35.5,98.9,220910,,,A*7A
$GPRMC,192401.2,A,3250.301576,N,11645.838158,W,35.9,100.2,220910,,,A*4F
$GPRMC,192404.9,A,3250.295036,N,11645.793245,W,36.1,100.3,220910,,,A*47
$GPRMC,192407.9,A,3250.291302,N,11645.759089,W,36.0,100.6,220910,,,A*44
$GPRMC,192410.9,A,3250.285648,N,11645.724034,W,36.7,100.7,220910,,,A*46
$GPRMC,192414.2,A,3250.277794,N,11645.684848,W,36.4,103.0,220910,,,A*4B
$GPRMC,192417.2,A,3250.270111,N,11645.651498,W,36.2,105.3,220910,,,A*4E
$GPRMC,192420.2,A,3250.262738,N,11645.615099,W,36.8,108.3,220910,,,A*46
$GPRMC,192423.2,A,3250.253095,N,11645.582359,W,36.2,108.5,220910,,,A*49
$GPRMC,192426.2,A,3250.243577,N,11645.548520,W,36.3,108.5,220910,,,A*4B
$GPRMC,192429.2,A,3250.233917,N,11645.514690,W,36.3,108.5,220910,,,A*48
$GPRMC,192432.2,A,3250.224232,N,11645.480584,W,36.3,108.7,220910,,,A*40
$GPRMC,192435.9,A,3250.212506,N,11645.439190,W,35.5,108.6,220910,,,A*4E
$GPRMC,192438.9,A,3250.201586,N,11645.406003,W,35.6,110.0,220910,,,A*42
$GPRMC,192441.2,A,3250.194561,N,11645.380033,W,35.5,108.7,220910,,,A*46
$GPRMC,192444.9,A,3250.182714,N,11645.338312,W,36.1,108.7,220910,,,A*4B
$GPRMC,192447.2,A,3250.175893,N,11645.312319,W,35.5,108.7,220910,,,A*4F
$GPRMC,192450.2,A,3250.166778,N,11645.279181,W,35.9,108.6,220910,,,A*43
$GPRMC,192453.2,A,3250.157937,N,11645.245310,W,36.2,108.5,220910,,,A*49
$GPRMC,192456.2,A,3250.148456,N,11645.211308,W,36.3,108.7,220910,,,A*43
$GPRMC,192459.2,A,3250.138688,N,11645.177515,W,36.0,108.5,220910,,,A*42
$GPRMC,192502.2,A,3250.128883,N,11645.143942,W,35.7,108.5,220910,,,A*44
$GPRMC,192505.9,A,3250.116141,N,11645.102604,W,36.1,110.0,220910,,,A*43
$GPRMC,192508.9,A,3250.105993,N,11645.069155,W,35.2,110.1,220910,,,A*45
$GPRMC,192511.9,A,3250.097550,N,11645.035242,W,35.3,105.6,220910,,,A*4A
$GPRMC,192514.9,A,3250.087607,N,11645.004033,W,34.6,108.2,220910,,,A*44
$GPRMC,192518.2,A,3250.078940,N,11644.966918,W,35.4,105.0,220910,,,A*4F
$GPRMC,192521.9,A,3250.073589,N,11644.920660,W,37.9,102.6,220910,,,A*40
$GPRMC,192524.9,A,3250.066791,N,11644.886720,W,37.5,100.7,220910,,,A*4D
$GPRMC,192527.9,A,3250.063458,N,11644.847182,W,39.9,96.0,220910,,,A*75
$GPRMC,192531.2,A,3250.061399,N,11644.801116,W,42.6,93.7,220910,,,A*7F
$GPRMC,192534.9,A,3250.059844,N,11644.746341,W,44.4,91.2,220910,,,A*7E
$GPRMC,192537.9,A,3250.061407,N,11644.701253,W,46.2,87.7,220910,,,A*7A
$GPRMC,192540.9,A,3250.065302,N,11644.651550,W,48.6,85.8,220910,,,A*7B
$GPRMC,192543.9,A,3250.069646,N,11644.604733,W,50.6,84.9,220910,,,A*7F
$GPRMC,192546.9,A,3250.072229,N,11644.554006,W,52.1,86.0,220910,,,A*74
$GPRMC,192549.9,A,3250.076878,N,11644.504495,W,51.6,84.8,220910,,,A*74
$GPRMC,192552.9,A,3250.081220,N,11644.452802,W,52.7,85.2,220910,,,A*78
$GPRMC,192555.9,A,3250.083161,N,11644.397328,W,52.8,89.0,220910,,,A*77
$GPRMC,192558.9,A,3250.081746,N,11644.344800,W,52.9,91.8,220910,,,A*74
$GPRMC,192601.9,A,3250.075620,N,11644.294807,W,51.7,96.6,220910,,,A*7E
$GPRMC,192604.9,A,3250.070682,N,11644.243157,W,52.3,99.2,220910,,,A*7C
$GPRMC,192607.9,A,3250.064953,N,11644.195331,W,50.9,99.6,220910,,,A*7F
$GPRMC,192610.9,A,3250.057435,N,11644.145642,W,51.0,100.7,220910,,,A*40
$GPRMC,192613.9,A,3250.048076,N,11644.096841,W,51.1,101.0,220910,,,A*4B
$GPRMC,192616.9,A,3250.040463,N,11644.046596,W,52.0,99.9,220910,,,A*77
$GPRMC,192619.2,A,3250.033962,N,11644.008571,W,50.6,101.1,220910,,,A*44
$GPRMC,192622.9,A,3250.025295,N,11643.951220,W,49.5,100.9,220910,,,A*40
$GPRMC,192625.9,A,3250.018184,N,11643.901347,W,50.6,97.9,220910,,,A*7B
$GPRMC,192628.9,A,3250.015137,N,11643.851915,W,50.3,93.9,220910,,,A*7B
$GPRMC,192631.2,A,3250.014851,N,11643.814391,W,49.0,91.1,220910,,,A*76
$GPRMC,192634.9,A,3250.017790,N,11643.751615,W,50.0,87.0,220910,,,A*70
$GPRMC,192637.9,A,3250.019787,N,11643.700544,W,50.8,86.0,220910,,,A*71
$GPRMC,192640.9,A,3250.022035,N,11643.652139,W,50.2,86.6,220910,,,A*73
$GPRMC,192643.9,A,3250.024679,N,11643.603881,W,49.9,88.7,220910,,,A*7A
$GPRMC,192646.2,A,3250.023928,N,11643.566543,W,50.1,91.6,220910,,,A*72
$GPRMC,192649.2,A,3250.021455,N,11643.517033,W,50.0,95.9,220910,,,A*76
$GPRMC,192652.9,A,3250.013800,N,11643.456183,W,49.9,97.3,220910,,,A*7D
$GPRMC,192655.2,A,3250.011443,N,11643.418937,W,49.9,96.8,220910,,,A*7F
$GPRMC,192658.9,A,3250.006013,N,11643.357774,W,50.1,96.2,220910,,,A*71
$GPRMC,192701.9,A,3250.005877,N,11643.310356,W,49.5,89.2,220910,,,A*70
$GPRMC,192704.2,A,3250.009469,N,11643.273194,W,48.8,82.5,220910,,,A*79
$GPRMC,192707.2,A,3250.017412,N,11643.225709,W,48.3,75.1,220910,,,A*7F
$GPRMC,192710.2,A,3250.030063,N,11643.180834,W,47.7,68.6,220910,,,A*73
$GPRMC,192713.2,A,3250.046734,N,11643.138190,W,47.8,62.0,220910,,,A*73
$GPRMC,192716.2,A,3250.068203,N,11643.098709,W,47.5,56.1,220910,,,A*7D
$GPRMC,192719.2,A,3250.091154,N,11643.058924,W,48.0,55.4,220910,,,A*74
$GPRMC,192722.9,A,3250.118298,N,11643.011360,W,47.1,56.9,220910,,,A*73
$GPRMC,192725.9,A,3250.137455,N,11642.970796,W,46.8,60.7,220910,,,A*7F
$GPRMC,192728.9,A,3250.155967,N,11642.930482,W,46.8,64.7,220910,,,A*7C
$GPRMC,192731.9,A,3250.169661,N,11642.885205,W,46.6,69.0,220910,,,A*70
$GPRMC,192734.9,A,3250.182549,N,11642.842994,W,46.2,72.0,220910,,,A*7F
$GPRMC,192737.9,A,3250.192792,N,11642.800419,W,46.6,76.2,220910,,,A*75
$GPRMC,192740.9,A,3250.201792,N,11642.754554,W,46.7,77.9,220910,,,A*71
$GPRMC,192743.9,A,3250.210512,N,11642.710236,W,46.0,76.8,220910,,,A*7C
$GPRMC,192746.9,A,3250.216830,N,11642.666738,W,44.9,78.2,220910,,,A*76
$GPRMC,192749.9,A,3250.224414,N,11642.624367,W,45.5,77.2,220910,,,A*78
$GPRMC,192752.9,A,3250.231048,N,11642.579692,W,45.4,78.3,220910,,,A*70
$GPRMC,192755.9,A,3250.238888,N,11642.534246,W,46.3,77.7,220910,,,A*71
$GPRMC,192758.9,A,3250.247335,N,11642.488288,W,47.3,78.2,220910,,,A*76
$GPRMC,192801.9,A,3250.255305,N,11642.441216,W,47.8,77.2,220910,,,A*73
$GPRMC,192804.9,A,3250.265547,N,11642.394582,W,48.5,77.8,220910,,,A*78
$GPRMC,192807.9,A,3250.274885,N,11642.346148,W,49.3,76.9,220910,,,A*72
$GPRMC,192811.2,A,3250.284710,N,11642.294534,W,49.6,77.6,220910,,,A*78
$GPRMC,192814.2,A,3250.292149,N,11642.245825,W,50.0,79.0,220910,,,A*77
$GPRMC,192817.9,A,3250.301962,N,11642.185090,W,50.1,81.2,220910,,,A*78
$GPRMC,192820.9,A,3250.308046,N,11642.135859,W,49.7,83.0,220910,,,A*72
$GPRMC,192823.9,A,3250.312606,N,11642.089178,W,48.8,85.4,220910,,,A*78
$GPRMC,192827.2,A,3250.312099,N,11642.038686,W,48.6,89.7,220910,,,A*7A
$GPRMC,192830.9,A,3250.310356,N,11641.981174,W,48.0,90.4,220910,,,A*7A
$GPRMC,192833.9,A,3250.310535,N,11641.932685,W,47.9,89.5,220910,,,A*74
$GPRMC,192836.9,A,3250.308805,N,11641.886057,W,46.6,91.0,220910,,,A*73
$GPRMC,192839.9,A,3250.308672,N,11641.838026,W,47.6,90.0,220910,,,A*71
$GPRMC,192842.9,A,3250.308101,N,11641.790669,W,47.6,90.0,220910,,,A*7E
$GPRMC,192845.2,A,3250.308782,N,11641.755003,W,47.4,89.3,220910,,,A*75
$GPRMC,192848.9,A,3250.310543,N,11641.702442,W,46.9,89.0,220910,,,A*79
$GPRMC,192851.9,A,3250.309928,N,11641.656096,W,46.2,90.1,220910,,,A*77
$GPRMC,192854.9,A,3250.308970,N,11641.607756,W,48.2,90.1,220910,,,A*7F
$GPRMC,192857.9,A,3250.310223,N,11641.560089,W,47.6,89.5,220910,,,A*78
$GPRMC,192900.9,A,3250.312380,N,11641.512462,W,48.4,88.5,220910,,,A*79
$GPRMC,192903.9,A,3250.311517,N,11641.466179,W,48.0,90.6,220910,,,A*72
$GPRMC,192906.9,A,3250.311215,N,11641.418737,W,48.2,90.8,220910,,,A*7B
$GPRMC,192909.9,A,3250.311262,N,11641.373307,W,47.7,89.8,220910,,,A*7B
$GPRMC,192912.2,A,3250.312169,N,11641.334942,W,48.4,88.9,220910,,,A*75
$GPRMC,192915.9,A,3250.314287,N,11641.277257,W,46.6,89.9,220910,,,A*78
$GPRMC,192919.2,A,3250.315140,N,11641.223250,W,47.2,89.4,220910,,,A*78
$GPRMC,192922.9,A,3250.315082,N,11641.166766,W,46.2,92.2,220910,,,A*7B
$GPRMC,192925.9,A,3250.312151,N,11641.120918,W,46.9,94.4,220910,,,A*7A
$GPRMC,192928.9,A,3250.306923,N,11641.076671,W,46.5,96.4,220910,,,A*73
$GPRMC,192931.9,A,3250.300958,N,11641.031037,W,46.0,98.1,220910,,,A*78
$GPRMC,192934.9,A,3250.296045,N,11640.989021,W,44.8,97.8,220910,,,A*76
$GPRMC,192937.9,A,3250.289815,N,11640.942545,W,46.1,99.0,220910,,,A*7B
$GPRMC,192940.9,A,3250.285259,N,11640.900107,W,45.4,97.7,220910,,,A*7E
$GPRMC,192944.2,A,3250.278105,N,11640.850690,W,45.1,98.6,220910,,,A*7F
$GPRMC,192947.9,A,3250.273214,N,11640.796163,W,45.4,98.2,220910,,,A*70
$GPRMC,192950.9,A,3250.268107,N,11640.753498,W,45.2,98.5,220910,,,A*74
$GPRMC,192953.9,A,3250.261432,N,11640.706144,W,47.7,98.6,220910,,,A*7D
$GPRMC,192957.2,A,3250.254568,N,11640.653686,W,47.6,98.9,220910,,,A*7C
$GPRMC,193000.9,A,3250.249783,N,11640.595104,W,47.5,96.4,220910,,,A*72
$GPRMC,193003.9,A,3250.247668,N,11640.546565,W,48.6,92.1,220910,,,A*7B
$GPRMC,193006.9,A,3250.250219,N,11640.497834,W,49.0,87.0,220910,,,A*7C
$GPRMC,193009.9,A,3250.251119,N,11640.447982,W,49.3,85.2,220910,,,A*73
$GPRMC,193012.9,A,3250.257004,N,11640.401073,W,48.7,81.0,220910,,,A*74
$GPRMC,193015.9,A,3250.265486,N,11640.353437,W,49.5,79.6,220910,,,A*7A
$GPRMC,193018.9,A,3250.273664,N,11640.301644,W,50.8,79.9,220910,,,A*75
$GPRMC,193021.9,A,3250.279823,N,11640.252351,W,51.0,80.3,220910,,,A*7B
$GPRMC,193024.9,A,3250.286366,N,11640.206310,W,50.4,81.9,220910,,,A*7E
$GPRMC,193027.9,A,3250.291853,N,11640.155349,W,50.5,85.5,220910,,,A*76
$GPRMC,193030.9,A,3250.293776,N,11640.105235,W,49.9,87.9,220910,,,A*7F
$GPRMC,193033.9,A,3250.293394,N,11640.057758,W,48.8,91.4,220910,,,A*76
$GPRMC,193036.9,A,3250.289718,N,11640.011262,W,48.3,93.3,220910,,,A*78
$GPRMC,193039.9,A,3250.287173,N,11639.964654,W,47.7,95.9,220910,,,A*71
$GPRMC,193042.9,A,3250.280419,N,11639.918266,W,48.3,99.1,220910,,,A*72
$GPRMC,193045.9,A,3250.271591,N,11639.872322,W,47.4,103.0,220910,,,A*4D
$GPRMC,193049.2,A,3250.260353,N,11639.823873,W,46.8,103.3,220910,,,A*47
$GPRMC,193052.2,A,3250.251674,N,11639.781404,W,46.1,102.7,220910,,,A*48
$GPRMC,193055.9,A,3250.244019,N,11639.726554,W,46.3,100.9,220910,,,A*4A
$GPRMC,193058.9,A,3250.238143,N,11639.682664,W,43.9,98.3,220910,,,A*78
$GPRMC,193101.2,A,3250.236552,N,11639.649016,W,43.4,93.6,220910,,,A*73
$GPRMC,193104.9,A,3250.236652,N,11639.595939,W,43.4,89.3,220910,,,A*76
$GPRMC,193107.0,A,3250.238802,N,11639.568192,W,41.0,85.9,220910,,,A*72
$GPRMC,193110.9,A,3250.240766,N,11639.519922,W,38.4,82.8,220910,,,A*76
$GPRMC,193113.9,A,3250.246878,N,11639.485011,W,36.3,79.6,220910,,,A*7D
$GPRMC,193116.9,A,3250.251401,N,11639.452032,W,35.4,80.8,220910,,,A*7B
$GPRMC,193119.9,A,3250.257914,N,11639.419706,W,34.6,78.3,220910,,,A*7B
$GPRMC,193122.9,A,3250.265337,N,11639.383550,W,35.0,77.3,220910,,,A*74
$GPRMC,193125.9,A,3250.269908,N,11639.350698,W,34.1,79.3,220910,,,A*7E
$GPRMC,193128.9,A,3250.275283,N,11639.319462,W,34.0,80.0,220910,,,A*78
$GPRMC,193131.9,A,3250.279524,N,11639.285484,W,34.0,80.0,220910,,,A*7A
$GPRMC,193134.9,A,3250.284899,N,11639.253989,W,33.3,80.4,220910,,,A*7D
$GPRMC,193137.9,A,3250.287894,N,11639.217695,W,34.0,83.0,220910,,,A*71
$GPRMC,193140.9,A,3250.290639,N,11639.183555,W,33.5,85.5,220910,,,A*7E
$GPRMC,193143.2,A,3250.291439,N,11639.157544,W,34.6,88.3,220910,,,A*73
$GPRMC,193146.9,A,3250.291315,N,11639.116727,W,34.1,91.4,220910,,,A*7E
$GPRMC,193149.2,A,3250.290947,N,11639.091389,W,35.1,93.0,220910,,,A*7F
$GPRMC,193152.9,A,3250.286262,N,11639.048154,W,35.2,96.2,220910,,,A*77
$GPRMC,193155.9,A,3250.282107,N,11639.014949,W,36.7,99.4,220910,,,A*76
$GPRMC,193158.9,A,3250.275482,N,11638.977913,W,37.7,102.1,220910,,,A*4E
$GPRMC,193201.9,A,3250.268928,N,11638.942944,W,36.7,104.0,220910,,,A*42
$GPRMC,193204.2,A,3250.262677,N,11638.916300,W,37.3,103.8,220910,,,A*42
$GPRMC,193207.2,A,3250.254844,N,11638.881085,W,36.6,104.8,220910,,,A*48
$GPRMC,193210.9,A,3250.243846,N,11638.841090,W,35.2,107.1,220910,,,A*44
$GPRMC,193213.9,A,3250.234661,N,11638.806776,W,36.2,105.6,220910,,,A*46
$GPRMC,193216.9,A,3250.228564,N,11638.773343,W,34.4,104.2,220910,,,A*46
$GPRMC,193219.9,A,3250.219930,N,11638.740532,W,33.9,105.9,220910,,,A*46
$GPRMC,193222.9,A,3250.212666,N,11638.702517,W,36.2,103.7,220910,,,A*4E
$GPRMC,193225.9,A,3250.205618,N,11638.667560,W,36.0,103.7,220910,,,A*46
$GPRMC,193228.9,A,3250.200549,N,11638.633070,W,35.9,104.0,220910,,,A*46
$GPRMC,193231.9,A,3250.192689,N,11638.599024,W,35.5,105.0,220910,,,A*46
$GPRMC,193234.9,A,3250.185307,N,11638.566343,W,35.3,104.8,220910,,,A*4B
$GPRMC,193237.9,A,3250.177167,N,11638.533860,W,35.4,104.9,220910,,,A*4D
$GPRMC,193240.9,A,3250.169264,N,11638.500653,W,35.9,104.2,220910,,,A*4A
$GPRMC,193243.9,A,3250.161644,N,11638.465514,W,35.7,104.6,220910,,,A*4F
$GPRMC,193246.9,A,3250.152608,N,11638.428395,W,36.8,106.3,220910,,,A*4F
$GPRMC,193249.9,A,3250.146342,N,11638.394552,W,35.3,105.6,220910,,,A*4D
$GPRMC,193252.9,A,3250.138913,N,11638.361883,W,35.0,108.2,220910,,,A*41
$GPRMC,193255.9,A,3250.128353,N,11638.328737,W,35.6,110.0,220910,,,A*49
$GPRMC,193258.9,A,3250.117654,N,11638.293835,W,36.5,111.7,220910,,,A*40
$GPRMC,193301.9,A,3250.105731,N,11638.263567,W,34.7,113.0,220910,,,A*4C
$GPRMC,193304.9,A,3250.093686,N,11638.233076,W,34.7,113.7,220910,,,A*4D
$GPRMC,193307.9,A,3250.082636,N,11638.199774,W,34.9,113.1,220910,,,A*4B
$GPRMC,193310.9,A,3250.072618,N,11638.164906,W,35.7,111.4,220910,,,A*4F
$GPRMC,193313.9,A,3250.061818,N,11638.135250,W,34.5,112.1,220910,,,A*49
$GPRMC,193316.9,A,3250.050389,N,11638.102544,W,35.1,112.6,220910,,,A*49
$GPRMC,193319.9,A,3250.037439,N,11638.070691,W,35.4,113.5,220910,,,A*43
$GPRMC,193322.9,A,3250.027164,N,11638.040836,W,33.7,113.3,220910,,,A*44
$GPRMC,193325.9,A,3250.016776,N,11638.007636,W,35.2,111.9,220910,,,A*42
$GPRMC,193328.9,A,3250.004128,N,11637.976606,W,35.5,114.3,220910,,,A*4A
$GPRMC,193331.9,A,3249.992422,N,11637.945791,W,34.8,115.2,220910,,,A*40
$GPRMC,193334.9,A,3249.981246,N,11637.914522,W,35.1,117.0,220910,,,A*45
$GPRMC,193337.9,A,3249.968499,N,11637.884975,W,34.4,118.8,220910,,,A*40
$GPRMC,193340.9,A,3249.954120,N,11637.856404,W,34.1,120.9,220910,,,A*43
$GPRMC,193343.9,A,3249.939010,N,11637.830970,W,33.0,127.0,220910,,,A*4F
$GPRMC,193346.9,A,3249.922367,N,11637.804056,W,32.8,128.6,220910,,,A*49
$GPRMC,193349.2,A,3249.907697,N,11637.784600,W,33.4,131.3,220910,,,A*42
$GPRMC,193352.2,A,3249.888226,N,11637.761828,W,32.0,134.3,220910,,,A*4F
$GPRMC,193355.0,A,3249.870333,N,11637.740291,W,33.2,136.5,220910,,,A*44
$GPRMC,193358.9,A,3249.842418,N,11637.710842,W,33.0,139.7,220910,,,A*41
$GPRMC,193401.9,A,3249.819524,N,11637.692048,W,33.5,144.8,220910,,,A*43
$GPRMC,193404.2,A,3249.803110,N,11637.677943,W,33.2,144.3,220910,,,A*40
$GPRMC,193408.2,A,3249.771325,N,11637.654375,W,32.9,148.7,220910,,,A*4E
$GPRMC,193411.0,A,3249.749464,N,11637.638905,W,34.5,148.4,220910,,,A*43
$GPRMC,193414.2,A,3249.723204,N,11637.621194,W,34.7,149.9,220910,,,A*4E
$GPRMC,193417.2,A,3249.697939,N,11637.602749,W,35.2,148.5,220910,,,A*48
$GPRMC,193420.9,A,3249.668285,N,11637.578159,W,34.7,145.4,220910,,,A*4A
$GPRMC,193424.2,A,3249.639423,N,11637.554830,W,37.8,144.5,220910,,,A*4F
$GPRMC,193427.9,A,3249.609767,N,11637.523583,W,37.0,139.9,220910,,,A*4C
$GPRMC,193430.9,A,3249.585307,N,11637.498877,W,37.6,138.8,220910,,,A*4E
$GPRMC,193433.9,A,3249.562931,N,11637.472183,W,37.4,134.4,220910,,,A*4F
$GPRMC,193437.2,A,3249.540241,N,11637.443270,W,36.5,131.9,220910,,,A*49
$GPRMC,193440.9,A,3249.514690,N,11637.412420,W,35.0,129.6,220910,,,A*4C
$GPRMC,193443.9,A,3249.496349,N,11637.383416,W,35.8,126.4,220910,,,A*4A
$GPRMC,193446.9,A,3249.480456,N,11637.356635,W,35.0,123.7,220910,,,A*44
$GPRMC,193449.9,A,3249.465856,N,11637.325624,W,36.2,121.3,220910,,,A*4F
$GPRMC,193452.9,A,3249.449728,N,11637.294022,W,36.1,118.5,220910,,,A*49
$GPRMC,193455.9,A,3249.436035,N,11637.258428,W,37.6,114.6,220910,,,A*4A
$GPRMC,193458.9,A,3249.422203,N,11637.227227,W,36.3,114.0,220910,,,A*46
$GPRMC,193501.9,A,3249.413399,N,11637.198023,W,35.5,109.2,220910,,,A*41
$GPRMC,193504.9,A,3249.403525,N,11637.165504,W,35.2,108.7,220910,,,A*45
$GPRMC,193508.2,A,3249.395100,N,11637.126987,W,35.6,104.4,220910,,,A*42
$GPRMC,193511.9,A,3249.386988,N,11637.085247,W,36.5,102.4,220910,,,A*42
$GPRMC,193514.9,A,3249.382046,N,11637.050389,W,36.1,98.9,220910,,,A*78
$GPRMC,193517.9,A,3249.376657,N,11637.014917,W,35.7,97.4,220910,,,A*7C
$GPRMC,193520.2,A,3249.376234,N,11636.987252,W,36.4,92.5,220910,,,A*7E
$GPRMC,193523.2,A,3249.376190,N,11636.951324,W,35.9,90.1,220910,,,A*73
$GPRMC,193526.2,A,3249.377091,N,11636.915354,W,36.9,87.2,220910,,,A*76
$GPRMC,193529.9,A,3249.380609,N,11636.870574,W,36.6,84.7,220910,,,A*72
$GPRMC,193532.9,A,3249.381421,N,11636.833879,W,36.4,83.5,220910,,,A*71
$GPRMC,193535.9,A,3249.386407,N,11636.800297,W,35.5,78.9,220910,,,A*75
$GPRMC,193538.9,A,3249.392026,N,11636.765556,W,35.5,79.1,220910,,,A*75
$GPRMC,193541.9,A,3249.396938,N,11636.729323,W,35.8,81.0,220910,,,A*7E
$GPRMC,193545.2,A,3249.403311,N,11636.691588,W,36.1,78.8,220910,,,A*7A
$GPRMC,193548.9,A,3249.409518,N,11636.649263,W,35.8,81.9,220910,,,A*73
$GPRMC,193551.2,A,3249.413255,N,11636.621006,W,36.1,81.8,220910,,,A*71
$GPRMC,193554.2,A,3249.417877,N,11636.585016,W,36.1,83.5,220910,,,A*79
$GPRMC,193557.9,A,3249.422124,N,11636.540876,W,36.1,84.8,220910,,,A*75
$GPRMC,193600.2,A,3249.425196,N,11636.513620,W,35.7,85.9,220910,,,A*7F
$GPRMC,193603.2,A,3249.428222,N,11636.478066,W,36.1,86.1,220910,,,A*7B
$GPRMC,193606.2,A,3249.428799,N,11636.444348,W,34.8,88.4,220910,,,A*7B
$GPRMC,193609.2,A,3249.428558,N,11636.411437,W,34.6,90.1,220910,,,A*76
$GPRMC,193612.2,A,3249.427780,N,11636.376680,W,35.1,91.4,220910,,,A*7E
$GPRMC,193616.2,A,3249.425657,N,11636.331734,W,34.6,92.9,220910,,,A*76
$GPRMC,193619.9,A,3249.423576,N,11636.290808,W,34.1,94.1,220910,,,A*77
$GPRMC,193622.9,A,3249.420110,N,11636.256783,W,34.6,96.1,220910,,,A*7B
$GPRMC,193625.9,A,3249.418175,N,11636.222965,W,33.9,95.4,220910,,,A*7F
$GPRMC,193628.9,A,3249.415692,N,11636.188486,W,34.6,96.5,220910,,,A*78
$GPRMC,193631.9,A,3249.411239,N,11636.156559,W,33.8,98.8,220910,,,A*7B
$GPRMC,193634.9,A,3249.406180,N,11636.122846,W,34.5,100.4,220910,,,A*4F
$GPRMC,193637.9,A,3249.399476,N,11636.087221,W,36.0,103.3,220910,,,A*47
$GPRMC,193640.9,A,3249.391849,N,11636.051278,W,36.6,103.5,220910,,,A*48
$GPRMC,193643.9,A,3249.383881,N,11636.016380,W,36.8,105.0,220910,,,A*44
$GPRMC,193646.9,A,3249.374767,N,11635.977873,W,38.3,105.4,220910,,,A*45
$GPRMC,193649.9,A,3249.366611,N,11635.943618,W,37.6,106.6,220910,,,A*46
$GPRMC,193652.9,A,3249.356902,N,11635.905691,W,38.7,107.6,220910,,,A*4E
$GPRMC,193655.9,A,3249.347082,N,11635.870701,W,38.2,108.2,220910,,,A*4D
$GPRMC,193658.9,A,3249.336513,N,11635.836097,W,37.4,109.7,220910,,,A*4C
$GPRMC,193701.9,A,3249.327619,N,11635.800118,W,37.6,108.9,220910,,,A*46
$GPRMC,193704.9,A,3249.317283,N,11635.769511,W,36.0,109.4,220910,,,A*41
$GPRMC,193707.9,A,3249.307840,N,11635.731720,W,38.6,107.3,220910,,,A*4A
$GPRMC,193710.9,A,3249.298136,N,11635.697873,W,36.9,108.2,220910,,,A*48
$GPRMC,193713.9,A,3249.289173,N,11635.663581,W,36.5,108.7,220910,,,A*48
$GPRMC,193716.9,A,3249.278878,N,11635.628301,W,36.5,110.2,220910,,,A*4C
$GPRMC,193719.9,A,3249.267813,N,11635.593003,W,37.2,109.4,220910,,,A*4A
$GPRMC,193722.9,A,3249.259199,N,11635.559927,W,36.1,107.9,220910,,,A*4C
$GPRMC,193725.9,A,3249.249190,N,11635.526175,W,36.4,109.3,220910,,,A*45
$GPRMC,193728.9,A,3249.240588,N,11635.491409,W,36.9,108.3,220910,,,A*43
$GPRMC,193731.9,A,3249.230538,N,11635.457504,W,36.7,108.3,220910,,,A*4F
$GPRMC,193734.9,A,3249.220504,N,11635.426036,W,35.5,109.3,220910,,,A*46
$GPRMC,193737.9,A,3249.210747,N,11635.392023,W,36.0,108.9,220910,,,A*42
$GPRMC,193740.9,A,3249.201713,N,11635.357388,W,36.3,108.4,220910,,,A*46
$GPRMC,193743.9,A,3249.189994,N,11635.324902,W,35.5,111.5,220910,,,A*47
$GPRMC,193746.9,A,3249.179361,N,11635.292234,W,35.3,109.7,220910,,,A*42
$GPRMC,193749.9,A,3249.170065,N,11635.258928,W,35.2,108.8,220910,,,A*4C
$GPRMC,193752.9,A,3249.161789,N,11635.227051,W,34.8,108.4,220910,,,A*4B
$GPRMC,193755.9,A,3249.152876,N,11635.194848,W,34.3,109.4,220910,,,A*42
$GPRMC,193758.9,A,3249.145224,N,11635.161944,W,34.9,107.2,220910,,,A*41
$GPRMC,193801.9,A,3249.136313,N,11635.131562,W,33.9,108.3,220910,,,A*47
$GPRMC,193805.2,A,3249.124986,N,11635.097051,W,33.4,109.1,220910,,,A*4B
$GPRMC,193808.9,A,3249.115386,N,11635.059421,W,32.9,105.7,220910,,,A*42
$GPRMC,193811.9,A,3249.110357,N,11635.025364,W,33.9,101.2,220910,,,A*4E
$GPRMC,193814.9,A,3249.107163,N,11634.991077,W,34.6,97.4,220910,,,A*7E
$GPRMC,193817.9,A,3249.104609,N,11634.956900,W,35.2,94.1,220910,,,A*74
$GPRMC,193820.9,A,3249.103628,N,11634.923632,W,34.6,89.5,220910,,,A*75
$GPRMC,193823.9,A,3249.105890,N,11634.888495,W,35.3,86.7,220910,,,A*7B
$GPRMC,193826.9,A,3249.106895,N,11634.853246,W,36.1,83.9,220910,,,A*7C
$GPRMC,193829.9,A,3249.111159,N,11634.816786,W,35.3,80.7,220910,,,A*78
$GPRMC,193832.9,A,3249.117157,N,11634.781923,W,35.6,78.8,220910,,,A*77
$GPRMC,193835.2,A,3249.121724,N,11634.756790,W,36.1,75.1,220910,,,A*70
$GPRMC,193838.9,A,3249.132082,N,11634.713668,W,36.4,74.8,220910,,,A*75
$GPRMC,193841.9,A,3249.139414,N,11634.679363,W,35.6,74.2,220910,,,A*73
$GPRMC,193845.2,A,3249.147295,N,11634.641700,W,35.1,75.3,220910,,,A*77
$GPRMC,193848.9,A,3249.158096,N,11634.601493,W,35.0,73.1,220910,,,A*76
$GPRMC,193851.9,A,3249.168077,N,11634.570153,W,35.1,72.0,220910,,,A*7F
$GPRMC,193854.9,A,3249.175629,N,11634.533941,W,36.0,74.7,220910,,,A*74
$GPRMC,193857.9,A,3249.183283,N,11634.498660,W,36.3,75.4,220910,,,A*77
$GPRMC,193900.9,A,3249.189453,N,11634.463594,W,36.3,76.0,220910,,,A*7E
$GPRMC,193903.2,A,3249.195458,N,11634.435864,W,36.7,74.9,220910,,,A*7E
$GPRMC,193906.9,A,3249.206056,N,11634.392901,W,35.7,75.0,220910,,,A*70
$GPRMC,193909.9,A,3249.215122,N,11634.358312,W,36.7,74.9,220910,,,A*7A
$GPRMC,193912.0,A,3249.220960,N,11634.334088,W,35.7,74.2,220910,,,A*73
$GPRMC,193915.9,A,3249.232594,N,11634.286970,W,38.2,72.0,220910,,,A*73
$GPRMC,193919.2,A,3249.244189,N,11634.250776,W,36.4,68.0,220910,,,A*7D
$GPRMC,193923.2,A,3249.261026,N,11634.204267,W,38.7,63.7,220910,,,A*72
$GPRMC,193926.9,A,3249.279516,N,11634.162322,W,39.0,61.2,220910,,,A*71
$GPRMC,193929.9,A,3249.294949,N,11634.126093,W,40.7,62.3,220910,,,A*79
$GPRMC,193933.2,A,3249.312576,N,11634.087388,W,41.0,60.6,220910,,,A*74
$GPRMC,193936.2,A,3249.329416,N,11634.049297,W,43.6,64.2,220910,,,A*77
$GPRMC,193939.2,A,3249.345841,N,11634.008933,W,44.8,67.4,220910,,,A*70
$GPRMC,193942.2,A,3249.358641,N,11633.968028,W,44.1,71.5,220910,,,A*7A
$GPRMC,193945.2,A,3249.368700,N,11633.926957,W,42.5,76.7,220910,,,A*76
$GPRMC,193949.2,A,3249.378108,N,11633.872670,W,41.7,80.4,220910,,,A*74
$GPRMC,193952.9,A,3249.381645,N,11633.822161,W,43.1,87.2,220910,,,A*7A
$GPRMC,193955.9,A,3249.382030,N,11633.778519,W,43.7,89.0,220910,,,A*7B
$GPRMC,193958.9,A,3249.380861,N,11633.738941,W,41.8,90.8,220910,,,A*70
$GPRMC,194001.9,A,3249.380267,N,11633.697026,W,42.2,90.3,220910,,,A*70
$GPRMC,194004.9,A,3249.382830,N,11633.652303,W,43.7,88.9,220910,,,A*75
$GPRMC,194007.9,A,3249.381776,N,11633.607000,W,43.6,90.6,220910,,,A*7F
$GPRMC,194010.9,A,3249.383090,N,11633.563691,W,43.7,89.8,220910,,,A*7C
$GPRMC,194013.9,A,3249.381862,N,11633.521985,W,43.4,90.2,220910,,,A*75
$GPRMC,194016.9,A,3249.382271,N,11633.477455,W,45.1,90.2,220910,,,A*7A
$GPRMC,194019.9,A,3249.382444,N,11633.430435,W,45.5,90.1,220910,,,A*77
$GPRMC,194022.9,A,3249.382913,N,11633.390274,W,44.2,90.5,220910,,,A*7C
$GPRMC,194025.9,A,3249.378789,N,11633.347411,W,45.0,95.5,220910,,,A*7A
$GPRMC,194028.9,A,3249.373395,N,11633.302996,W,46.2,98.5,220910,,,A*7A
$GPRMC,194031.9,A,3249.366192,N,11633.257838,W,46.6,103.4,220910,,,A*41
$GPRMC,194034.9,A,3249.355185,N,11633.215249,W,46.9,107.1,220910,,,A*46
$GPRMC,194037.9,A,3249.341119,N,11633.169281,W,47.7,111.7,220910,,,A*47
$GPRMC,194040.9,A,3249.322765,N,11633.128297,W,47.0,117.4,220910,,,A*4F
$GPRMC,194043.9,A,3249.301086,N,11633.088072,W,46.9,123.6,220910,,,A*48
$GPRMC,194046.9,A,3249.277680,N,11633.050612,W,47.8,125.9,220910,,,A*41
$GPRMC,194049.9,A,3249.253329,N,11633.011921,W,49.1,126.6,220910,,,A*4F
$GPRMC,194052.9,A,3249.228294,N,11632.972993,W,49.0,126.5,220910,,,A*48
$GPRMC,194055.9,A,3249.204575,N,11632.933231,W,49.2,126.1,220910,,,A*49
$GPRMC,194058.9,A,3249.182702,N,11632.896003,W,47.3,126.4,220910,,,A*4C
$GPRMC,194101.9,A,3249.159810,N,11632.858460,W,47.0,124.0,220910,,,A*4D
$GPRMC,194104.9,A,3249.139688,N,11632.817299,W,47.0,120.0,220910,,,A*4E
$GPRMC,194107.9,A,3249.123597,N,11632.777393,W,46.6,115.2,220910,,,A*4A
$GPRMC,194111.2,A,3249.106370,N,11632.729771,W,47.1,110.3,220910,,,A*4F
$GPRMC,194114.9,A,3249.091348,N,11632.675467,W,46.3,105.4,220910,,,A*49
$GPRMC,194117.9,A,3249.085008,N,11632.627648,W,46.8,99.0,220910,,,A*7B
$GPRMC,194120.0,A,3249.081362,N,11632.595145,W,48.0,97.2,220910,,,A*77
$GPRMC,194124.2,A,3249.075998,N,11632.532463,W,44.3,91.0,220910,,,A*72
$GPRMC,194127.9,A,3249.078112,N,11632.479592,W,43.9,85.1,220910,,,A*75
$GPRMC,194130.2,A,3249.081186,N,11632.447864,W,42.4,83.5,220910,,,A*74
$GPRMC,194134.2,A,3249.084899,N,11632.394102,W,40.0,84.0,220910,,,A*76
$GPRMC,194137.9,A,3249.089134,N,11632.345259,W,39.7,84.6,220910,,,A*73
$GPRMC,194140.9,A,3249.092726,N,11632.305821,W,40.7,84.5,220910,,,A*70
$GPRMC,194143.9,A,3249.094836,N,11632.265234,W,40.6,85.9,220910,,,A*7E
$GPRMC,194146.9,A,3249.095864,N,11632.226651,W,39.5,89.2,220910,,,A*77
$GPRMC,194149.9,A,3249.093816,N,11632.187274,W,39.7,90.6,220910,,,A*7E
$GPRMC,194152.9,A,3249.093515,N,11632.146243,W,41.6,92.2,220910,,,A*7B
$GPRMC,194155.9,A,3249.089746,N,11632.109752,W,40.4,95.8,220910,,,A*73
$GPRMC,194158.9,A,3249.087031,N,11632.068807,W,41.5,96.3,220910,,,A*76
$GPRMC,194201.9,A,3249.082624,N,11632.029456,W,41.0,98.7,220910,,,A*7C
$GPRMC,194204.9,A,3249.075505,N,11631.987085,W,42.6,100.5,220910,,,A*42
$GPRMC,194207.9,A,3249.067708,N,11631.947834,W,41.7,102.5,220910,,,A*43
$GPRMC,194210.9,A,3249.059519,N,11631.909303,W,40.6,104.3,220910,,,A*4F
$GPRMC,194213.9,A,3249.051049,N,11631.869506,W,41.0,106.7,220910,,,A*41
$GPRMC,194216.9,A,3249.039715,N,11631.828151,W,41.4,108.4,220910,,,A*4E
$GPRMC,194219.9,A,3249.029167,N,11631.790988,W,40.5,109.5,220910,,,A*43
$GPRMC,194222.9,A,3249.015949,N,11631.754461,W,40.9,112.5,220910,,,A*44
$GPRMC,194225.9,A,3249.001816,N,11631.718595,W,41.1,115.0,220910,,,A*44
$GPRMC,194228.9,A,3248.986657,N,11631.681625,W,41.6,116.1,220910,,,A*49
$GPRMC,194231.2,A,3248.974501,N,11631.653015,W,41.9,118.8,220910,,,A*45
$GPRMC,194234.9,A,3248.954226,N,11631.610334,W,41.7,120.7,220910,,,A*46
$GPRMC,194237.2,A,3248.940061,N,11631.582882,W,41.9,121.7,220910,,,A*4B
$GPRMC,194240.9,A,3248.916384,N,11631.536742,W,44.0,121.5,220910,,,A*49
$GPRMC,194243.9,A,3248.896726,N,11631.500891,W,43.6,121.4,220910,,,A*4B
$GPRMC,194246.9,A,3248.878466,N,11631.463318,W,43.8,120.5,220910,,,A*49
$GPRMC,194249.9,A,3248.861522,N,11631.423553,W,45.2,116.6,220910,,,A*48
$GPRMC,194252.9,A,3248.845184,N,11631.382036,W,45.2,115.5,220910,,,A*46
$GPRMC,194255.9,A,3248.830719,N,11631.342219,W,44.7,112.9,220910,,,A*4D
$GPRMC,194258.9,A,3248.813679,N,11631.302611,W,45.6,111.5,220910,,,A*41
$GPRMC,194301.9,A,3248.800773,N,11631.259465,W,45.2,109.5,220910,,,A*46
$GPRMC,194304.9,A,3248.789721,N,11631.217429,W,45.2,106.6,220910,,,A*44
$GPRMC,194307.9,A,3248.780769,N,11631.175646,W,44.9,104.6,220910,,,A*46
$GPRMC,194310.9,A,3248.772832,N,11631.134808,W,45.0,103.6,220910,,,A*42
$GPRMC,194313.9,A,3248.765684,N,11631.085739,W,46.2,101.7,220910,,,A*40
$GPRMC,194316.9,A,3248.754475,N,11631.041761,W,45.7,103.7,220910,,,A*4A
$GPRMC,194319.9,A,3248.747488,N,11630.995940,W,45.9,102.1,220910,,,A*40
$GPRMC,194322.0,A,3248.739429,N,11630.966920,W,47.4,104.8,220910,,,A*49
$GPRMC,194325.9,A,3248.730478,N,11630.908097,W,46.3,101.9,220910,,,A*45
$GPRMC,194328.2,A,3248.723712,N,11630.874390,W,46.2,104.2,220910,,,A*4F
$GPRMC,194331.9,A,3248.709906,N,11630.820147,W,46.1,107.7,220910,,,A*43
$GPRMC,194334.9,A,3248.698354,N,11630.776932,W,45.7,109.6,220910,,,A*4E
$GPRMC,194337.2,A,3248.687583,N,11630.743451,W,45.1,111.6,220910,,,A*45
$GPRMC,194340.2,A,3248.673501,N,11630.704660,W,43.8,113.3,220910,,,A*4F
$GPRMC,194343.9,A,3248.655112,N,11630.656060,W,42.6,116.3,220910,,,A*4F
$GPRMC,194346.2,A,3248.642643,N,11630.628723,W,40.6,120.0,220910,,,A*49
$GPRMC,194349.9,A,3248.621801,N,11630.587009,W,40.9,121.4,220910,,,A*43
$GPRMC,194352.0,A,3248.608027,N,11630.563172,W,41.2,125.1,220910,,,A*4B
$GPRMC,194355.9,A,3248.582261,N,11630.520849,W,41.6,125.1,220910,,,A*46
$GPRMC,194358.2,A,3248.566012,N,11630.496302,W,41.8,128.6,220910,,,A*40
$GPRMC,194401.9,A,3248.534959,N,11630.459309,W,40.7,132.5,220910,,,A*4F
$GPRMC,194404.9,A,3248.507447,N,11630.426965,W,43.9,135.6,220910,,,A*49
$GPRMC,194407.9,A,3248.480468,N,11630.396179,W,44.7,137.5,220910,,,A*48
$GPRMC,194410.9,A,3248.452385,N,11630.364597,W,45.5,137.8,220910,,,A*42
$GPRMC,194413.9,A,3248.424626,N,11630.335405,W,45.4,138.3,220910,,,A*47
$GPRMC,194416.9,A,3248.397818,N,11630.304819,W,44.9,137.5,220910,,,A*48
$GPRMC,194419.2,A,3248.376289,N,11630.283108,W,44.7,139.3,220910,,,A*40
$GPRMC,194422.9,A,3248.343543,N,11630.249258,W,40.5,137.7,220910,,,A*48
$GPRMC,194425.9,A,3248.315752,N,11630.221231,W,42.4,138.0,220910,,,A*44
$GPRMC,194428.2,A,3248.295914,N,11630.196372,W,44.1,136.4,220910,,,A*47
$GPRMC,194431.2,A,3248.268559,N,11630.166667,W,44.8,137.7,220910,,,A*4D
$GPRMC,194434.2,A,3248.240376,N,11630.136367,W,45.1,137.7,220910,,,A*41
$GPRMC,194437.2,A,3248.212031,N,11630.105850,W,46.2,138.0,220910,,,A*42
$GPRMC,194440.2,A,3248.183093,N,11630.076096,W,46.2,138.6,220910,,,A*40
$GPRMC,194443.2,A,3248.156099,N,11630.047340,W,43.8,139.0,220910,,,A*43
$GPRMC,194446.0,A,3248.128578,N,11630.023154,W,44.3,141.8,220910,,,A*49
$GPRMC,194450.2,A,3248.087349,N,11629.985594,W,45.8,143.3,220910,,,A*4A
$GPRMC,194453.2,A,3248.054029,N,11629.958112,W,47.3,146.3,220910,,,A*44
$GPRMC,194456.9,A,3248.012531,N,11629.928474,W,47.9,148.9,220910,,,A*48
$GPRMC,194459.9,A,3247.978880,N,11629.901347,W,48.4,148.5,220910,,,A*48
$GPRMC,194502.9,A,3247.944310,N,11629.881321,W,46.7,152.8,220910,,,A*48
$GPRMC,194505.9,A,3247.907697,N,11629.860117,W,47.7,154.3,220910,,,A*46
$GPRMC,194508.9,A,3247.871694,N,11629.838671,W,49.2,154.0,220910,,,A*4A
$GPRMC,194511.2,A,3247.843279,N,11629.824953,W,47.7,157.8,220910,,,A*4D
$GPRMC,194515.2,A,3247.795701,N,11629.806732,W,46.6,160.1,220910,,,A*43
$GPRMC,194518.2,A,3247.759343,N,11629.794072,W,46.2,162.0,220910,,,A*4C
$GPRMC,194521.0,A,3247.725333,N,11629.781871,W,45.2,164.6,220910,,,A*44
$GPRMC,194525.2,A,3247.673540,N,11629.766844,W,44.1,167.3,220910,,,A*49
$GPRMC,194528.2,A,3247.637638,N,11629.758994,W,45.2,169.9,220910,,,A*4F
$GPRMC,194531.9,A,3247.591918,N,11629.748159,W,45.5,169.3,220910,,,A*4B
$GPRMC,194534.9,A,3247.554620,N,11629.742981,W,46.0,172.1,220910,,,A*4A
$GPRMC,194537.2,A,3247.525880,N,11629.738064,W,46.2,172.0,220910,,,A*4C
$GPRMC,194540.9,A,3247.477551,N,11629.731152,W,46.8,171.8,220910,,,A*4C
$GPRMC,194543.9,A,3247.439515,N,11629.723656,W,46.2,171.9,220910,,,A*4E
$GPRMC,194546.9,A,3247.403017,N,11629.718822,W,44.3,173.5,220910,,,A*4D
$GPRMC,194549.9,A,3247.367805,N,11629.713387,W,43.5,172.6,220910,,,A*40
$GPRMC,194552.9,A,3247.332212,N,11629.707513,W,44.7,173.0,220910,,,A*4A
$GPRMC,194555.9,A,3247.295993,N,11629.702878,W,44.7,172.9,220910,,,A*4E
$GPRMC,194558.9,A,3247.258805,N,11629.697615,W,45.0,172.7,220910,,,A*4C
$GPRMC,194601.9,A,3247.220850,N,11629.691431,W,46.6,173.4,220910,,,A*49
$GPRMC,194604.9,A,3247.180514,N,11629.683998,W,47.7,172.7,220910,,,A*47
$GPRMC,194607.9,A,3247.141187,N,11629.679530,W,45.8,173.3,220910,,,A*44
$GPRMC,194610.2,A,3247.115214,N,11629.674010,W,43.2,172.9,220910,,,A*4C
$GPRMC,194613.9,A,3247.072596,N,11629.666636,W,43.2,172.1,220910,,,A*40
$GPRMC,194616.9,A,3247.036417,N,11629.662420,W,45.8,173.1,220910,,,A*41
$GPRMC,194619.2,A,3247.006550,N,11629.657620,W,46.8,172.0,220910,,,A*43
$GPRMC,194622.9,A,3246.959842,N,11629.650804,W,46.0,173.0,220910,,,A*4A
$GPRMC,194626.2,A,3246.917176,N,11629.642372,W,46.8,172.3,220910,,,A*42
$GPRMC,194629.9,A,3246.871117,N,11629.633213,W,43.5,171.3,220910,,,A*4B
$GPRMC,194632.9,A,3246.837859,N,11629.627663,W,43.2,172.1,220910,,,A*40
$GPRMC,194635.9,A,3246.798590,N,11629.624416,W,44.9,173.6,220910,,,A*4C
$GPRMC,194638.9,A,3246.762942,N,11629.619110,W,44.3,173.3,220910,,,A*45
$GPRMC,194641.9,A,3246.724783,N,11629.613102,W,45.6,173.3,220910,,,A*47
$GPRMC,194644.9,A,3246.687250,N,11629.607278,W,44.9,172.2,220910,,,A*44
$GPRMC,194647.9,A,3246.654600,N,11629.602442,W,44.4,172.6,220910,,,A*4B
$GPRMC,194650.9,A,3246.616577,N,11629.597525,W,45.8,172.4,220910,,,A*48
$GPRMC,194653.9,A,3246.579956,N,11629.589776,W,44.9,171.3,220910,,,A*41
$GPRMC,194656.9,A,3246.540301,N,11629.581733,W,46.4,169.2,220910,,,A*48
$GPRMC,194659.9,A,3246.501307,N,11629.570001,W,47.1,166.8,220910,,,A*4D
$GPRMC,194702.9,A,3246.462497,N,11629.559074,W,47.7,164.9,220910,,,A*44
$GPRMC,194705.9,A,3246.422465,N,11629.544257,W,49.3,162.6,220910,,,A*46
$GPRMC,194708.2,A,3246.393913,N,11629.531105,W,49.3,161.1,220910,,,A*43
$GPRMC,194711.2,A,3246.356854,N,11629.511450,W,46.4,156.8,220910,,,A*42
$GPRMC,194714.2,A,3246.322497,N,11629.493017,W,44.3,156.1,220910,,,A*47
$GPRMC,194717.9,A,3246.282253,N,11629.469123,W,43.7,150.1,220910,,,A*4C
$GPRMC,194720.9,A,3246.247785,N,11629.451175,W,44.9,152.9,220910,,,A*44
$GPRMC,194723.9,A,3246.214059,N,11629.430247,W,45.9,152.0,220910,,,A*4A
$GPRMC,194726.2,A,3246.189810,N,11629.414623,W,44.3,151.6,220910,,,A*48
$GPRMC,194729.2,A,3246.157747,N,11629.392684,W,44.7,150.5,220910,,,A*4B
$GPRMC,194733.2,A,3246.114201,N,11629.362784,W,44.8,151.4,220910,,,A*41
$GPRMC,194736.9,A,3246.073414,N,11629.337419,W,44.2,154.1,220910,,,A*40
$GPRMC,194739.9,A,3246.040729,N,11629.319343,W,45.1,155.7,220910,,,A*43
$GPRMC,194742.9,A,3246.005609,N,11629.301258,W,45.4,157.6,220910,,,A*49
$GPRMC,194745.2,A,3245.978904,N,11629.288062,W,45.6,157.8,220910,,,A*40
$GPRMC,194748.9,A,3245.935944,N,11629.267867,W,44.8,158.4,220910,,,A*4B
$GPRMC,194751.9,A,3245.899937,N,11629.253714,W,46.3,161.0,220910,,,A*4B
$GPRMC,194754.9,A,3245.863486,N,11629.241215,W,45.9,162.8,220910,,,A*49
$GPRMC,194757.9,A,3245.827240,N,11629.227847,W,46.0,164.3,220910,,,A*4C
$GPRMC,194800.0,A,3245.802455,N,11629.218576,W,46.8,163.0,220910,,,A*42
$GPRMC,194803.2,A,3245.763426,N,11629.203673,W,48.1,165.0,220910,,,A*42
$GPRMC,194806.9,A,3245.719240,N,11629.191345,W,45.7,164.9,220910,,,A*4C
$GPRMC,194809.9,A,3245.683138,N,11629.176698,W,46.1,164.4,220910,,,A*49
$GPRMC,194812.9,A,3245.646813,N,11629.163644,W,45.8,164.6,220910,,,A*47
$GPRMC,194815.9,A,3245.612059,N,11629.153160,W,45.2,165.5,220910,,,A*4D
$GPRMC,194818.9,A,3245.576492,N,11629.140717,W,46.7,163.9,220910,,,A*4A
$GPRMC,194821.9,A,3245.540521,N,11629.124978,W,46.9,163.8,220910,,,A*46
$GPRMC,194824.9,A,3245.505060,N,11629.111250,W,47.3,164.2,220910,,,A*43
$GPRMC,194827.9,A,3245.467364,N,11629.099683,W,47.4,164.6,220910,,,A*4A
$GPRMC,194830.9,A,3245.428638,N,11629.083663,W,48.1,163.6,220910,,,A*43
$GPRMC,194833.2,A,3245.400136,N,11629.073861,W,48.5,163.6,220910,,,A*4F
$GPRMC,194836.2,A,3245.359762,N,11629.059677,W,49.1,163.6,220910,,,A*42
$GPRMC,194839.2,A,3245.321275,N,11629.046680,W,48.3,164.0,220910,,,A*45
$GPRMC,194842.9,A,3245.273483,N,11629.031035,W,47.3,165.1,220910,,,A*4C
$GPRMC,194845.9,A,3245.235906,N,11629.015096,W,47.3,161.9,220910,,,A*4A
$GPRMC,194848.9,A,3245.196300,N,11628.999875,W,47.8,161.9,220910,,,A*43
$GPRMC,194851.9,A,3245.160395,N,11628.987914,W,46.2,163.4,220910,,,A*43
$GPRMC,194854.9,A,3245.124417,N,11628.977639,W,45.0,165.3,220910,,,A*44
$GPRMC,194857.9,A,3245.086571,N,11628.960544,W,47.2,162.4,220910,,,A*40
$GPRMC,194900.9,A,3245.049081,N,11628.950719,W,46.4,164.5,220910,,,A*43
$GPRMC,194903.9,A,3245.011512,N,11628.937035,W,46.1,163.1,220910,,,A*4C
$GPRMC,194906.9,A,3244.976144,N,11628.924848,W,45.4,162.7,220910,,,A*46
$GPRMC,194909.9,A,3244.939594,N,11628.913962,W,46.0,163.5,220910,,,A*42
$GPRMC,194912.9,A,3244.905160,N,11628.903382,W,45.1,163.9,220910,,,A*43
$GPRMC,194915.9,A,3244.866968,N,11628.890358,W,45.7,165.0,220910,,,A*45
$GPRMC,194918.9,A,3244.828792,N,11628.882142,W,46.4,167.1,220910,,,A*40
$GPRMC,194921.9,A,3244.790872,N,11628.870825,W,46.4,167.7,220910,,,A*44
$GPRMC,194924.9,A,3244.752821,N,11628.862283,W,46.3,168.6,220910,,,A*45
$GPRMC,194927.9,A,3244.714265,N,11628.853537,W,45.8,169.9,220910,,,A*42
$GPRMC,194930.9,A,3244.677240,N,11628.848038,W,45.5,171.6,220910,,,A*4C
$GPRMC,194933.9,A,3244.638064,N,11628.844083,W,46.1,173.6,220910,,,A*49
$GPRMC,194937.2,A,3244.594771,N,11628.836879,W,46.5,174.9,220910,,,A*44
$GPRMC,194940.9,A,3244.549185,N,11628.832210,W,44.8,173.4,220910,,,A*46
$GPRMC,194943.2,A,3244.519945,N,11628.829594,W,46.6,176.8,220910,,,A*4B
$GPRMC,194946.2,A,3244.483396,N,11628.827099,W,45.2,178.1,220910,,,A*4E
$GPRMC,194949.2,A,3244.447491,N,11628.826836,W,44.5,180.2,220910,,,A*47
$GPRMC,194952.2,A,3244.411281,N,11628.826423,W,44.0,179.0,220910,,,A*40
$GPRMC,194955.9,A,3244.366117,N,11628.828181,W,43.7,180.5,220910,,,A*47
$GPRMC,194958.9,A,3244.330038,N,11628.827486,W,42.6,179.8,220910,,,A*43
$GPRMC,195002.2,A,3244.290258,N,11628.827810,W,42.9,178.4,220910,,,A*41
$GPRMC,195005.9,A,3244.245226,N,11628.823905,W,44.1,178.0,220910,,,A*47
$GPRMC,195008.9,A,3244.207232,N,11628.821024,W,45.6,178.1,220910,,,A*46
$GPRMC,195011.9,A,3244.169811,N,11628.820505,W,45.5,179.3,220910,,,A*49
$GPRMC,195014.9,A,3244.130814,N,11628.821076,W,46.2,179.6,220910,,,A*44
$GPRMC,195017.9,A,3244.090742,N,11628.820868,W,46.1,178.5,220910,,,A*47
$GPRMC,195020.9,A,3244.051984,N,11628.820515,W,45.7,179.6,220910,,,A*4A
$GPRMC,195023.9,A,3244.014185,N,11628.818495,W,45.6,179.4,220910,,,A*40
$GPRMC,195026.2,A,3243.984453,N,11628.816690,W,46.0,178.7,220910,,,A*49
$GPRMC,195030.2,A,3243.934450,N,11628.813348,W,45.3,177.6,220910,,,A*4D
$GPRMC,195033.2,A,3243.897293,N,11628.810996,W,45.9,176.1,220910,,,A*49
$GPRMC,195036.9,A,3243.851508,N,11628.806984,W,44.6,174.9,220910,,,A*48
$GPRMC,195039.9,A,3243.810951,N,11628.800920,W,46.6,171.2,220910,,,A*46
$GPRMC,195042.9,A,3243.772390,N,11628.792979,W,46.1,168.9,220910,,,A*4A
$GPRMC,195045.9,A,3243.735606,N,11628.783364,W,46.3,166.4,220910,,,A*43
$GPRMC,195048.9,A,3243.697154,N,11628.770504,W,45.0,162.7,220910,,,A*4C
$GPRMC,195051.9,A,3243.664746,N,11628.757010,W,43.5,161.2,220910,,,A*4D
$GPRMC,195054.9,A,3243.629358,N,11628.741517,W,43.9,159.0,220910,,,A*4A
$GPRMC,195057.9,A,3243.595776,N,11628.719821,W,44.2,155.2,220910,,,A*42
$GPRMC,195100.9,A,3243.561894,N,11628.700095,W,44.1,152.0,220910,,,A*40
$GPRMC,195103.9,A,3243.530310,N,11628.681591,W,43.1,153.4,220910,,,A*4B
$GPRMC,195107.2,A,3243.494937,N,11628.661034,W,43.3,153.1,220910,,,A*47
$GPRMC,195110.9,A,3243.455110,N,11628.639209,W,42.5,153.2,220910,,,A*4F
$GPRMC,195113.9,A,3243.423472,N,11628.618900,W,43.6,152.8,220910,,,A*44
$GPRMC,195116.9,A,3243.391012,N,11628.600042,W,42.8,153.2,220910,,,A*4F
$GPRMC,195119.2,A,3243.365011,N,11628.583653,W,45.4,153.1,220910,,,A*45
$GPRMC,195122.9,A,3243.326378,N,11628.562420,W,43.9,151.4,220910,,,A*48
$GPRMC,195125.9,A,3243.293931,N,11628.537872,W,44.8,147.3,220910,,,A*4A
$GPRMC,195128.9,A,3243.264761,N,11628.510513,W,44.2,143.0,220910,,,A*46
$GPRMC,195131.9,A,3243.231995,N,11628.479981,W,47.1,139.3,220910,,,A*4C
$GPRMC,195134.9,A,3243.203748,N,11628.449469,W,46.4,134.7,220910,,,A*43
$GPRMC,195137.9,A,3243.180252,N,11628.414798,W,46.5,129.2,220910,,,A*4B
$GPRMC,195140.9,A,3243.159840,N,11628.378478,W,46.1,125.3,220910,,,A*4F
$GPRMC,195144.2,A,3243.135884,N,11628.336204,W,46.4,121.6,220910,,,A*41
$GPRMC,195147.9,A,3243.113297,N,11628.284072,W,47.1,115.7,220910,,,A*4C
$GPRMC,195150.9,A,3243.100540,N,11628.241567,W,46.6,110.9,220910,,,A*40
$GPRMC,195153.9,A,3243.089492,N,11628.196490,W,47.3,106.6,220910,,,A*41
$GPRMC,195156.9,A,3243.080378,N,11628.151135,W,47.7,102.8,220910,,,A*41
$GPRMC,195159.9,A,3243.074143,N,11628.104530,W,47.9,97.7,220910,,,A*72
$GPRMC,195203.2,A,3243.070795,N,11628.053980,W,48.0,92.7,220910,,,A*7B
$GPRMC,195206.2,A,3243.071743,N,11628.008351,W,45.3,87.9,220910,,,A*78
$GPRMC,195209.2,A,3243.074032,N,11627.963706,W,44.9,86.1,220910,,,A*7C
$GPRMC,195212.2,A,3243.076989,N,11627.920226,W,44.6,85.8,220910,,,A*78
$GPRMC,195215.2,A,3243.079417,N,11627.876870,W,44.6,86.2,220910,,,A*78
$GPRMC,195218.9,A,3243.082750,N,11627.823670,W,43.7,86.1,220910,,,A*71
$GPRMC,195221.2,A,3243.084516,N,11627.790386,W,44.6,85.6,220910,,,A*7F
$GPRMC,195224.9,A,3243.088344,N,11627.735075,W,45.3,85.3,220910,,,A*7D
$GPRMC,195227.2,A,3243.090165,N,11627.701204,W,45.4,85.6,220910,,,A*7C
$GPRMC,195230.2,A,3243.094428,N,11627.656992,W,44.9,83.5,220910,,,A*7C
$GPRMC,195233.9,A,3243.100561,N,11627.600282,W,45.5,80.9,220910,,,A*7F
$GPRMC,195236.2,A,3243.106739,N,11627.564704,W,46.4,77.8,220910,,,A*79
$GPRMC,195239.9,A,3243.118458,N,11627.509005,W,46.0,76.2,220910,,,A*74
$GPRMC,195242.9,A,3243.127919,N,11627.465287,W,46.2,73.6,220910,,,A*7C
$GPRMC,195245.9,A,3243.140070,N,11627.421364,W,47.1,69.8,220910,,,A*77
$GPRMC,195248.9,A,3243.153395,N,11627.379972,W,45.9,68.0,220910,,,A*74
$GPRMC,195251.0,A,3243.164613,N,11627.350173,W,47.6,65.9,220910,,,A*71
$GPRMC,195254.9,A,3243.187182,N,11627.295284,W,47.4,62.4,220910,,,A*74
$GPRMC,195257.9,A,3243.207297,N,11627.256129,W,46.4,58.8,220910,,,A*74
$GPRMC,195300.9,A,3243.227892,N,11627.216766,W,47.0,57.0,220910,,,A*71
$GPRMC,195303.9,A,3243.251740,N,11627.177722,W,48.1,55.2,220910,,,A*79
$GPRMC,195306.2,A,3243.269006,N,11627.147351,W,47.6,56.3,220910,,,A*70
$GPRMC,195309.9,A,3243.297378,N,11627.097317,W,48.7,56.0,220910,,,A*7C
$GPRMC,195312.9,A,3243.317733,N,11627.058428,W,47.1,57.4,220910,,,A*70
$GPRMC,195315.2,A,3243.335082,N,11627.028881,W,47.4,57.2,220910,,,A*7A
$GPRMC,195318.9,A,3243.360700,N,11626.982586,W,45.6,59.2,220910,,,A*7D
$GPRMC,195321.9,A,3243.378305,N,11626.941404,W,46.4,61.7,220910,,,A*74
$GPRMC,195324.9,A,3243.396912,N,11626.898036,W,47.3,63.8,220910,,,A*76
$GPRMC,195327.9,A,3243.412454,N,11626.856326,W,46.9,66.6,220910,,,A*71
$GPRMC,195331.2,A,3243.427579,N,11626.809009,W,46.2,69.8,220910,,,A*7B
$GPRMC,195334.9,A,3243.442527,N,11626.756336,W,46.7,71.9,220910,,,A*7A
$GPRMC,195337.9,A,3243.455965,N,11626.710792,W,47.0,72.8,220910,,,A*79
$GPRMC,195340.9,A,3243.464915,N,11626.666257,W,46.7,77.1,220910,,,A*7A
$GPRMC,195343.9,A,3243.470287,N,11626.617298,W,47.4,79.3,220910,,,A*77
$GPRMC,195346.2,A,3243.475690,N,11626.582954,W,46.9,81.1,220910,,,A*73
$GPRMC,195349.2,A,3243.480753,N,11626.538296,W,47.4,82.8,220910,,,A*7A
$GPRMC,195353.2,A,3243.487188,N,11626.478373,W,46.4,84.1,220910,,,A*77
$GPRMC,195356.2,A,3243.491746,N,11626.433353,W,46.0,83.8,220910,,,A*76
$GPRMC,195359.9,A,3243.495826,N,11626.377122,W,46.5,83.6,220910,,,A*77
$GPRMC,195402.9,A,3243.501001,N,11626.332564,W,45.6,84.0,220910,,,A*79
$GPRMC,195405.2,A,3243.504333,N,11626.297724,W,46.0,83.4,220910,,,A*7C
$GPRMC,195408.9,A,3243.511478,N,11626.242079,W,46.3,82.4,220910,,,A*73
$GPRMC,195412.2,A,3243.515955,N,11626.192785,W,46.3,83.6,220910,,,A*7C
$GPRMC,195415.0,A,3243.520187,N,11626.152078,W,46.0,83.4,220910,,,A*70
$GPRMC,195418.9,A,3243.524084,N,11626.093798,W,45.5,83.9,220910,,,A*7C
$GPRMC,195421.9,A,3243.528952,N,11626.047874,W,47.3,82.5,220910,,,A*75
$GPRMC,195425.2,A,3243.533140,N,11625.997657,W,47.3,83.1,220910,,,A*76
$GPRMC,195428.2,A,3243.537330,N,11625.952975,W,46.5,83.7,220910,,,A*7D
$GPRMC,195431.2,A,3243.541486,N,11625.908984,W,46.4,84.0,220910,,,A*7E
$GPRMC,195435.2,A,3243.547173,N,11625.846461,W,47.8,84.1,220910,,,A*72
$GPRMC,195438.9,A,3243.551204,N,11625.789535,W,47.0,83.7,220910,,,A*75
$GPRMC,195441.2,A,3243.555101,N,11625.754777,W,46.6,83.6,220910,,,A*70
$GPRMC,195444.2,A,3243.558170,N,11625.709774,W,46.2,84.2,220910,,,A*72
$GPRMC,195447.0,A,3243.562754,N,11625.670376,W,46.0,83.7,220910,,,A*73
$GPRMC,195451.2,A,3243.568953,N,11625.606883,W,45.9,83.1,220910,,,A*79
$GPRMC,195454.9,A,3243.574996,N,11625.550730,W,46.2,83.6,220910,,,A*7B
$GPRMC,195457.2,A,3243.578060,N,11625.517154,W,45.3,83.8,220910,,,A*74
$GPRMC,195500.9,A,3243.582713,N,11625.463202,W,44.6,83.6,220910,,,A*72
$GPRMC,195503.2,A,3243.586506,N,11625.429536,W,44.8,84.3,220910,,,A*7A
$GPRMC,195506.0,A,3243.590484,N,11625.388994,W,45.0,84.7,220910,,,A*74
$GPRMC,195509.0,A,3243.594933,N,11625.344860,W,45.4,84.3,220910,,,A*74
$GPRMC,195512.9,A,3243.599495,N,11625.286927,W,44.7,86.0,220910,,,A*75
$GPRMC,195516.2,A,3243.599910,N,11625.238867,W,45.7,87.4,220910,,,A*7E
$GPRMC,195520.2,A,3243.599785,N,11625.174931,W,46.1,91.0,220910,,,A*76
$GPRMC,195523.9,A,3243.593807,N,11625.125493,W,44.5,94.0,220910,,,A*73
$GPRMC,195526.9,A,3243.591564,N,11625.080373,W,45.4,92.8,220910,,,A*75
$GPRMC,195529.0,A,3243.590391,N,11625.049901,W,45.7,94.0,220910,,,A*79
$GPRMC,195532.2,A,3243.586801,N,11625.001724,W,45.0,95.8,220910,,,A*7F
$GPRMC,195536.2,A,3243.581789,N,11624.942009,W,44.9,95.9,220910,,,A*7D
$GPRMC,195539.0,A,3243.576784,N,11624.900927,W,45.2,98.8,220910,,,A*70
$GPRMC,195542.2,A,3243.569471,N,11624.854535,W,43.6,100.7,220910,,,A*4B
$GPRMC,195545.9,A,3243.561215,N,11624.801452,W,44.3,101.8,220910,,,A*47
$GPRMC,195548.2,A,3243.553866,N,11624.769499,W,44.3,104.5,220910,,,A*40
$GPRMC,195551.0,A,3243.545079,N,11624.730939,W,44.5,104.7,220910,,,A*44
$GPRMC,195554.9,A,3243.530916,N,11624.674094,W,43.5,105.7,220910,,,A*43
$GPRMC,195557.2,A,3243.522462,N,11624.642879,W,43.8,106.4,220910,,,A*45
$GPRMC,195600.2,A,3243.510513,N,11624.603478,W,41.5,109.3,220910,,,A*4D
$GPRMC,195603.2,A,3243.500306,N,11624.567383,W,38.0,109.8,220910,,,A*4F
$GPRMC,195606.0,A,3243.490897,N,11624.536649,W,35.7,109.7,220910,,,A*41
$GPRMC,195609.9,A,3243.478321,N,11624.494892,W,34.2,110.8,220910,,,A*45
$GPRMC,195612.9,A,3243.468890,N,11624.463720,W,32.7,109.8,220910,,,A*4A
$GPRMC,195615.9,A,3243.458459,N,11624.430632,W,34.2,110.8,220910,,,A*48
$GPRMC,195618.9,A,3243.445696,N,11624.400728,W,33.9,112.9,220910,,,A*4E
$GPRMC,195621.9,A,3243.441319,N,11624.372901,W,31.6,109.5,220910,,,A*4E
$GPRMC,195624.9,A,3243.430694,N,11624.345489,W,32.4,112.4,220910,,,A*4E
$GPRMC,195628.2,A,3243.420844,N,11624.310682,W,32.6,109.6,220910,,,A*48
$GPRMC,195631.9,A,3243.407404,N,11624.277166,W,31.7,112.7,220910,,,A*42
$GPRMC,195634.9,A,3243.396695,N,11624.247679,W,32.8,111.6,220910,,,A*46
$GPRMC,195637.9,A,3243.387381,N,11624.215404,W,33.6,109.1,220910,,,A*4B
$GPRMC,195640.2,A,3243.380932,N,11624.190733,W,33.8,109.4,220910,,,A*47
$GPRMC,195643.9,A,3243.368923,N,11624.153691,W,32.7,111.4,220910,,,A*48
$GPRMC,195646.9,A,3243.358765,N,11624.122973,W,33.2,110.3,220910,,,A*45
$GPRMC,195649.9,A,3243.348102,N,11624.091370,W,33.8,110.8,220910,,,A*4D
$GPRMC,195652.9,A,3243.339637,N,11624.062288,W,32.9,110.0,220910,,,A*42
$GPRMC,195655.9,A,3243.331155,N,11624.032455,W,33.1,110.8,220910,,,A*4C
$GPRMC,195659.2,A,3243.319538,N,11623.998230,W,34.8,111.5,220910,,,A*47
$GPRMC,195702.9,A,3243.305805,N,11623.955283,W,36.1,111.6,220910,,,A*4C
$GPRMC,195705.2,A,3243.297446,N,11623.930429,W,35.0,111.1,220910,,,A*41
$GPRMC,195708.2,A,3243.285793,N,11623.898799,W,35.2,111.6,220910,,,A*4A
$GPRMC,195711.0,A,3243.276226,N,11623.869778,W,35.6,111.6,220910,,,A*42
$GPRMC,195714.9,A,3243.262782,N,11623.827198,W,35.6,110.3,220910,,,A*46
$GPRMC,195717.9,A,3243.252962,N,11623.793711,W,35.7,111.1,220910,,,A*43
$GPRMC,195720.2,A,3243.244980,N,11623.768067,W,36.4,111.8,220910,,,A*4C
$GPRMC,195723.0,A,3243.235378,N,11623.735847,W,36.9,109.9,220910,,,A*41
$GPRMC,195726.9,A,3243.220706,N,11623.693558,W,35.5,111.0,220910,,,A*45
$GPRMC,195729.9,A,3243.209718,N,11623.661567,W,36.2,110.5,220910,,,A*4F
$GPRMC,195732.9,A,3243.200360,N,11623.627283,W,35.6,110.7,220910,,,A*4D
$GPRMC,195735.9,A,3243.189625,N,11623.596283,W,34.5,110.9,220910,,,A*49
$GPRMC,195738.9,A,3243.176769,N,11623.562793,W,35.9,112.7,220910,,,A*43
$GPRMC,195741.9,A,3243.168388,N,11623.530447,W,36.2,110.1,220910,,,A*48
$GPRMC,195744.9,A,3243.158758,N,11623.495411,W,36.6,111.5,220910,,,A*4B
$GPRMC,195747.9,A,3243.146489,N,11623.467584,W,34.0,115.1,220910,,,A*4C
$GPRMC,195750.2,A,3243.134638,N,11623.447697,W,34.3,121.7,220910,,,A*4D
$GPRMC,195753.9,A,3243.119218,N,11623.417861,W,27.9,119.3,220910,,,A*49
$GPRMC,195756.9,A,3243.110397,N,11623.396752,W,24.2,120.0,220910,,,A*43
$GPRMC,195759.2,A,3243.101975,N,11623.381821,W,24.4,124.3,220910,,,A*4D
$GPRMC,195802.2,A,3243.088656,N,11623.362294,W,23.8,125.6,220910,,,A*44
$GPRMC,195805.2,A,3243.075664,N,11623.345516,W,24.2,127.0,220910,,,A*41
$GPRMC,195808.2,A,3243.061436,N,11623.325850,W,24.3,128.1,220910,,,A*4A
$GPRMC,195811.2,A,3243.048355,N,11623.306996,W,24.4,129.7,220910,,,A*41
$GPRMC,195814.2,A,3243.034853,N,11623.287708,W,24.8,130.7,220910,,,A*47
$GPRMC,195817.2,A,3243.020562,N,11623.267081,W,25.5,131.3,220910,,,A*4F
$GPRMC,195820.2,A,3243.005793,N,11623.248127,W,25.3,132.9,220910,,,A*4F
$GPRMC,195823.2,A,3242.990988,N,11623.230074,W,25.5,134.8,220910,,,A*45
$GPRMC,195826.2,A,3242.976963,N,11623.212034,W,25.4,134.0,220910,,,A*40
$GPRMC,195829.2,A,3242.965037,N,11623.194865,W,24.3,133.3,220910,,,A*46
$GPRMC,195832.9,A,3242.946203,N,11623.173866,W,24.4,135.1,220910,,,A*4A
$GPRMC,195835.9,A,3242.930995,N,11623.157331,W,24.8,135.6,220910,,,A*4C
$GPRMC,195838.9,A,3242.918232,N,11623.142288,W,23.9,136.3,220910,,,A*4A
$GPRMC,195841.9,A,3242.902767,N,11623.123360,W,25.8,135.0,220910,,,A*4D
$GPRMC,195844.9,A,3242.888681,N,11623.106313,W,25.9,133.7,220910,,,A*41
$GPRMC,195847.9,A,3242.872022,N,11623.085787,W,27.0,133.7,220910,,,A*40
$GPRMC,195850.9,A,3242.858303,N,11623.069628,W,25.7,134.5,220910,,,A*48
$GPRMC,195853.9,A,3242.844535,N,11623.052893,W,25.1,133.9,220910,,,A*4E
$GPRMC,195856.0,A,3242.834456,N,11623.041008,W,25.1,135.2,220910,,,A*44
$GPRMC,195859.9,A,3242.813778,N,11623.016921,W,25.3,133.0,220910,,,A*4E
$GPRMC,195902.2,A,3242.802471,N,11623.003600,W,25.4,134.6,220910,,,A*4E
$GPRMC,195905.9,A,3242.784547,N,11622.980809,W,25.6,133.4,220910,,,A*44
$GPRMC,195908.9,A,3242.767491,N,11622.962899,W,25.6,133.3,220910,,,A*4C
$GPRMC,195911.9,A,3242.753553,N,11622.943001,W,25.7,131.9,220910,,,A*4F
$GPRMC,195914.9,A,3242.740154,N,11622.923803,W,26.0,131.1,220910,,,A*4B
$GPRMC,195917.9,A,3242.725659,N,11622.905413,W,26.0,130.2,220910,,,A*4A
$GPRMC,195920.9,A,3242.712309,N,11622.884793,W,25.5,127.4,220910,,,A*4F
$GPRMC,195923.9,A,3242.699906,N,11622.867466,W,24.8,127.4,220910,,,A*43
$GPRMC,195926.9,A,3242.687644,N,11622.846049,W,25.3,125.0,220910,,,A*46
$GPRMC,195929.9,A,3242.674009,N,11622.828215,W,25.4,126.7,220910,,,A*4A
$GPRMC,195932.9,A,3242.661984,N,11622.805955,W,26.5,123.5,220910,,,A*4D
$GPRMC,195935.9,A,3242.647176,N,11622.785341,W,27.1,127.3,220910,,,A*44
$GPRMC,195938.2,A,3242.637844,N,11622.770020,W,26.2,123.7,220910,,,A*41
$GPRMC,195941.2,A,3242.627050,N,11622.748478,W,25.6,121.8,220910,,,A*4B
$GPRMC,195944.2,A,3242.613125,N,11622.726794,W,26.9,120.9,220910,,,A*4F
$GPRMC,195947.9,A,3242.599736,N,11622.696868,W,27.4,116.8,220910,,,A*4C
$GPRMC,195950.9,A,3242.588380,N,11622.669284,W,29.3,118.0,220910,,,A*44
$GPRMC,195953.9,A,3242.577222,N,11622.642847,W,29.1,117.6,220910,,,A*49
$GPRMC,195956.9,A,3242.562805,N,11622.616257,W,30.5,117.9,220910,,,A*4E
$GPRMC,200000.2,A,3242.548578,N,11622.586218,W,32.3,117.6,220910,,,A*45
$GPRMC,200003.9,A,3242.536810,N,11622.557852,W,29.6,114.3,220910,,,A*46
$GPRMC,200006.2,A,3242.528505,N,11622.535206,W,32.4,113.2,220910,,,A*4F
$GPRMC,200009.9,A,3242.516766,N,11622.496088,W,34.9,111.4,220910,,,A*42
$GPRMC,200013.2,A,3242.506939,N,11622.456129,W,37.5,107.9,220910,,,A*44
$GPRMC,200016.2,A,3242.496795,N,11622.421508,W,39.1,106.9,220910,,,A*4D
$GPRMC,200019.0,A,3242.488429,N,11622.387506,W,40.0,106.3,220910,,,A*4B
$GPRMC,200022.0,A,3242.479468,N,11622.349260,W,40.4,105.9,220910,,,A*40
$GPRMC,200025.2,A,3242.467747,N,11622.305013,W,43.3,106.6,220910,,,A*42
$GPRMC,200028.0,A,3242.458207,N,11622.266066,W,43.6,106.1,220910,,,A*44
$GPRMC,200031.9,A,3242.445404,N,11622.209997,W,45.0,106.5,220910,,,A*46
$GPRMC,200034.9,A,3242.433216,N,11622.165052,W,46.0,106.7,220910,,,A*4F
$GPRMC,200037.9,A,3242.420657,N,11622.120103,W,46.2,106.9,220910,,,A*47
$GPRMC,200040.9,A,3242.412023,N,11622.079209,W,45.2,105.5,220910,,,A*4B
$GPRMC,200043.9,A,3242.400628,N,11622.039068,W,45.1,107.8,220910,,,A*4B
$GPRMC,200046.9,A,3242.389428,N,11621.993616,W,46.6,105.8,220910,,,A*49
$GPRMC,200049.9,A,3242.380133,N,11621.948730,W,46.6,105.7,220910,,,A*4C
$GPRMC,200052.9,A,3242.369243,N,11621.907544,W,45.3,106.8,220910,,,A*45
$GPRMC,200055.2,A,3242.360185,N,11621.873222,W,47.2,107.2,220910,,,A*44
$GPRMC,200058.2,A,3242.347703,N,11621.826702,W,46.9,106.3,220910,,,A*49
$GPRMC,200101.2,A,3242.337191,N,11621.783436,W,46.4,106.1,220910,,,A*45
$GPRMC,200104.2,A,3242.326558,N,11621.738729,W,46.1,105.3,220910,,,A*48
$GPRMC,200107.2,A,3242.316082,N,11621.694869,W,45.6,103.4,220910,,,A*43
$GPRMC,200110.2,A,3242.307543,N,11621.649820,W,45.4,101.9,220910,,,A*4D
$GPRMC,200113.2,A,3242.300544,N,11621.605440,W,45.0,99.9,220910,,,A*78
$GPRMC,200116.2,A,3242.294420,N,11621.561341,W,45.3,99.2,220910,,,A*7D
$GPRMC,200119.2,A,3242.288705,N,11621.517088,W,44.9,99.0,220910,,,A*75
