NMEA Sentence Code,UTC Time,Status,Latitude,Latitude Direction,Longitude,Longitude Direction,Speed (knots),Track Angle (degrees true),Date,MagneticVariation,Magnetic Variation Direction,[FAA Mode]-Optional,Checksum
$GPRMC,183924.6,A,3336.182452,N,11751.672753,W,29.1,51.6,130410,,,A*7C
$GPRMC,183927.6,A,3336.203335,N,11751.649955,W,34.4,41.2,130410,,,A*7F
$GPRMC,183930.6,A,3336.229893,N,11751.628768,W,38.5,32.8,130410,,,A*72
$GPRMC,183933.6,A,3336.263837,N,11751.613667,W,41.4,19.1,130410,,,A*78
$GPRMC,183936.6,A,3336.301637,N,11751.606855,W,43.8,11.0,130410,,,A*7A
$GPRMC,183939.6,A,3336.337132,N,11751.599072,W,42.6,11.7,130410,,,A*72
$GPRMC,183942.6,A,3336.372782,N,11751.590662,W,41.9,11.5,130410,,,A*72
$GPRMC,183945.6,A,3336.404292,N,11751.584226,W,36.2,9.1,130410,,,A*40
$GPRMC,183948.6,A,3336.429163,N,11751.577820,W,28.3,14.2,130410,,,A*7E
$GPRMC,183951.6,A,3336.445420,N,11751.576809,W,20.8,4.4,130410,,,A*40
$GPRMC,183954.6,A,3336.452666,N,11751.577269,W,14.0,359.0,130410,,,A*4E
$GPRMC,183957.6,A,3336.450632,N,11751.579309,W,4.6,335.6,130410,,,A*7C
$GPRMC,184003.6,A,3336.442207,N,11751.568678,W,10.9,78.8,130410,,,A*7F
$GPRMC,184006.6,A,3336.441954,N,11751.549684,W,22.2,88.6,130410,,,A*7F
$GPRMC,184009.6,A,3336.439009,N,11751.516477,W,34.8,91.7,130410,,,A*7E
$GPRMC,184012.6,A,3336.437790,N,11751.476245,W,41.3,90.4,130410,,,A*76
$GPRMC,184015.6,A,3336.437286,N,11751.429519,W,46.1,90.4,130410,,,A*72
$GPRMC,184018.6,A,3336.435654,N,11751.380153,W,48.8,90.4,130410,,,A*7F
$GPRMC,184021.6,A,3336.435321,N,11751.328235,W,51.2,89.8,130410,,,A*75
$GPRMC,184024.6,A,3336.435059,N,11751.276774,W,50.6,90.1,130410,,,A*72
$GPRMC,184027.6,A,3336.434013,N,11751.226409,W,50.3,89.7,130410,,,A*79
$GPRMC,184030.6,A,3336.434488,N,11751.177822,W,48.3,89.7,130410,,,A*72
$GPRMC,184033.6,A,3336.435388,N,11751.133623,W,43.1,89.2,130410,,,A*74
$GPRMC,184036.6,A,3336.435550,N,11751.096666,W,33.2,87.7,130410,,,A*72
$GPRMC,184039.6,A,3336.438477,N,11751.072014,W,23.3,83.6,130410,,,A*78
$GPRMC,184042.6,A,3336.441519,N,11751.058957,W,11.8,73.1,130410,,,A*77
$GPRMC,184045.6,A,3336.441303,N,11751.054685,W,4.4,72.7,130410,,,A*4E
$GPRMC,184048.6,A,3336.441803,N,11751.045760,W,9.7,91.4,130410,,,A*42
$GPRMC,184051.6,A,3336.444327,N,11751.025284,W,21.0,85.7,130410,,,A*70
$GPRMC,184054.6,A,3336.448851,N,11750.994407,W,31.2,83.6,130410,,,A*78
$GPRMC,184057.6,A,3336.450924,N,11750.959710,W,35.5,87.3,130410,,,A*77
$GPRMC,184100.6,A,3336.450906,N,11750.921133,W,39.2,90.7,130410,,,A*75
$GPRMC,184103.6,A,3336.447497,N,11750.877944,W,42.0,97.3,130410,,,A*72
$GPRMC,184106.6,A,3336.441283,N,11750.837428,W,42.6,102.2,130410,,,A*4B
$GPRMC,184109.6,A,3336.429574,N,11750.793832,W,46.0,104.7,130410,,,A*42
$GPRMC,184112.6,A,3336.419265,N,11750.748171,W,47.4,104.7,130410,,,A*41
$GPRMC,184115.6,A,3336.409172,N,11750.703029,W,47.4,104.9,130410,,,A*4F
$GPRMC,184118.6,A,3336.398626,N,11750.656690,W,48.8,104.6,130410,,,A*42
$GPRMC,184121.6,A,3336.387843,N,11750.609488,W,49.5,104.8,130410,,,A*48
$GPRMC,184124.6,A,3336.378909,N,11750.560695,W,49.3,100.5,130410,,,A*4F
$GPRMC,184127.6,A,3336.373439,N,11750.510562,W,51.5,94.9,130410,,,A*7A
$GPRMC,184130.6,A,3336.372281,N,11750.458075,W,52.4,91.2,130410,,,A*7A
$GPRMC,184133.6,A,3336.373136,N,11750.407804,W,51.1,90.2,130410,,,A*74
$GPRMC,184136.6,A,3336.372880,N,11750.360473,W,46.7,88.1,130410,,,A*74
$GPRMC,184139.6,A,3336.373838,N,11750.315945,W,42.9,85.6,130410,,,A*73
$GPRMC,184142.6,A,3336.377075,N,11750.277212,W,37.7,79.9,130410,,,A*76
$GPRMC,184145.6,A,3336.383582,N,11750.245083,W,30.5,74.0,130410,,,A*7D
$GPRMC,184148.6,A,3336.389519,N,11750.217886,W,28.3,72.6,130410,,,A*7D
$GPRMC,184151.6,A,3336.397806,N,11750.186784,W,33.7,69.7,130410,,,A*7A
$GPRMC,184154.6,A,3336.409142,N,11750.150258,W,39.2,68.0,130410,,,A*70
$GPRMC,184157.6,A,3336.424600,N,11750.112051,W,43.3,65.3,130410,,,A*72
$GPRMC,184200.6,A,3336.442165,N,11750.072493,W,45.4,62.5,130410,,,A*7A
$GPRMC,184203.6,A,3336.463795,N,11750.036203,W,46.5,59.4,130410,,,A*77
$GPRMC,184206.6,A,3336.485229,N,11749.994037,W,49.4,61.9,130410,,,A*7C
$GPRMC,184209.6,A,3336.503034,N,11749.947331,W,50.7,67.9,130410,,,A*74
$GPRMC,184212.6,A,3336.514978,N,11749.898930,W,49.7,73.7,130410,,,A*72
$GPRMC,184215.6,A,3336.522487,N,11749.849812,W,50.7,79.7,130410,,,A*72
$GPRMC,184218.6,A,3336.527235,N,11749.802188,W,48.2,84.4,130410,,,A*7D
$GPRMC,184221.6,A,3336.526526,N,11749.754965,W,45.7,89.5,130410,,,A*70
$GPRMC,184224.6,A,3336.521273,N,11749.709131,W,43.4,94.5,130410,,,A*7D
$GPRMC,184227.6,A,3336.520502,N,11749.668633,W,41.0,94.1,130410,,,A*7F
$GPRMC,184230.6,A,3336.517934,N,11749.631250,W,36.0,95.7,130410,,,A*7E
$GPRMC,184233.6,A,3336.514300,N,11749.601253,W,26.6,95.2,130410,,,A*71
$GPRMC,184236.6,A,3336.512921,N,11749.582038,W,16.0,95.4,130410,,,A*7F
$GPRMC,184239.6,A,3336.511248,N,11749.573474,W,6.6,98.7,130410,,,A*4C
$GPRMC,184312.6,A,3336.510841,N,11749.569747,W,4.7,93.8,130410,,,A*49
$GPRMC,184315.6,A,3336.511465,N,11749.556787,W,15.5,79.0,130410,,,A*7B
$GPRMC,184318.6,A,3336.524270,N,11749.541630,W,21.6,47.4,130410,,,A*74
$GPRMC,184321.6,A,3336.542749,N,11749.531376,W,23.7,28.5,130410,,,A*7A
$GPRMC,184324.6,A,3336.576168,N,11749.530346,W,34.1,8.0,130410,,,A*48
$GPRMC,184327.6,A,3336.619011,N,11749.531317,W,43.2,359.2,130410,,,A*4D
$GPRMC,184330.6,A,3336.658945,N,11749.534071,W,45.7,357.4,130410,,,A*4B
$GPRMC,184333.6,A,3336.699395,N,11749.535760,W,47.9,358.0,130410,,,A*43
$GPRMC,184336.6,A,3336.741751,N,11749.538398,W,51.4,356.8,130410,,,A*4C
$GPRMC,184339.6,A,3336.785792,N,11749.540403,W,52.6,357.3,130410,,,A*45
$GPRMC,184342.6,A,3336.832318,N,11749.543856,W,54.2,356.7,130410,,,A*44
$GPRMC,184345.6,A,3336.879682,N,11749.547766,W,55.8,356.7,130410,,,A*49
$GPRMC,184348.6,A,3336.926337,N,11749.549245,W,56.1,357.3,130410,,,A*41
$GPRMC,184351.6,A,3336.973622,N,11749.552176,W,55.8,357.1,130410,,,A*49
$GPRMC,184354.6,A,3337.020520,N,11749.554831,W,55.6,357.4,130410,,,A*44
$GPRMC,184357.6,A,3337.068021,N,11749.557154,W,55.9,357.5,130410,,,A*48
$GPRMC,184445.6,A,3337.059315,N,11749.205083,W,58.6,153.6,130410,,,A*46
$GPRMC,184448.6,A,3337.012695,N,11749.182406,W,60.5,158.2,130410,,,A*4B
$GPRMC,184451.6,A,3336.963908,N,11749.159784,W,62.1,158.4,130410,,,A*49
$GPRMC,184454.6,A,3336.915408,N,11749.136935,W,62.6,158.3,130410,,,A*4D
$GPRMC,184457.6,A,3336.868077,N,11749.113558,W,62.5,156.0,130410,,,A*47
$GPRMC,184500.6,A,3336.820011,N,11749.083975,W,63.6,150.7,130410,,,A*40
$GPRMC,184503.6,A,3336.775977,N,11749.049057,W,63.1,144.9,130410,,,A*46
$GPRMC,184506.6,A,3336.734560,N,11749.008376,W,64.4,139.1,130410,,,A*49
$GPRMC,184509.6,A,3336.697255,N,11748.960343,W,64.5,131.9,130410,,,A*4E
$GPRMC,184512.6,A,3336.663136,N,11748.909678,W,65.2,126.8,130410,,,A*4A
$GPRMC,184515.6,A,3336.632116,N,11748.854388,W,65.6,120.6,130410,,,A*44
$GPRMC,184518.6,A,3336.606178,N,11748.795765,W,66.9,115.3,130410,,,A*4C
$GPRMC,184521.6,A,3336.586329,N,11748.733613,W,67.9,109.5,130410,,,A*4D
$GPRMC,184524.6,A,3336.572747,N,11748.667616,W,67.4,103.5,130410,,,A*4D
$GPRMC,184527.6,A,3336.563443,N,11748.600668,W,68.4,100.6,130410,,,A*4E
$GPRMC,184530.6,A,3336.554461,N,11748.532875,W,68.2,100.2,130410,,,A*4E
$GPRMC,184533.6,A,3336.547685,N,11748.465873,W,68.4,99.4,130410,,,A*73
$GPRMC,184536.6,A,3336.540494,N,11748.400811,W,67.7,100.3,130410,,,A*4E
$GPRMC,184539.6,A,3336.527923,N,11748.334244,W,68.2,104.9,130410,,,A*4F
$GPRMC,184542.6,A,3336.509214,N,11748.272038,W,66.3,112.0,130410,,,A*4B
$GPRMC,184545.6,A,3336.486850,N,11748.211784,W,67.4,115.3,130410,,,A*47
$GPRMC,184548.6,A,3336.462826,N,11748.152307,W,67.1,115.0,130410,,,A*4C
$GPRMC,184551.6,A,3336.437285,N,11748.091111,W,66.7,115.6,130410,,,A*4D
$GPRMC,184554.6,A,3336.414700,N,11748.032050,W,65.3,114.9,130410,,,A*45
$GPRMC,184557.6,A,3336.391669,N,11747.973309,W,65.4,114.6,130410,,,A*46
$GPRMC,184600.6,A,3336.368051,N,11747.914837,W,65.2,114.3,130410,,,A*48
$GPRMC,184603.6,A,3336.345829,N,11747.855440,W,65.3,115.1,130410,,,A*49
$GPRMC,184606.6,A,3336.322385,N,11747.796976,W,64.6,114.4,130410,,,A*48
$GPRMC,184609.6,A,3336.300053,N,11747.739504,W,63.3,114.6,130410,,,A*43
$GPRMC,184612.6,A,3336.277244,N,11747.682893,W,63.1,115.9,130410,,,A*42
$GPRMC,184615.6,A,3336.254629,N,11747.626579,W,61.4,116.0,130410,,,A*41
$GPRMC,184618.6,A,3336.233449,N,11747.571989,W,61.1,116.2,130410,,,A*4C
$GPRMC,184621.6,A,3336.211579,N,11747.517683,W,61.1,115.9,130410,,,A*49
$GPRMC,184624.6,A,3336.187738,N,11747.461417,W,62.2,115.8,130410,,,A*49
$GPRMC,184627.6,A,3336.166797,N,11747.403435,W,63.8,112.5,130410,,,A*45
$GPRMC,184630.6,A,3336.150488,N,11747.341646,W,65.9,106.4,130410,,,A*4F
$GPRMC,184633.6,A,3336.141114,N,11747.275913,W,67.9,100.1,130410,,,A*44
$GPRMC,184636.6,A,3336.132518,N,11747.209499,W,67.9,98.2,130410,,,A*7A
$GPRMC,184639.6,A,3336.126342,N,11747.141273,W,68.7,97.8,130410,,,A*70
$GPRMC,184642.6,A,3336.118463,N,11747.073379,W,68.7,100.4,130410,,,A*4D
$GPRMC,184645.6,A,3336.103661,N,11747.006465,W,68.7,104.7,130410,,,A*4F
$GPRMC,184648.6,A,3336.085615,N,11746.942171,W,68.1,109.6,130410,,,A*4C
$GPRMC,184651.6,A,3336.063783,N,11746.880410,W,67.6,113.6,130410,,,A*4C
$GPRMC,184654.6,A,3336.036990,N,11746.820619,W,67.6,118.7,130410,,,A*4E
$GPRMC,184657.6,A,3336.007690,N,11746.763667,W,67.3,121.2,130410,,,A*4B
$GPRMC,184700.6,A,3335.980283,N,11746.707233,W,67.0,120.1,130410,,,A*4D
$GPRMC,184703.6,A,3335.955306,N,11746.646949,W,67.8,115.3,130410,,,A*44
$GPRMC,184706.6,A,3335.936174,N,11746.585797,W,66.6,110.1,130410,,,A*4A
$GPRMC,184709.6,A,3335.924269,N,11746.522915,W,65.4,103.5,130410,,,A*47
$GPRMC,184712.6,A,3335.915923,N,11746.457795,W,66.6,98.8,130410,,,A*70
$GPRMC,184715.6,A,3335.909727,N,11746.391326,W,67.0,97.0,130410,,,A*71
$GPRMC,184718.6,A,3335.903087,N,11746.324862,W,66.7,96.7,130410,,,A*7E
$GPRMC,184721.6,A,3335.894675,N,11746.259731,W,66.3,100.3,130410,,,A*4C
$GPRMC,184724.6,A,3335.882839,N,11746.197343,W,66.6,106.4,130410,,,A*4C
$GPRMC,184727.6,A,3335.862530,N,11746.134926,W,66.3,113.0,130410,,,A*40
$GPRMC,184730.6,A,3335.837633,N,11746.076534,W,65.7,119.8,130410,,,A*4B
$GPRMC,184733.6,A,3335.806211,N,11746.021624,W,65.8,126.6,130410,,,A*43
$GPRMC,184736.6,A,3335.769655,N,11745.970966,W,65.3,131.9,130410,,,A*41
$GPRMC,184739.6,A,3335.733964,N,11745.924853,W,61.1,133.1,130410,,,A*46
$GPRMC,184742.6,A,3335.701385,N,11745.883013,W,57.2,132.5,130410,,,A*4D
$GPRMC,184745.6,A,3335.666360,N,11745.843367,W,57.7,131.4,130410,,,A*4A
$GPRMC,184748.6,A,3335.638464,N,11745.801402,W,55.7,131.2,130410,,,A*49
$GPRMC,184751.6,A,3335.606543,N,11745.761006,W,53.9,135.0,130410,,,A*4F
$GPRMC,184754.6,A,3335.574215,N,11745.729034,W,53.0,143.6,130410,,,A*4B
$GPRMC,184757.6,A,3335.540750,N,11745.706311,W,49.1,155.3,130410,,,A*4A
$GPRMC,184800.6,A,3335.505058,N,11745.689540,W,44.6,157.4,130410,,,A*42
$GPRMC,184803.6,A,3335.476069,N,11745.667792,W,42.7,146.1,130410,,,A*49
$GPRMC,184806.6,A,3335.454157,N,11745.641443,W,38.7,136.0,130410,,,A*40
$GPRMC,184809.6,A,3335.448933,N,11745.611313,W,29.5,119.7,130410,,,A*47
$GPRMC,184812.6,A,3335.448422,N,11745.582665,W,25.5,112.6,130410,,,A*4B
$GPRMC,184815.6,A,3335.444019,N,11745.570365,W,18.6,118.0,130410,,,A*45
$GPRMC,184824.6,A,3335.464111,N,11745.580318,W,10.5,67.8,130410,,,A*73
$GPRMC,184827.6,A,3335.470636,N,11745.570607,W,11.8,45.6,130410,,,A*71
$GPRMC,184830.6,A,3335.485848,N,11745.562277,W,15.7,29.3,130410,,,A*7E
$GPRMC,184833.6,A,3335.518526,N,11745.566809,W,25.6,358.0,130410,,,A*4E
$GPRMC,184836.6,A,3335.569827,N,11745.576798,W,41.4,345.8,130410,,,A*43
$GPRMC,184839.6,A,3335.626823,N,11745.594826,W,52.5,343.4,130410,,,A*4F
$GPRMC,184842.6,A,3335.674371,N,11745.612399,W,54.5,342.0,130410,,,A*49
$GPRMC,184845.6,A,3335.719302,N,11745.629603,W,55.8,342.3,130410,,,A*41
$GPRMC,184848.6,A,3335.764540,N,11745.647247,W,56.1,342.0,130410,,,A*43
$GPRMC,184851.6,A,3335.811317,N,11745.664804,W,57.4,341.4,130410,,,A*4D
$GPRMC,184854.6,A,3335.858367,N,11745.683033,W,59.2,341.7,130410,,,A*4C
$GPRMC,184857.6,A,3335.906220,N,11745.702183,W,60.0,341.6,130410,,,A*4C
$GPRMC,184900.6,A,3335.955615,N,11745.721138,W,61.0,341.9,130410,,,A*44
$GPRMC,184903.6,A,3336.007121,N,11745.737081,W,62.9,347.4,130410,,,A*4F
$GPRMC,184906.6,A,3336.060163,N,11745.745033,W,62.1,356.7,130410,,,A*4A
$GPRMC,184909.6,A,3336.112641,N,11745.743213,W,62.0,4.6,130410,,,A*44
$GPRMC,184912.6,A,3336.161167,N,11745.731135,W,61.0,13.6,130410,,,A*7E
$GPRMC,184915.6,A,3336.208285,N,11745.710196,W,61.4,21.4,130410,,,A*77
$GPRMC,184918.6,A,3336.253712,N,11745.682304,W,62.4,27.3,130410,,,A*7E
$GPRMC,184921.6,A,3336.300771,N,11745.655553,W,60.6,23.9,130410,,,A*76
$GPRMC,184924.6,A,3336.348536,N,11745.635939,W,60.6,15.7,130410,,,A*73
$GPRMC,184927.6,A,3336.398290,N,11745.626386,W,60.2,6.2,130410,,,A*49
$GPRMC,184930.6,A,3336.449048,N,11745.626131,W,60.6,357.7,130410,,,A*4B
$GPRMC,184933.6,A,3336.499672,N,11745.635315,W,60.8,349.5,130410,,,A*4F
$GPRMC,184936.6,A,3336.550530,N,11745.649366,W,62.2,347.2,130410,,,A*45
$GPRMC,184939.6,A,3336.601894,N,11745.663036,W,62.5,349.4,130410,,,A*4F
$GPRMC,184942.6,A,3336.653584,N,11745.669322,W,61.8,356.0,130410,,,A*40
$GPRMC,184945.6,A,3336.704068,N,11745.669580,W,59.9,1.7,130410,,,A*41
$GPRMC,184948.6,A,3336.752942,N,11745.663678,W,58.5,6.9,130410,,,A*44
$GPRMC,184951.6,A,3336.799440,N,11745.653026,W,55.1,13.4,130410,,,A*7A
$GPRMC,184954.6,A,3336.841785,N,11745.635550,W,54.0,19.5,130410,,,A*70
$GPRMC,184957.6,A,3336.883318,N,11745.613974,W,54.2,25.3,130410,,,A*78
$GPRMC,185000.6,A,3336.923455,N,11745.586055,W,55.7,31.6,130410,,,A*76
$GPRMC,185003.6,A,3336.963105,N,11745.554114,W,58.1,33.5,130410,,,A*70
$GPRMC,185006.6,A,3337.004953,N,11745.519827,W,60.8,34.3,130410,,,A*74
$GPRMC,185009.6,A,3337.048253,N,11745.484372,W,62.8,33.7,130410,,,A*77
$GPRMC,185012.6,A,3337.091974,N,11745.449401,W,63.1,34.0,130410,,,A*7D
$GPRMC,185015.6,A,3337.134906,N,11745.416213,W,62.9,33.4,130410,,,A*74
$GPRMC,185018.6,A,3337.180603,N,11745.384775,W,62.9,28.0,130410,,,A*7B
$GPRMC,185021.6,A,3337.227828,N,11745.361801,W,61.0,19.8,130410,,,A*7F
$GPRMC,185024.6,A,3337.278166,N,11745.347215,W,61.0,9.9,130410,,,A*48
$GPRMC,185027.6,A,3337.328607,N,11745.342321,W,60.8,3.2,130410,,,A*44
$GPRMC,185030.6,A,3337.378892,N,11745.345986,W,61.2,354.3,130410,,,A*4E
$GPRMC,185033.6,A,3337.428383,N,11745.358756,W,59.9,344.9,130410,,,A*40
$GPRMC,185036.6,A,3337.473642,N,11745.381108,W,58.6,336.3,130410,,,A*4B
$GPRMC,185039.6,A,3337.516592,N,11745.412400,W,60.4,327.2,130410,,,A*40
$GPRMC,185042.6,A,3337.558206,N,11745.447390,W,61.0,325.0,130410,,,A*47
$GPRMC,185045.6,A,3337.599078,N,11745.483496,W,61.5,323.1,130410,,,A*4D
$GPRMC,185048.6,A,3337.639198,N,11745.519130,W,61.1,324.3,130410,,,A*4C
$GPRMC,185051.6,A,3337.681237,N,11745.555133,W,61.6,324.8,130410,,,A*46
$GPRMC,185054.6,A,3337.722336,N,11745.590138,W,60.1,324.4,130410,,,A*43
$GPRMC,185057.6,A,3337.762643,N,11745.623227,W,59.0,328.4,130410,,,A*42
$GPRMC,185100.6,A,3337.808678,N,11745.648631,W,59.5,336.7,130410,,,A*4D
$GPRMC,185103.6,A,3337.856243,N,11745.666012,W,60.5,345.3,130410,,,A*48
$GPRMC,185106.6,A,3337.905893,N,11745.673682,W,59.8,354.0,130410,,,A*42
$GPRMC,185109.6,A,3337.956334,N,11745.671906,W,60.6,3.6,130410,,,A*4F
$GPRMC,185112.6,A,3338.006475,N,11745.662141,W,61.1,10.3,130410,,,A*7C
$GPRMC,185115.6,A,3338.053907,N,11745.650105,W,60.5,12.9,130410,,,A*7F
$GPRMC,185118.6,A,3338.103222,N,11745.635828,W,60.8,12.6,130410,,,A*7D
$GPRMC,185121.6,A,3338.154537,N,11745.624041,W,62.0,10.5,130410,,,A*7A
$GPRMC,185124.6,A,3338.207110,N,11745.616570,W,62.6,6.3,130410,,,A*4A
$GPRMC,185127.6,A,3338.259631,N,11745.611529,W,61.9,1.4,130410,,,A*41
$GPRMC,185130.6,A,3338.310073,N,11745.613721,W,61.2,356.3,130410,,,A*4E
$GPRMC,185133.6,A,3338.359428,N,11745.619060,W,60.5,352.1,130410,,,A*42
$GPRMC,185136.6,A,3338.407435,N,11745.631895,W,59.2,346.4,130410,,,A*42
$GPRMC,185139.6,A,3338.456679,N,11745.648841,W,59.8,342.6,130410,,,A*48
$GPRMC,185142.6,A,3338.504732,N,11745.668760,W,59.9,341.1,130410,,,A*47
$GPRMC,185145.6,A,3338.551536,N,11745.687446,W,58.6,342.0,130410,,,A*4C
$GPRMC,185148.6,A,3338.598726,N,11745.703455,W,58.9,345.7,130410,,,A*47
$GPRMC,185151.6,A,3338.648335,N,11745.714130,W,60.9,351.8,130410,,,A*46
$GPRMC,185154.6,A,3338.701222,N,11745.718346,W,63.0,358.1,130410,,,A*4D
$GPRMC,185157.6,A,3338.755615,N,11745.715406,W,65.9,3.3,130410,,,A*41
$GPRMC,185200.6,A,3338.811338,N,11745.709601,W,65.9,5.3,130410,,,A*4B
$GPRMC,185203.6,A,3338.864023,N,11745.704368,W,64.9,5.0,130410,,,A*46
$GPRMC,185206.6,A,3338.918765,N,11745.698902,W,65.1,5.7,130410,,,A*40
$GPRMC,185209.6,A,3338.972084,N,11745.690842,W,65.2,7.9,130410,,,A*49
$GPRMC,185212.6,A,3339.026355,N,11745.679667,W,65.3,11.5,130410,,,A*71
$GPRMC,185215.6,A,3339.078395,N,11745.664295,W,63.9,15.3,130410,,,A*7A
$GPRMC,185218.6,A,3339.129454,N,11745.643953,W,64.6,19.5,130410,,,A*7E
$GPRMC,185221.6,A,3339.179693,N,11745.620634,W,64.1,23.0,130410,,,A*78
$GPRMC,185224.6,A,3339.228040,N,11745.592785,W,65.7,26.6,130410,,,A*77
$GPRMC,185227.6,A,3339.278635,N,11745.561558,W,68.0,27.4,130410,,,A*72
$GPRMC,185230.6,A,3339.328840,N,11745.530506,W,68.2,27.1,130410,,,A*74
$GPRMC,185233.6,A,3339.379937,N,11745.499346,W,69.5,26.9,130410,,,A*7D
$GPRMC,185236.6,A,3339.431179,N,11745.466830,W,68.6,27.1,130410,,,A*70
$GPRMC,185239.6,A,3339.479924,N,11745.436702,W,66.4,27.1,130410,,,A*74
$GPRMC,185242.6,A,3339.529143,N,11745.404537,W,65.9,27.8,130410,,,A*77
$GPRMC,185245.6,A,3339.577092,N,11745.376532,W,63.8,26.3,130410,,,A*7C
$GPRMC,185248.6,A,3339.626097,N,11745.347637,W,63.7,26.1,130410,,,A*7A
$GPRMC,185251.6,A,3339.672751,N,11745.320245,W,62.5,25.7,130410,,,A*78
$GPRMC,185254.6,A,3339.719953,N,11745.291257,W,62.9,27.2,130410,,,A*7E
$GPRMC,185257.6,A,3339.766469,N,11745.262750,W,62.8,27.8,130410,,,A*74
$GPRMC,185300.6,A,3339.813605,N,11745.235167,W,62.7,25.5,130410,,,A*72
$GPRMC,185303.6,A,3339.862856,N,11745.212066,W,62.5,19.6,130410,,,A*74
$GPRMC,185306.6,A,3339.913027,N,11745.195917,W,61.1,12.7,130410,,,A*76
$GPRMC,185309.6,A,3339.962108,N,11745.189272,W,60.1,5.5,130410,,,A*43
$GPRMC,185312.6,A,3340.012240,N,11745.187807,W,60.1,0.5,130410,,,A*45
$GPRMC,185315.6,A,3340.062413,N,11745.189399,W,60.9,357.9,130410,,,A*42
$GPRMC,185318.6,A,3340.113964,N,11745.192636,W,60.7,357.7,130410,,,A*4F
$GPRMC,185321.6,A,3340.162847,N,11745.194191,W,59.5,357.7,130410,,,A*47
$GPRMC,185324.6,A,3340.214341,N,11745.195533,W,61.4,358.3,130410,,,A*41
$GPRMC,185327.6,A,3340.266354,N,11745.198212,W,61.4,357.1,130410,,,A*47
$GPRMC,185330.6,A,3340.316729,N,11745.201073,W,61.2,357.7,130410,,,A*4F
$GPRMC,185333.6,A,3340.369221,N,11745.202698,W,62.3,358.4,130410,,,A*47
$GPRMC,185336.6,A,3340.420616,N,11745.201004,W,62.0,3.0,130410,,,A*42
$GPRMC,185339.6,A,3340.471116,N,11745.191367,W,61.4,10.0,130410,,,A*77
$GPRMC,185342.6,A,3340.521234,N,11745.175617,W,61.6,16.0,130410,,,A*70
$GPRMC,185345.6,A,3340.569200,N,11745.154940,W,61.3,21.9,130410,,,A*7A
$GPRMC,185348.6,A,3340.616408,N,11745.127799,W,62.2,27.9,130410,,,A*78
$GPRMC,185351.6,A,3340.660045,N,11745.093924,W,62.8,33.6,130410,,,A*7A
$GPRMC,185354.6,A,3340.703072,N,11745.058446,W,62.5,34.5,130410,,,A*78
$GPRMC,185357.6,A,3340.744873,N,11745.022864,W,62.1,34.3,130410,,,A*72
$GPRMC,185400.6,A,3340.788812,N,11744.986433,W,63.1,34.7,130410,,,A*7D
$GPRMC,185403.6,A,3340.833021,N,11744.950125,W,64.2,33.9,130410,,,A*7D
$GPRMC,185406.6,A,3340.878873,N,11744.913992,W,65.5,33.6,130410,,,A*72
$GPRMC,185409.6,A,3340.924600,N,11744.877124,W,66.1,33.3,130410,,,A*7B
$GPRMC,185412.6,A,3340.971142,N,11744.840554,W,65.8,32.8,130410,,,A*77
$GPRMC,185415.6,A,3341.017630,N,11744.804298,W,65.9,33.3,130410,,,A*76
$GPRMC,185418.6,A,3341.063456,N,11744.767665,W,65.8,33.9,130410,,,A*7D
$GPRMC,185421.6,A,3341.109983,N,11744.729719,W,66.7,34.5,130410,,,A*78
$GPRMC,185424.6,A,3341.157119,N,11744.689332,W,68.0,35.7,130410,,,A*71
$GPRMC,185427.6,A,3341.202031,N,11744.649213,W,68.4,35.5,130410,,,A*72
$GPRMC,185430.6,A,3341.248316,N,11744.609544,W,68.5,35.1,130410,,,A*78
$GPRMC,185433.6,A,3341.294512,N,11744.570069,W,68.1,35.1,130410,,,A*7B
$GPRMC,185436.6,A,3341.341743,N,11744.530248,W,68.9,35.4,130410,,,A*79
$GPRMC,185439.6,A,3341.389812,N,11744.491148,W,68.7,35.1,130410,,,A*7B
$GPRMC,185442.6,A,3341.436594,N,11744.451251,W,68.8,35.6,130410,,,A*78
$GPRMC,185445.6,A,3341.482105,N,11744.412962,W,67.8,35.3,130410,,,A*7A
$GPRMC,185448.6,A,3341.528094,N,11744.373264,W,68.4,35.2,130410,,,A*70
$GPRMC,185451.6,A,3341.574321,N,11744.333552,W,68.1,35.5,130410,,,A*78
$GPRMC,185454.6,A,3341.620274,N,11744.296322,W,66.8,35.0,130410,,,A*73
$GPRMC,185457.6,A,3341.666148,N,11744.258845,W,66.4,34.7,130410,,,A*7C
$GPRMC,185500.6,A,3341.711506,N,11744.220900,W,66.4,34.6,130410,,,A*7E
$GPRMC,185503.6,A,3341.757658,N,11744.183263,W,66.3,34.7,130410,,,A*75
$GPRMC,185506.6,A,3341.803714,N,11744.143363,W,67.2,35.5,130410,,,A*79
$GPRMC,185509.6,A,3341.849841,N,11744.103569,W,68.7,36.3,130410,,,A*70
$GPRMC,185512.6,A,3341.896123,N,11744.060790,W,70.1,38.1,130410,,,A*76
$GPRMC,185515.6,A,3341.940526,N,11744.016088,W,70.3,40.7,130410,,,A*7E
$GPRMC,185518.6,A,3341.983801,N,11743.968121,W,70.3,43.1,130410,,,A*74
$GPRMC,185521.6,A,3342.027723,N,11743.918117,W,71.7,43.9,130410,,,A*7A
$GPRMC,185524.6,A,3342.071445,N,11743.868050,W,73.3,43.9,130410,,,A*7D
$GPRMC,185527.6,A,3342.115991,N,11743.818012,W,73.3,43.8,130410,,,A*79
$GPRMC,185530.6,A,3342.160146,N,11743.766965,W,73.6,44.0,130410,,,A*7A
$GPRMC,185533.6,A,3342.205251,N,11743.717562,W,72.9,42.7,130410,,,A*7E
$GPRMC,185536.6,A,3342.250776,N,11743.671784,W,70.0,40.1,130410,,,A*7F
$GPRMC,185539.6,A,3342.296008,N,11743.629515,W,68.1,38.0,130410,,,A*75
$GPRMC,185542.6,A,3342.343740,N,11743.589179,W,68.9,34.2,130410,,,A*7A
$GPRMC,185545.6,A,3342.391743,N,11743.555847,W,67.4,30.1,130410,,,A*71
$GPRMC,185548.6,A,3342.441506,N,11743.526256,W,67.1,25.8,130410,,,A*73
$GPRMC,185551.6,A,3342.492184,N,11743.501237,W,65.9,21.3,130410,,,A*7C
$GPRMC,185554.6,A,3342.542441,N,11743.480532,W,64.2,19.3,130410,,,A*72
$GPRMC,185557.6,A,3342.590655,N,11743.460649,W,61.3,17.8,130410,,,A*79
$GPRMC,185600.6,A,3342.638006,N,11743.441615,W,59.9,18.7,130410,,,A*72
$GPRMC,185603.6,A,3342.683257,N,11743.422884,W,57.4,19.2,130410,,,A*73
$GPRMC,185606.6,A,3342.725294,N,11743.404952,W,56.4,18.6,130410,,,A*7E
$GPRMC,185609.6,A,3342.770078,N,11743.386053,W,57.7,18.6,130410,,,A*76
$GPRMC,185612.6,A,3342.817694,N,11743.365665,W,59.9,18.8,130410,,,A*76
$GPRMC,185615.6,A,3342.864732,N,11743.344195,W,62.5,20.6,130410,,,A*72
$GPRMC,185618.6,A,3342.912726,N,11743.319294,W,63.9,24.9,130410,,,A*76
$GPRMC,185621.6,A,3342.962596,N,11743.290039,W,65.9,27.7,130410,,,A*7C
$GPRMC,185624.6,A,3343.009858,N,11743.256683,W,67.2,29.5,130410,,,A*7B
$GPRMC,185636.6,A,3343.207273,N,11743.158700,W,63.0,14.6,130410,,,A*7B
$GPRMC,185639.6,A,3343.256675,N,11743.162249,W,58.9,0.8,130410,,,A*49
$GPRMC,185642.6,A,3343.306368,N,11743.166237,W,58.8,1.4,130410,,,A*49
$GPRMC,185645.6,A,3343.356964,N,11743.163178,W,59.2,4.9,130410,,,A*43
$GPRMC,185648.6,A,3343.405576,N,11743.157550,W,60.3,5.4,130410,,,A*4E
$GPRMC,185651.6,A,3343.455371,N,11743.150576,W,61.6,6.0,130410,,,A*42
$GPRMC,185654.6,A,3343.506902,N,11743.144411,W,63.0,5.7,130410,,,A*4B
$GPRMC,185657.6,A,3343.560115,N,11743.137022,W,64.0,6.2,130410,,,A*47
$GPRMC,185700.6,A,3343.612599,N,11743.129608,W,64.6,6.0,130410,,,A*47
$GPRMC,185703.6,A,3343.665501,N,11743.122580,W,64.8,6.2,130410,,,A*41
$GPRMC,185706.6,A,3343.719075,N,11743.115197,W,64.2,6.4,130410,,,A*42
$GPRMC,185709.6,A,3343.773074,N,11743.106156,W,66.4,6.7,130410,,,A*48
$GPRMC,185712.6,A,3343.829240,N,11743.097784,W,66.1,6.8,130410,,,A*4D
$GPRMC,185715.6,A,3343.882202,N,11743.089622,W,65.6,6.9,130410,,,A*4A
$GPRMC,185718.6,A,3343.937554,N,11743.081737,W,66.7,6.6,130410,,,A*4C
$GPRMC,185721.6,A,3343.993156,N,11743.073522,W,66.7,6.3,130410,,,A*40
$GPRMC,185724.6,A,3344.051173,N,11743.070843,W,67.8,5.2,130410,,,A*47
$GPRMC,185727.6,A,3344.106848,N,11743.064342,W,68.1,6.4,130410,,,A*4A
$GPRMC,185730.6,A,3344.162226,N,11743.058494,W,67.8,6.2,130410,,,A*4F
$GPRMC,185733.6,A,3344.218523,N,11743.051800,W,67.5,5.9,130410,,,A*4D
$GPRMC,185736.6,A,3344.276877,N,11743.047332,W,69.2,3.5,130410,,,A*42
$GPRMC,185739.6,A,3344.332923,N,11743.046565,W,68.1,359.5,130410,,,A*47
$GPRMC,185742.6,A,3344.391452,N,11743.050870,W,69.0,355.3,130410,,,A*4D
$GPRMC,185745.6,A,3344.449893,N,11743.060060,W,70.4,351.7,130410,,,A*4F
$GPRMC,185748.6,A,3344.503785,N,11743.075611,W,69.1,346.3,130410,,,A*4E
$GPRMC,185751.6,A,3344.558372,N,11743.095225,W,68.2,341.7,130410,,,A*48
$GPRMC,185754.6,A,3344.610369,N,11743.121403,W,68.4,336.1,130410,,,A*44
$GPRMC,185757.6,A,3344.662263,N,11743.155698,W,69.1,331.6,130410,,,A*4E
$GPRMC,185800.6,A,3344.712789,N,11743.194831,W,70.3,327.2,130410,,,A*4D
$GPRMC,185803.6,A,3344.759173,N,11743.235964,W,69.6,323.4,130410,,,A*44
$GPRMC,185806.6,A,3344.802435,N,11743.281275,W,68.2,318.3,130410,,,A*49
$GPRMC,185809.6,A,3344.841164,N,11743.328747,W,67.4,314.5,130410,,,A*45
$GPRMC,185812.6,A,3344.875368,N,11743.378573,W,66.8,310.1,130410,,,A*4B
$GPRMC,185815.6,A,3344.906057,N,11743.432082,W,66.3,305.0,130410,,,A*4A
$GPRMC,185818.6,A,3344.936404,N,11743.493803,W,68.4,301.8,130410,,,A*49
$GPRMC,185821.6,A,3344.965695,N,11743.552680,W,67.6,301.5,130410,,,A*46
$GPRMC,185824.6,A,3344.993148,N,11743.610597,W,66.7,300.8,130410,,,A*41
$GPRMC,185827.6,A,3345.021135,N,11743.668792,W,65.7,300.9,130410,,,A*43
$GPRMC,185830.6,A,3345.051544,N,11743.722521,W,65.4,305.0,130410,,,A*4A
$GPRMC,185833.6,A,3345.083404,N,11743.772630,W,64.2,308.0,130410,,,A*4F
$GPRMC,185836.6,A,3345.124728,N,11743.814742,W,65.1,318.0,130410,,,A*43
$GPRMC,185839.6,A,3345.167861,N,11743.855860,W,65.8,322.9,130410,,,A*4A
$GPRMC,185842.6,A,3345.214960,N,11743.889510,W,64.8,330.2,130410,,,A*43
$GPRMC,185845.6,A,3345.264533,N,11743.918061,W,65.5,335.2,130410,,,A*4A
$GPRMC,185848.6,A,3345.316276,N,11743.939339,W,66.5,342.8,130410,,,A*41
$GPRMC,185851.6,A,3345.366806,N,11743.950953,W,65.3,349.5,130410,,,A*49
$GPRMC,185854.6,A,3345.421386,N,11743.956664,W,66.0,356.1,130410,,,A*4C
$GPRMC,185857.6,A,3345.476997,N,11743.956482,W,66.7,2.4,130410,,,A*4D
$GPRMC,185900.6,A,3345.531681,N,11743.948645,W,66.7,7.1,130410,,,A*42
$GPRMC,185903.6,A,3345.588174,N,11743.938264,W,67.5,8.8,130410,,,A*4B
$GPRMC,185906.6,A,3345.642189,N,11743.928868,W,67.0,8.8,130410,,,A*4B
$GPRMC,185909.6,A,3345.698926,N,11743.920560,W,67.7,5.8,130410,,,A*49
$GPRMC,185912.6,A,3345.752124,N,11743.919220,W,66.9,359.7,130410,,,A*4D
$GPRMC,185915.6,A,3345.807105,N,11743.928220,W,66.2,351.9,130410,,,A*49
$GPRMC,185918.6,A,3345.860997,N,11743.942355,W,66.1,345.9,130410,,,A*4F
$GPRMC,185921.6,A,3345.913112,N,11743.963537,W,65.5,339.2,130410,,,A*43
$GPRMC,185924.6,A,3345.963239,N,11743.993231,W,66.3,332.5,130410,,,A*4C
$GPRMC,185927.6,A,3346.011692,N,11744.028493,W,66.2,326.2,130410,,,A*46
$GPRMC,185930.6,A,3346.053595,N,11744.070067,W,66.0,319.2,130410,,,A*4E
$GPRMC,185933.6,A,3346.092340,N,11744.117632,W,67.8,313.5,130410,,,A*4C
$GPRMC,185936.6,A,3346.127993,N,11744.170678,W,68.0,308.4,130410,,,A*41
$GPRMC,185939.6,A,3346.161583,N,11744.226183,W,68.9,306.6,130410,,,A*47
$GPRMC,185942.6,A,3346.195186,N,11744.282798,W,68.8,306.2,130410,,,A*46
$GPRMC,185945.6,A,3346.227808,N,11744.338064,W,69.1,306.2,130410,,,A*48
$GPRMC,185948.6,A,3346.258772,N,11744.393236,W,69.4,305.7,130410,,,A*48
$GPRMC,185951.6,A,3346.292765,N,11744.450328,W,70.6,305.9,130410,,,A*42
$GPRMC,185954.6,A,3346.327504,N,11744.507672,W,71.0,306.3,130410,,,A*4A
$GPRMC,185957.6,A,3346.364316,N,11744.564761,W,72.8,308.0,130410,,,A*4B
$GPRMC,190000.6,A,3346.403013,N,11744.618634,W,72.1,311.0,130410,,,A*4C
$GPRMC,190003.6,A,3346.441467,N,11744.671151,W,71.9,313.9,130410,,,A*45
$GPRMC,190006.6,A,3346.482165,N,11744.720693,W,71.0,317.7,130410,,,A*47
$GPRMC,190009.6,A,3346.527695,N,11744.764844,W,69.5,322.0,130410,,,A*47
$GPRMC,190012.6,A,3346.576555,N,11744.801540,W,68.5,328.3,130410,,,A*4B
$GPRMC,190015.6,A,3346.628154,N,11744.832163,W,68.5,334.6,130410,,,A*4C
$GPRMC,190018.6,A,3346.681897,N,11744.854438,W,67.7,341.7,130410,,,A*41
$GPRMC,190021.6,A,3346.738136,N,11744.867126,W,67.2,349.5,130410,,,A*4F
$GPRMC,190024.6,A,3346.793787,N,11744.874221,W,66.5,355.2,130410,,,A*4D
$GPRMC,190027.6,A,3346.848073,N,11744.867612,W,65.9,2.5,130410,,,A*44
$GPRMC,190030.6,A,3346.901998,N,11744.858667,W,64.7,8.9,130410,,,A*45
$GPRMC,190033.6,A,3346.955782,N,11744.843859,W,66.0,14.2,130410,,,A*78
$GPRMC,190036.6,A,3347.006340,N,11744.822222,W,65.8,21.0,130410,,,A*77
$GPRMC,190039.6,A,3347.053597,N,11744.795440,W,63.6,26.8,130410,,,A*72
$GPRMC,190042.6,A,3347.096800,N,11744.762812,W,63.6,31.7,130410,,,A*7E
$GPRMC,190045.6,A,3347.141849,N,11744.723934,W,65.7,36.8,130410,,,A*70
$GPRMC,190048.6,A,3347.183873,N,11744.678983,W,67.4,41.7,130410,,,A*77
$GPRMC,190051.6,A,3347.224166,N,11744.631400,W,67.6,45.9,130410,,,A*7F
$GPRMC,190054.6,A,3347.261693,N,11744.579112,W,68.2,50.5,130410,,,A*7C
$GPRMC,190057.6,A,3347.295286,N,11744.525210,W,67.9,53.0,130410,,,A*7E
$GPRMC,190100.6,A,3347.329427,N,11744.470709,W,68.2,53.5,130410,,,A*7B
$GPRMC,190103.6,A,3347.363160,N,11744.416660,W,67.5,53.5,130410,,,A*76
$GPRMC,190106.6,A,3347.396984,N,11744.362673,W,67.8,53.3,130410,,,A*76
$GPRMC,190109.6,A,3347.429601,N,11744.309933,W,66.6,53.2,130410,,,A*70
$GPRMC,190112.6,A,3347.462478,N,11744.255819,W,65.6,53.4,130410,,,A*7D
$GPRMC,190115.6,A,3347.494535,N,11744.204041,W,64.5,53.7,130410,,,A*7B
$GPRMC,190118.6,A,3347.525779,N,11744.152984,W,63.0,53.4,130410,,,A*76
$GPRMC,190121.6,A,3347.556585,N,11744.103653,W,62.2,53.3,130410,,,A*7C
$GPRMC,190124.6,A,3347.587395,N,11744.054017,W,61.2,53.6,130410,,,A*71
$GPRMC,190127.6,A,3347.617807,N,11744.005586,W,60.9,53.3,130410,,,A*7E
$GPRMC,190130.6,A,3347.649282,N,11743.956120,W,61.3,53.7,130410,,,A*7B
$GPRMC,190133.6,A,3347.679947,N,11743.906164,W,62.7,53.8,130410,,,A*74
$GPRMC,190136.6,A,3347.711264,N,11743.854823,W,63.0,53.5,130410,,,A*73
$GPRMC,190139.6,A,3347.742261,N,11743.805264,W,61.6,52.9,130410,,,A*7B
$GPRMC,190142.6,A,3347.773999,N,11743.754462,W,61.9,52.1,130410,,,A*75
$GPRMC,190145.6,A,3347.809912,N,11743.706075,W,62.9,47.3,130410,,,A*73
$GPRMC,190148.6,A,3347.850503,N,11743.660714,W,65.2,41.6,130410,,,A*70
$GPRMC,190151.6,A,3347.894059,N,11743.622244,W,65.0,36.9,130410,,,A*71
$GPRMC,190154.6,A,3347.937696,N,11743.590313,W,62.2,30.5,130410,,,A*7F
$GPRMC,190157.6,A,3347.985141,N,11743.564599,W,62.3,24.5,130410,,,A*73
$GPRMC,190200.6,A,3348.034836,N,11743.544312,W,62.1,19.0,130410,,,A*79
$GPRMC,190203.6,A,3348.085849,N,11743.530965,W,61.9,14.8,130410,,,A*7F
$GPRMC,190206.6,A,3348.137524,N,11743.516649,W,62.6,14.1,130410,,,A*74
$GPRMC,190209.6,A,3348.189432,N,11743.501068,W,63.5,14.2,130410,,,A*7A
$GPRMC,190212.6,A,3348.241965,N,11743.485945,W,64.0,14.1,130410,,,A*72
$GPRMC,190215.6,A,3348.293136,N,11743.471430,W,63.4,13.7,130410,,,A*72
$GPRMC,190218.6,A,3348.342571,N,11743.456833,W,63.5,14.1,130410,,,A*7F
$GPRMC,190221.6,A,3348.396986,N,11743.438054,W,67.0,17.0,130410,,,A*7A
$GPRMC,190224.6,A,3348.449010,N,11743.415403,W,65.4,21.7,130410,,,A*71
$GPRMC,190227.6,A,3348.500199,N,11743.388332,W,66.3,25.5,130410,,,A*7A
$GPRMC,190230.6,A,3348.549717,N,11743.357415,W,66.9,28.9,130410,,,A*7A
$GPRMC,190233.6,A,3348.600864,N,11743.325088,W,68.0,28.4,130410,,,A*73
$GPRMC,190236.6,A,3348.650289,N,11743.292405,W,67.9,29.2,130410,,,A*77
$GPRMC,190239.6,A,3348.699613,N,11743.259871,W,68.8,29.0,130410,,,A*7E
$GPRMC,190242.6,A,3348.750042,N,11743.225599,W,69.5,29.6,130410,,,A*7E
$GPRMC,190245.6,A,3348.799353,N,11743.191091,W,70.1,28.6,130410,,,A*73
$GPRMC,190248.6,A,3348.850446,N,11743.159157,W,69.7,25.9,130410,,,A*74
$GPRMC,190251.6,A,3348.904283,N,11743.130193,W,70.6,24.1,130410,,,A*74
$GPRMC,190254.6,A,3348.960066,N,11743.104672,W,71.4,21.1,130410,,,A*73
$GPRMC,190257.6,A,3349.015613,N,11743.081464,W,71.1,19.5,130410,,,A*7D
$GPRMC,190300.6,A,3349.069671,N,11743.060513,W,69.0,17.6,130410,,,A*7A
$GPRMC,190303.6,A,3349.124304,N,11743.040380,W,68.2,16.1,130410,,,A*7D
$GPRMC,190306.6,A,3349.178528,N,11743.023038,W,66.9,13.9,130410,,,A*74
$GPRMC,190309.6,A,3349.230956,N,11743.008827,W,65.7,11.8,130410,,,A*70
$GPRMC,190312.6,A,3349.282079,N,11742.998666,W,63.7,9.2,130410,,,A*48
$GPRMC,190315.6,A,3349.334945,N,11742.990572,W,63.2,7.6,130410,,,A*44
$GPRMC,190318.6,A,3349.385612,N,11742.986929,W,62.4,6.4,130410,,,A*4F
$GPRMC,190321.6,A,3349.438211,N,11742.984544,W,62.8,4.3,130410,,,A*4F
$GPRMC,190324.6,A,3349.489288,N,11742.981743,W,63.0,2.6,130410,,,A*4A
$GPRMC,190327.6,A,3349.544663,N,11742.977565,W,64.4,1.9,130410,,,A*48
$GPRMC,190330.6,A,3349.601807,N,11742.973132,W,65.4,1.2,130410,,,A*48
$GPRMC,190333.6,A,3349.656834,N,11742.971980,W,64.5,359.3,130410,,,A*45
$GPRMC,190336.6,A,3349.709749,N,11742.978214,W,65.1,355.7,130410,,,A*4C
$GPRMC,190339.6,A,3349.762185,N,11742.985572,W,64.7,353.4,130410,,,A*4F
$GPRMC,190342.6,A,3349.815074,N,11742.995825,W,65.2,352.2,130410,,,A*4E
$GPRMC,190345.6,A,3349.867718,N,11743.005958,W,65.9,352.2,130410,,,A*40
$GPRMC,190348.6,A,3349.922497,N,11743.015036,W,66.3,352.3,130410,,,A*41
$GPRMC,190351.6,A,3349.976529,N,11743.023458,W,66.6,352.4,130410,,,A*47
$GPRMC,190354.6,A,3350.030532,N,11743.032782,W,65.9,352.2,130410,,,A*45
$GPRMC,190357.6,A,3350.085416,N,11743.042227,W,65.9,352.6,130410,,,A*46
$GPRMC,190400.6,A,3350.138992,N,11743.049842,W,64.9,352.7,130410,,,A*47
$GPRMC,190403.6,A,3350.192123,N,11743.058331,W,64.1,353.0,130410,,,A*47
$GPRMC,190406.6,A,3350.245501,N,11743.064225,W,64.5,355.9,130410,,,A*4F
