NMEA Sentence Code,UTC Time,Status,Latitude,Latitude Direction,Longitude,Longitude Direction,Speed (knots),Track Angle (degrees true),Date,MagneticVariation,Magnetic Variation Direction,[FAA Mode]-Optional,Checksum
$GPRMC,211939.2,A,3246.749879,N,11704.315807,W,66.3,90.6,080410,,,A*7A
$GPRMC,211942.9,A,3246.754475,N,11704.236400,W,66.3,88.4,080410,,,A*71
$GPRMC,211946.2,A,3246.757795,N,11704.162409,W,67.2,87.0,080410,,,A*70
$GPRMC,211949.2,A,3246.759303,N,11704.092229,W,70.6,89.3,080410,,,A*7F
$GPRMC,211952.2,A,3246.757904,N,11704.029493,W,65.6,89.2,080410,,,A*74
$GPRMC,211955.2,A,3246.760851,N,11703.963153,W,66.3,88.4,080410,,,A*7E
$GPRMC,211958.2,A,3246.763451,N,11703.900489,W,64.3,87.8,080410,,,A*7A
$GPRMC,212001.2,A,3246.764449,N,11703.830189,W,70.1,91.2,080410,,,A*7F
$GPRMC,212004.2,A,3246.752543,N,11703.765351,W,67.4,101.9,080410,,,A*4C
$GPRMC,212007.0,A,3246.734280,N,11703.707249,W,68.4,109.2,080410,,,A*45
$GPRMC,212010.2,A,3246.712798,N,11703.637226,W,69.4,109.6,080410,,,A*47
$GPRMC,212013.9,A,3246.691118,N,11703.557032,W,70.0,108.8,080410,,,A*4A
$GPRMC,212016.2,A,3246.675111,N,11703.503227,W,73.3,106.9,080410,,,A*4F
$GPRMC,212019.9,A,3246.658766,N,11703.415720,W,74.0,104.3,080410,,,A*4A
$GPRMC,212022.2,A,3246.652652,N,11703.363583,W,70.2,101.6,080410,,,A*4E
$GPRMC,212026.2,A,3246.634395,N,11703.272692,W,69.1,104.1,080410,,,A*4F
$GPRMC,212029.9,A,3246.622609,N,11703.191718,W,68.3,98.8,080410,,,A*7F
$GPRMC,212032.2,A,3246.607463,N,11703.142024,W,69.0,103.1,080410,,,A*49
$GPRMC,212035.0,A,3246.595542,N,11703.081250,W,68.3,104.1,080410,,,A*4C
$GPRMC,212038.2,A,3246.570873,N,11703.010333,W,71.2,110.5,080410,,,A*43
$GPRMC,212041.9,A,3246.540090,N,11702.932372,W,69.9,117.7,080410,,,A*4A
$GPRMC,212045.2,A,3246.509600,N,11702.869451,W,65.8,120.0,080410,,,A*40
$GPRMC,212048.9,A,3246.474281,N,11702.801826,W,63.8,122.2,080410,,,A*44
$GPRMC,212052.2,A,3246.443193,N,11702.740369,W,65.3,119.1,080410,,,A*4C
$GPRMC,212055.9,A,3246.402534,N,11702.667966,W,69.0,122.6,080410,,,A*4D
$GPRMC,212058.2,A,3246.383043,N,11702.624368,W,65.2,119.1,080410,,,A*42
$GPRMC,212101.2,A,3246.368022,N,11702.562914,W,63.0,105.2,080410,,,A*47
$GPRMC,212104.9,A,3246.352624,N,11702.487970,W,63.2,102.9,080410,,,A*46
$GPRMC,212107.0,A,3246.348900,N,11702.448431,W,59.7,97.1,080410,,,A*7C
$GPRMC,212110.2,A,3246.356968,N,11702.384649,W,58.2,88.5,080410,,,A*7D
$GPRMC,212113.2,A,3246.372836,N,11702.325690,W,62.4,74.4,080410,,,A*70
$GPRMC,212116.2,A,3246.389366,N,11702.267005,W,62.3,72.4,080410,,,A*73
$GPRMC,212119.2,A,3246.404897,N,11702.205214,W,64.7,74.3,080410,,,A*7E
$GPRMC,212122.2,A,3246.419688,N,11702.142437,W,66.3,74.2,080410,,,A*7A
$GPRMC,212125.2,A,3246.433756,N,11702.078246,W,66.2,76.7,080410,,,A*79
$GPRMC,212128.2,A,3246.441577,N,11702.015031,W,63.9,86.8,080410,,,A*77
$GPRMC,212131.2,A,3246.442294,N,11701.952418,W,62.6,91.4,080410,,,A*74
$GPRMC,212135.2,A,3246.426606,N,11701.874665,W,60.1,103.7,080410,,,A*4C
$GPRMC,212138.2,A,3246.410473,N,11701.819021,W,61.0,109.8,080410,,,A*4C
$GPRMC,212141.2,A,3246.387350,N,11701.765515,W,60.4,115.8,080410,,,A*43
$GPRMC,212144.2,A,3246.361889,N,11701.711411,W,62.6,117.3,080410,,,A*4E
$GPRMC,212147.2,A,3246.337189,N,11701.655811,W,63.0,117.5,080410,,,A*4B
$GPRMC,212150.2,A,3246.311285,N,11701.599625,W,64.0,118.8,080410,,,A*49
$GPRMC,212153.2,A,3246.285791,N,11701.542145,W,66.1,116.5,080410,,,A*41
$GPRMC,212156.2,A,3246.267860,N,11701.480215,W,67.8,106.6,080410,,,A*4A
$GPRMC,212159.2,A,3246.253210,N,11701.414096,W,71.4,102.3,080410,,,A*41
$GPRMC,212202.2,A,3246.248976,N,11701.346483,W,69.6,95.2,080410,,,A*78
$GPRMC,212205.0,A,3246.250281,N,11701.285789,W,67.4,88.1,080410,,,A*73
$GPRMC,212208.2,A,3246.266496,N,11701.215051,W,69.6,79.2,080410,,,A*73
$GPRMC,212211.2,A,3246.285482,N,11701.153443,W,65.6,65.7,080410,,,A*71
$GPRMC,212214.2,A,3246.309636,N,11701.097716,W,63.0,57.0,080410,,,A*70
$GPRMC,212217.2,A,3246.338968,N,11701.046022,W,61.5,56.4,080410,,,A*7B
$GPRMC,212221.2,A,3246.375080,N,11700.976384,W,62.9,58.4,080410,,,A*7D
$GPRMC,212224.9,A,3246.404237,N,11700.913521,W,58.6,64.1,080410,,,A*7A
$GPRMC,212227.9,A,3246.423764,N,11700.863559,W,56.6,66.0,080410,,,A*7B
$GPRMC,212231.2,A,3246.444011,N,11700.804063,W,58.9,68.5,080410,,,A*74
$GPRMC,212234.2,A,3246.461357,N,11700.751608,W,57.6,67.2,080410,,,A*7B
$GPRMC,212237.2,A,3246.479860,N,11700.701052,W,55.6,67.0,080410,,,A*72
$GPRMC,212240.2,A,3246.498460,N,11700.650424,W,56.0,66.7,080410,,,A*72
$GPRMC,212243.2,A,3246.517232,N,11700.599165,W,57.0,66.8,080410,,,A*7E
$GPRMC,212246.2,A,3246.536376,N,11700.544829,W,60.6,66.7,080410,,,A*75
$GPRMC,212249.2,A,3246.556624,N,11700.489576,W,61.0,66.7,080410,,,A*7E
$GPRMC,212252.9,A,3246.580481,N,11700.419576,W,62.2,68.1,080410,,,A*79
$GPRMC,212255.2,A,3246.594728,N,11700.375297,W,61.7,68.1,080410,,,A*73
$GPRMC,212258.2,A,3246.616591,N,11700.317723,W,63.2,68.5,080410,,,A*7A
$GPRMC,212301.2,A,3246.637242,N,11700.259554,W,62.7,67.6,080410,,,A*7C
$GPRMC,212305.2,A,3246.667001,N,11700.190163,W,58.9,63.3,080410,,,A*78
$GPRMC,212308.9,A,3246.701608,N,11700.128750,W,60.0,60.8,080410,,,A*7F
$GPRMC,212311.2,A,3246.720304,N,11700.090475,W,58.5,60.3,080410,,,A*75
$GPRMC,212314.0,A,3246.735016,N,11700.041801,W,57.4,68.8,080410,,,A*78
$GPRMC,212317.2,A,3246.748578,N,11659.981304,W,59.1,79.2,080410,,,A*79
$GPRMC,212321.2,A,3246.759220,N,11659.903992,W,59.2,82.6,080410,,,A*7A
$GPRMC,212324.2,A,3246.761023,N,11659.846881,W,56.9,88.3,080410,,,A*7D
$GPRMC,212327.2,A,3246.757573,N,11659.794901,W,52.1,91.3,080410,,,A*76
$GPRMC,212330.2,A,3246.754182,N,11659.744698,W,51.0,92.8,080410,,,A*71
$GPRMC,212333.2,A,3246.750655,N,11659.692711,W,53.0,91.1,080410,,,A*79
$GPRMC,212336.9,A,3246.745920,N,11659.633159,W,50.8,93.1,080410,,,A*76
$GPRMC,212339.9,A,3246.742848,N,11659.579737,W,53.2,93.6,080410,,,A*7C
$GPRMC,212342.9,A,3246.741105,N,11659.529362,W,49.1,91.1,080410,,,A*7F
$GPRMC,212346.2,A,3246.741787,N,11659.476780,W,47.7,89.3,080410,,,A*7C
$GPRMC,212349.9,A,3246.738775,N,11659.420530,W,46.3,94.7,080410,,,A*7C
$GPRMC,212352.9,A,3246.734867,N,11659.373132,W,47.4,94.6,080410,,,A*76
$GPRMC,212355.9,A,3246.734776,N,11659.326528,W,46.1,92.6,080410,,,A*73
$GPRMC,212358.2,A,3246.733420,N,11659.293983,W,45.8,92.7,080410,,,A*7B
$GPRMC,212401.9,A,3246.732477,N,11659.237686,W,46.6,93.2,080410,,,A*75
$GPRMC,212404.9,A,3246.729983,N,11659.192722,W,46.4,91.9,080410,,,A*74
$GPRMC,212407.9,A,3246.731037,N,11659.143013,W,50.7,88.5,080410,,,A*71
$GPRMC,212410.9,A,3246.740979,N,11659.091693,W,53.4,79.3,080410,,,A*7A
$GPRMC,212413.9,A,3246.751812,N,11659.042228,W,50.6,72.8,080410,,,A*7E
$GPRMC,212416.9,A,3246.774295,N,11659.001141,W,47.3,59.7,080410,,,A*77
$GPRMC,212419.9,A,3246.798726,N,11658.962255,W,47.7,53.2,080410,,,A*77
$GPRMC,212422.9,A,3246.830593,N,11658.928328,W,48.0,44.0,080410,,,A*77
$GPRMC,212425.9,A,3246.859821,N,11658.899037,W,45.1,39.6,080410,,,A*7D
$GPRMC,212428.9,A,3246.887194,N,11658.868012,W,45.2,45.7,080410,,,A*74
$GPRMC,212431.9,A,3246.915103,N,11658.835025,W,47.3,46.4,080410,,,A*77
$GPRMC,212434.9,A,3246.943727,N,11658.801419,W,47.3,45.8,080410,,,A*72
$GPRMC,212437.9,A,3246.967379,N,11658.769194,W,42.8,47.3,080410,,,A*7E
$GPRMC,212441.2,A,3246.986519,N,11658.744716,W,31.9,45.6,080410,,,A*7A
$GPRMC,212444.9,A,3246.975565,N,11658.724930,W,20.4,100.3,080410,,,A*47
$GPRMC,212447.2,A,3246.969425,N,11658.710023,W,22.2,109.8,080410,,,A*4D
$GPRMC,212450.9,A,3246.943064,N,11658.678569,W,34.0,124.6,080410,,,A*49
$GPRMC,212453.2,A,3246.930466,N,11658.655302,W,37.2,121.4,080410,,,A*41
$GPRMC,212456.2,A,3246.911412,N,11658.624526,W,37.0,123.7,080410,,,A*41
$GPRMC,212459.0,A,3246.895210,N,11658.593056,W,38.7,122.6,080410,,,A*40
$GPRMC,212502.9,A,3246.869307,N,11658.549333,W,40.5,125.1,080410,,,A*48
$GPRMC,212505.9,A,3246.852147,N,11658.516430,W,39.0,122.8,080410,,,A*4A
$GPRMC,212508.9,A,3246.833923,N,11658.483295,W,38.5,122.0,080410,,,A*42
$GPRMC,212511.9,A,3246.821641,N,11658.449000,W,38.0,113.1,080410,,,A*4C
$GPRMC,212514.9,A,3246.819803,N,11658.411601,W,36.5,95.7,080410,,,A*72
$GPRMC,212517.9,A,3246.823429,N,11658.374149,W,36.4,89.2,080410,,,A*7A
$GPRMC,212520.9,A,3246.823128,N,11658.340551,W,34.8,90.7,080410,,,A*73
$GPRMC,212523.9,A,3246.823897,N,11658.307348,W,34.4,91.0,080410,,,A*7A
$GPRMC,212526.9,A,3246.824004,N,11658.275550,W,28.7,89.9,080410,,,A*7F
$GPRMC,212529.2,A,3246.825574,N,11658.257242,W,24.6,85.5,080410,,,A*71
$GPRMC,212533.2,A,3246.823511,N,11658.233351,W,19.7,92.5,080410,,,A*77
$GPRMC,212536.9,A,3246.823495,N,11658.206077,W,22.2,92.3,080410,,,A*7E
$GPRMC,212539.9,A,3246.822769,N,11658.178549,W,27.0,91.2,080410,,,A*77
$GPRMC,212542.9,A,3246.822710,N,11658.151001,W,29.8,89.2,080410,,,A*78
$GPRMC,212545.9,A,3246.821868,N,11658.121742,W,30.0,91.2,080410,,,A*72
$GPRMC,212548.9,A,3246.821964,N,11658.089453,W,32.1,88.6,080410,,,A*7D
$GPRMC,212551.9,A,3246.824646,N,11658.056911,W,33.0,87.5,080410,,,A*7A
$GPRMC,212554.9,A,3246.825295,N,11658.024020,W,32.6,89.0,080410,,,A*76
$GPRMC,212557.2,A,3246.826179,N,11657.998460,W,33.9,86.1,080410,,,A*7D
$GPRMC,212600.9,A,3246.826101,N,11657.960278,W,32.8,90.3,080410,,,A*75
$GPRMC,212603.2,A,3246.823933,N,11657.933469,W,33.6,91.3,080410,,,A*7F
$GPRMC,212606.2,A,3246.823775,N,11657.899138,W,33.1,91.2,080410,,,A*70
$GPRMC,212609.2,A,3246.823044,N,11657.869310,W,29.9,92.4,080410,,,A*7B
$GPRMC,212612.0,A,3246.824378,N,11657.846106,W,27.2,88.7,080410,,,A*7D
$GPRMC,212615.9,A,3246.819667,N,11657.806695,W,29.8,94.0,080410,,,A*71
$GPRMC,212618.9,A,3246.822789,N,11657.780761,W,22.8,87.3,080410,,,A*74
$GPRMC,212621.2,A,3246.822870,N,11657.766635,W,19.1,88.4,080410,,,A*7D
$GPRMC,212624.2,A,3246.821226,N,11657.759382,W,13.9,89.2,080410,,,A*72
$GPRMC,212627.9,A,3246.820106,N,11657.741658,W,16.0,91.5,080410,,,A*73
$GPRMC,212630.9,A,3246.820263,N,11657.718419,W,21.5,90.3,080410,,,A*78
$GPRMC,212633.9,A,3246.823352,N,11657.695492,W,22.6,86.4,080410,,,A*7C
$GPRMC,212636.9,A,3246.822988,N,11657.670343,W,22.1,90.2,080410,,,A*73
$GPRMC,212639.9,A,3246.823551,N,11657.651186,W,20.7,89.2,080410,,,A*71
$GPRMC,212642.9,A,3246.821355,N,11657.626177,W,23.3,94.3,080410,,,A*79
$GPRMC,212645.2,A,3246.821316,N,11657.607387,W,25.0,89.0,080410,,,A*76
$GPRMC,212648.2,A,3246.820194,N,11657.581975,W,26.9,92.0,080410,,,A*78
$GPRMC,212651.2,A,3246.822894,N,11657.552328,W,27.9,87.6,080410,,,A*74
$GPRMC,212654.2,A,3246.819696,N,11657.527020,W,25.8,100.6,080410,,,A*41
$GPRMC,212657.2,A,3246.818699,N,11657.507111,W,22.3,93.1,080410,,,A*7D
$GPRMC,212700.2,A,3246.823793,N,11657.493995,W,13.4,70.5,080410,,,A*79
$GPRMC,212757.2,A,3246.818135,N,11657.487681,W,5.0,109.1,080410,,,A*7E
$GPRMC,212800.0,A,3246.818654,N,11657.469933,W,14.8,93.3,080410,,,A*7F
$GPRMC,212803.9,A,3246.821692,N,11657.434044,W,22.2,88.8,080410,,,A*7A
$GPRMC,212806.9,A,3246.824073,N,11657.401767,W,24.2,84.7,080410,,,A*76
$GPRMC,212809.2,A,3246.827853,N,11657.379629,W,28.6,76.9,080410,,,A*73
$GPRMC,212812.9,A,3246.827071,N,11657.336089,W,33.8,90.4,080410,,,A*7C
$GPRMC,212815.9,A,3246.826255,N,11657.297805,W,39.0,89.3,080410,,,A*75
$GPRMC,212818.2,A,3246.824174,N,11657.264803,W,42.4,90.4,080410,,,A*7C
$GPRMC,212821.9,A,3246.820613,N,11657.214042,W,40.6,96.0,080410,,,A*77
$GPRMC,212824.9,A,3246.818916,N,11657.174403,W,39.6,94.1,080410,,,A*7A
$GPRMC,212827.9,A,3246.822713,N,11657.138100,W,37.0,94.3,080410,,,A*7F
$GPRMC,212831.2,A,3246.824579,N,11657.102834,W,31.8,88.2,080410,,,A*7E
$GPRMC,212834.9,A,3246.822355,N,11657.073383,W,21.5,97.6,080410,,,A*78
$GPRMC,212838.2,A,3246.820091,N,11657.066814,W,9.4,102.3,080410,,,A*74
$GPRMC,212841.9,A,3246.820730,N,11657.052599,W,13.0,95.5,080410,,,A*74
$GPRMC,212844.2,A,3246.820170,N,11657.031049,W,26.4,92.4,080410,,,A*71
$GPRMC,212848.2,A,3246.819241,N,11656.987372,W,35.1,89.6,080410,,,A*77
$GPRMC,212852.2,A,3246.821658,N,11656.938424,W,37.7,87.2,080410,,,A*75
$GPRMC,212855.9,A,3246.822751,N,11656.890718,W,39.2,91.0,080410,,,A*73
$GPRMC,212858.9,A,3246.821332,N,11656.849344,W,41.5,96.2,080410,,,A*78
$GPRMC,212901.9,A,3246.807795,N,11656.808071,W,43.7,105.2,080410,,,A*43
$GPRMC,212904.9,A,3246.793179,N,11656.762703,W,47.1,112.2,080410,,,A*45
$GPRMC,212907.9,A,3246.772239,N,11656.722684,W,46.1,122.3,080410,,,A*47
$GPRMC,212910.2,A,3246.751373,N,11656.695850,W,47.1,132.8,080410,,,A*45
$GPRMC,212913.9,A,3246.710869,N,11656.662845,W,46.7,146.2,080410,,,A*4A
$GPRMC,212916.9,A,3246.677721,N,11656.641201,W,45.0,151.1,080410,,,A*46
$GPRMC,212919.9,A,3246.647495,N,11656.620987,W,41.6,152.8,080410,,,A*4C
$GPRMC,212922.9,A,3246.616650,N,11656.602401,W,40.0,153.9,080410,,,A*4F
$GPRMC,212925.2,A,3246.595022,N,11656.589164,W,37.4,152.2,080410,,,A*40
$GPRMC,212928.9,A,3246.560744,N,11656.570867,W,36.5,153.4,080410,,,A*40
$GPRMC,212931.2,A,3246.537485,N,11656.560147,W,38.0,160.5,080410,,,A*4F
$GPRMC,212934.2,A,3246.507748,N,11656.546601,W,38.3,158.9,080410,,,A*4E
$GPRMC,212937.2,A,3246.478014,N,11656.532694,W,37.4,159.2,080410,,,A*47
$GPRMC,212940.2,A,3246.446902,N,11656.518547,W,38.8,162.9,080410,,,A*41
$GPRMC,212943.2,A,3246.413834,N,11656.509125,W,39.2,165.4,080410,,,A*47
$GPRMC,212946.2,A,3246.387208,N,11656.487325,W,39.0,145.6,080410,,,A*4A
$GPRMC,212949.9,A,3246.357411,N,11656.451313,W,40.5,134.9,080410,,,A*41
$GPRMC,212953.2,A,3246.332993,N,11656.417316,W,41.5,128.3,080410,,,A*44
$GPRMC,212956.9,A,3246.306734,N,11656.376529,W,39.9,127.1,080410,,,A*4A
$GPRMC,212959.2,A,3246.296255,N,11656.350265,W,37.9,114.1,080410,,,A*41
$GPRMC,213002.9,A,3246.290974,N,11656.308037,W,36.5,98.0,080410,,,A*73
$GPRMC,213006.2,A,3246.289917,N,11656.266910,W,35.5,94.7,080410,,,A*7C
$GPRMC,213009.2,A,3246.286327,N,11656.229957,W,35.9,100.9,080410,,,A*43
$GPRMC,213012.9,A,3246.277421,N,11656.189384,W,34.1,106.3,080410,,,A*45
$GPRMC,213015.9,A,3246.267523,N,11656.157847,W,35.4,111.7,080410,,,A*41
$GPRMC,213018.9,A,3246.251129,N,11656.123014,W,39.0,118.0,080410,,,A*4C
$GPRMC,213021.9,A,3246.233211,N,11656.087793,W,42.0,123.0,080410,,,A*49
$GPRMC,213024.9,A,3246.212401,N,11656.052700,W,43.6,124.9,080410,,,A*43
$GPRMC,213027.9,A,3246.191701,N,11656.017436,W,42.7,124.9,080410,,,A*4C
$GPRMC,213030.9,A,3246.172114,N,11655.983730,W,42.0,124.4,080410,,,A*4D
$GPRMC,213033.9,A,3246.154337,N,11655.949467,W,42.8,118.0,080410,,,A*4D
$GPRMC,213036.2,A,3246.145523,N,11655.917577,W,42.6,110.5,080410,,,A*48
$GPRMC,213039.9,A,3246.135326,N,11655.870471,W,38.6,110.2,080410,,,A*45
$GPRMC,213042.2,A,3246.130983,N,11655.840873,W,39.1,107.0,080410,,,A*4D
$GPRMC,213045.9,A,3246.133894,N,11655.789606,W,41.0,91.3,080410,,,A*70
$GPRMC,213048.9,A,3246.134207,N,11655.752117,W,36.0,92.9,080410,,,A*72
$GPRMC,213051.9,A,3246.131173,N,11655.720118,W,31.7,93.5,080410,,,A*78
$GPRMC,213054.9,A,3246.129209,N,11655.695936,W,23.0,92.1,080410,,,A*70
$GPRMC,213057.9,A,3246.130125,N,11655.688257,W,7.9,89.9,080410,,,A*4B
$GPRMC,213231.2,A,3246.132638,N,11655.679605,W,5.8,89.5,080410,,,A*49
$GPRMC,213234.9,A,3246.126721,N,11655.638444,W,22.4,102.6,080410,,,A*41
$GPRMC,213237.9,A,3246.118670,N,11655.597602,W,39.1,107.1,080410,,,A*41
$GPRMC,213240.9,A,3246.100219,N,11655.558574,W,41.5,118.6,080410,,,A*40
$GPRMC,213243.9,A,3246.076110,N,11655.522590,W,44.2,131.2,080410,,,A*43
$GPRMC,213246.9,A,3246.050432,N,11655.494318,W,42.3,138.4,080410,,,A*45
$GPRMC,213249.9,A,3246.022615,N,11655.467480,W,43.0,141.8,080410,,,A*42
$GPRMC,213252.9,A,3245.993426,N,11655.442459,W,41.8,143.8,080410,,,A*41
$GPRMC,213255.9,A,3245.966675,N,11655.420281,W,39.0,148.3,080410,,,A*48
$GPRMC,213258.9,A,3245.938070,N,11655.403015,W,39.3,154.0,080410,,,A*4E
$GPRMC,213301.9,A,3245.908027,N,11655.385610,W,40.8,153.1,080410,,,A*4B
