NMEA Sentence Code,UTC Time,Status,Latitude,Latitude Direction,Longitude,Longitude Direction,Speed (knots),Track Angle (degrees true),Date,MagneticVariation,Magnetic Variation Direction,[FAA Mode]-Optional,Checksum
$GPRMC,210927.000,A,3339.6543,N,11549.0261,W,56.00,274.30,171110,,,A*46
$GPRMC,210930.000,A,3339.6582,N,11549.0818,W,56.00,274.60,171110,,,A*4C
$GPRMC,210933.000,A,3339.6622,N,11549.1373,W,56.00,274.70,171110,,,A*40
$GPRMC,210936.000,A,3339.6662,N,11549.1932,W,56.00,274.40,171110,,,A*4D
$GPRMC,210939.000,A,3339.6699,N,11549.2489,W,56.00,274.10,171110,,,A*4D
$GPRMC,210942.000,A,3339.6730,N,11549.3045,W,55.90,273.80,171110,,,A*42
$GPRMC,210945.000,A,3339.6761,N,11549.3602,W,56.00,273.80,171110,,,A*4E
$GPRMC,210948.000,A,3339.6795,N,11549.4159,W,55.80,274.00,171110,,,A*42
$GPRMC,210951.000,A,3339.6830,N,11549.4713,W,55.90,274.30,171110,,,A*40
$GPRMC,210954.000,A,3339.6865,N,11549.5269,W,55.90,274.30,171110,,,A*4C
$GPRMC,210957.000,A,3339.6903,N,11549.5825,W,55.60,274.70,171110,,,A*47
$GPRMC,211000.000,A,3339.6936,N,11549.6380,W,55.70,274.40,171110,,,A*4E
$GPRMC,211003.000,A,3339.6970,N,11549.6936,W,55.80,274.50,171110,,,A*46
$GPRMC,211006.000,A,3339.7013,N,11549.7489,W,55.60,275.30,171110,,,A*4F
$GPRMC,211009.000,A,3339.7052,N,11549.8044,W,55.70,274.50,171110,,,A*49
$GPRMC,211012.000,A,3339.7087,N,11549.8599,W,55.80,274.60,171110,,,A*42
$GPRMC,211015.000,A,3339.7130,N,11549.9152,W,55.90,275.90,171110,,,A*45
$GPRMC,211018.000,A,3339.7176,N,11549.9708,W,55.90,275.30,171110,,,A*49
$GPRMC,211021.000,A,3339.7214,N,11550.0264,W,55.80,274.70,171110,,,A*4E
$GPRMC,211024.000,A,3339.7249,N,11550.0819,W,55.70,274.40,171110,,,A*4F
$GPRMC,211027.000,A,3339.7287,N,11550.1374,W,55.60,274.50,171110,,,A*4F
$GPRMC,211030.000,A,3339.7323,N,11550.1928,W,56.00,274.40,171110,,,A*41
$GPRMC,211033.000,A,3339.7359,N,11550.2484,W,55.70,274.40,171110,,,A*43
$GPRMC,211036.000,A,3339.7396,N,11550.3040,W,55.80,274.60,171110,,,A*45
$GPRMC,211039.000,A,3339.7434,N,11550.3596,W,55.70,274.40,171110,,,A*46
$GPRMC,211042.000,A,3339.7470,N,11550.4153,W,55.70,274.40,171110,,,A*40
$GPRMC,211045.000,A,3339.7507,N,11550.4706,W,55.60,274.70,171110,,,A*42
$GPRMC,211048.000,A,3339.7544,N,11550.5256,W,55.40,274.50,171110,,,A*49
$GPRMC,211051.000,A,3339.7580,N,11550.5807,W,55.40,274.30,171110,,,A*41
$GPRMC,211054.000,A,3339.7619,N,11550.6359,W,55.40,274.60,171110,,,A*41
$GPRMC,211057.000,A,3339.7655,N,11550.6910,W,55.40,274.60,171110,,,A*4D
$GPRMC,211100.000,A,3339.7691,N,11550.7460,W,55.30,274.70,171110,,,A*4B
$GPRMC,211103.000,A,3339.7729,N,11550.8009,W,55.40,274.40,171110,,,A*4A
$GPRMC,211106.000,A,3339.7764,N,11550.8560,W,55.30,274.50,171110,,,A*4A
$GPRMC,211109.000,A,3339.7800,N,11550.9110,W,55.30,274.50,171110,,,A*4A
$GPRMC,211112.000,A,3339.7837,N,11550.9661,W,55.30,274.60,171110,,,A*46
$GPRMC,211115.000,A,3339.7874,N,11551.0211,W,55.40,274.40,171110,,,A*48
$GPRMC,211118.000,A,3339.7910,N,11551.0762,W,55.30,274.70,171110,,,A*43
$GPRMC,211121.000,A,3339.7948,N,11551.1312,W,55.30,274.40,171110,,,A*45
$GPRMC,211124.000,A,3339.7983,N,11551.1862,W,55.30,274.50,171110,,,A*4A
$GPRMC,211127.000,A,3339.8019,N,11551.2411,W,55.20,274.50,171110,,,A*46
$GPRMC,211130.000,A,3339.8054,N,11551.2961,W,55.50,274.40,171110,,,A*45
$GPRMC,211133.000,A,3339.8088,N,11551.3512,W,55.20,274.30,171110,,,A*4E
$GPRMC,211136.000,A,3339.8125,N,11551.4060,W,54.90,274.50,171110,,,A*46
$GPRMC,211139.000,A,3339.8162,N,11551.4610,W,55.10,274.70,171110,,,A*40
$GPRMC,211142.000,A,3339.8199,N,11551.5161,W,55.40,274.50,171110,,,A*4F
$GPRMC,211145.000,A,3339.8233,N,11551.5710,W,55.40,274.50,171110,,,A*4B
$GPRMC,211148.000,A,3339.8270,N,11551.6262,W,55.30,274.50,171110,,,A*45
$GPRMC,211151.000,A,3339.8304,N,11551.6814,W,55.30,274.40,171110,,,A*45
$GPRMC,211154.000,A,3339.8342,N,11551.7363,W,55.30,274.60,171110,,,A*4A
$GPRMC,211157.000,A,3339.8379,N,11551.7912,W,55.30,274.60,171110,,,A*4D
$GPRMC,211200.000,A,3339.8414,N,11551.8462,W,55.30,274.30,171110,,,A*40
$GPRMC,211203.000,A,3339.8450,N,11551.9011,W,55.10,274.40,171110,,,A*47
$GPRMC,211206.000,A,3339.8487,N,11551.9561,W,55.20,274.70,171110,,,A*4A
$GPRMC,211209.000,A,3339.8524,N,11552.0111,W,55.20,274.60,171110,,,A*45
$GPRMC,211212.000,A,3339.8561,N,11552.0660,W,55.20,274.50,171110,,,A*4C
$GPRMC,211215.000,A,3339.8596,N,11552.1208,W,55.40,274.50,171110,,,A*4E
$GPRMC,211218.000,A,3339.8633,N,11552.1760,W,55.60,274.50,171110,,,A*46
$GPRMC,211221.000,A,3339.8670,N,11552.2313,W,55.50,274.50,171110,,,A*4B
$GPRMC,211224.000,A,3339.8706,N,11552.2867,W,55.70,274.40,171110,,,A*45
$GPRMC,211227.000,A,3339.8743,N,11552.3420,W,55.70,274.60,171110,,,A*4B
$GPRMC,211230.000,A,3339.8779,N,11552.3976,W,55.80,274.60,171110,,,A*45
$GPRMC,211233.000,A,3339.8818,N,11552.4531,W,55.70,274.50,171110,,,A*4A
$GPRMC,211236.000,A,3339.8854,N,11552.5084,W,55.50,274.60,171110,,,A*4C
$GPRMC,211239.000,A,3339.8891,N,11552.5636,W,55.40,274.50,171110,,,A*47
$GPRMC,211242.000,A,3339.8928,N,11552.6188,W,55.40,274.40,171110,,,A*48
$GPRMC,211245.000,A,3339.8963,N,11552.6739,W,55.30,274.50,171110,,,A*4A
$GPRMC,211248.000,A,3339.9000,N,11552.7290,W,55.30,274.50,171110,,,A*4D
$GPRMC,211251.000,A,3339.9036,N,11552.7840,W,55.30,274.60,171110,,,A*44
$GPRMC,211254.000,A,3339.9072,N,11552.8390,W,55.30,274.60,171110,,,A*48
$GPRMC,211257.000,A,3339.9108,N,11552.8941,W,55.30,274.50,171110,,,A*42
$GPRMC,211300.000,A,3339.9145,N,11552.9491,W,55.30,274.60,171110,,,A*4A
$GPRMC,211303.000,A,3339.9182,N,11553.0042,W,55.20,274.60,171110,,,A*41
$GPRMC,211306.000,A,3339.9219,N,11553.0593,W,55.30,274.60,171110,,,A*4D
$GPRMC,211309.000,A,3339.9255,N,11553.1143,W,55.20,274.20,171110,,,A*47
$GPRMC,211312.000,A,3339.9291,N,11553.1692,W,55.10,274.70,171110,,,A*48
$GPRMC,211315.000,A,3339.9332,N,11553.2238,W,55.10,275.60,171110,,,A*40
$GPRMC,211318.000,A,3339.9382,N,11553.2785,W,55.20,277.00,171110,,,A*42
$GPRMC,211321.000,A,3339.9447,N,11553.3330,W,55.20,279.10,171110,,,A*42
$GPRMC,211324.000,A,3339.9526,N,11553.3872,W,55.20,280.50,171110,,,A*4E
$GPRMC,211327.000,A,3339.9615,N,11553.4413,W,55.30,281.70,171110,,,A*40
$GPRMC,211330.000,A,3339.9708,N,11553.4955,W,55.60,281.50,171110,,,A*43
$GPRMC,211333.000,A,3339.9803,N,11553.5495,W,55.30,281.80,171110,,,A*4C
$GPRMC,211336.000,A,3339.9900,N,11553.6035,W,55.20,282.00,171110,,,A*4C
$GPRMC,211339.000,A,3339.9993,N,11553.6574,W,55.20,281.40,171110,,,A*4E
$GPRMC,211342.000,A,3340.0084,N,11553.7112,W,55.10,281.50,171110,,,A*4D
$GPRMC,211345.000,A,3340.0177,N,11553.7650,W,55.20,281.80,171110,,,A*48
$GPRMC,211348.000,A,3340.0270,N,11553.8190,W,55.40,281.70,171110,,,A*4C
$GPRMC,211351.000,A,3340.0361,N,11553.8731,W,55.30,281.50,171110,,,A*4D
$GPRMC,211354.000,A,3340.0451,N,11553.9269,W,55.00,281.30,171110,,,A*40
$GPRMC,211357.000,A,3340.0541,N,11553.9808,W,55.20,281.70,171110,,,A*48
$GPRMC,211400.000,A,3340.0634,N,11554.0345,W,55.00,281.50,171110,,,A*40
$GPRMC,211403.000,A,3340.0730,N,11554.0880,W,54.80,281.50,171110,,,A*4D
$GPRMC,211406.000,A,3340.0826,N,11554.1418,W,55.40,281.60,171110,,,A*42
$GPRMC,211409.000,A,3340.0919,N,11554.1961,W,55.60,281.50,171110,,,A*42
$GPRMC,211412.000,A,3340.1012,N,11554.2504,W,55.70,281.80,171110,,,A*4B
$GPRMC,211415.000,A,3340.1103,N,11554.3051,W,55.60,281.50,171110,,,A*45
$GPRMC,211418.000,A,3340.1193,N,11554.3597,W,55.90,281.60,171110,,,A*42
$GPRMC,211421.000,A,3340.1286,N,11554.4141,W,55.50,281.70,171110,,,A*4A
$GPRMC,211424.000,A,3340.1380,N,11554.4689,W,55.90,281.60,171110,,,A*46
$GPRMC,211427.000,A,3340.1473,N,11554.5234,W,55.60,281.80,171110,,,A*4C
$GPRMC,211430.000,A,3340.1570,N,11554.5781,W,55.80,281.50,171110,,,A*40
$GPRMC,211433.000,A,3340.1661,N,11554.6330,W,55.40,281.70,171110,,,A*43
$GPRMC,211436.000,A,3340.1754,N,11554.6872,W,55.80,281.80,171110,,,A*4F
$GPRMC,211439.000,A,3340.1848,N,11554.7421,W,55.90,281.80,171110,,,A*48
$GPRMC,211442.000,A,3340.1940,N,11554.7968,W,56.10,281.70,171110,,,A*49
$GPRMC,211445.000,A,3340.2032,N,11554.8517,W,56.10,281.40,171110,,,A*49
$GPRMC,211448.000,A,3340.2123,N,11554.9062,W,56.00,280.50,171110,,,A*42
$GPRMC,211451.000,A,3340.2212,N,11554.9610,W,55.90,280.30,171110,,,A*44
$GPRMC,211454.000,A,3340.2301,N,11555.0157,W,55.80,281.50,171110,,,A*48
$GPRMC,211457.000,A,3340.2391,N,11555.0700,W,55.20,281.00,171110,,,A*49
$GPRMC,211500.000,A,3340.2485,N,11555.1237,W,54.90,281.60,171110,,,A*44
$GPRMC,211503.000,A,3340.2580,N,11555.1775,W,55.10,281.70,171110,,,A*48
$GPRMC,211506.000,A,3340.2673,N,11555.2317,W,55.10,281.60,171110,,,A*40
$GPRMC,211509.000,A,3340.2764,N,11555.2858,W,55.40,280.90,171110,,,A*43
$GPRMC,211512.000,A,3340.2853,N,11555.3400,W,55.20,281.70,171110,,,A*4B
$GPRMC,211515.000,A,3340.2944,N,11555.3937,W,55.00,281.40,171110,,,A*43
$GPRMC,211518.000,A,3340.3036,N,11555.4479,W,55.20,281.30,171110,,,A*46
$GPRMC,211521.000,A,3340.3132,N,11555.5020,W,55.30,281.50,171110,,,A*47
$GPRMC,211524.000,A,3340.3231,N,11555.5557,W,55.20,283.00,171110,,,A*41
$GPRMC,211527.000,A,3340.3336,N,11555.6093,W,55.20,282.60,171110,,,A*4D
$GPRMC,211530.000,A,3340.3434,N,11555.6631,W,55.20,281.70,171110,,,A*42
$GPRMC,211533.000,A,3340.3524,N,11555.7172,W,55.20,281.50,171110,,,A*42
$GPRMC,211536.000,A,3340.3620,N,11555.7709,W,54.80,282.10,171110,,,A*46
$GPRMC,211539.000,A,3340.3714,N,11555.8247,W,55.00,281.40,171110,,,A*40
$GPRMC,211542.000,A,3340.3807,N,11555.8782,W,54.40,281.90,171110,,,A*45
$GPRMC,211545.000,A,3340.3901,N,11555.9319,W,54.90,281.60,171110,,,A*40
$GPRMC,211548.000,A,3340.3995,N,11555.9857,W,55.00,281.50,171110,,,A*4A
$GPRMC,211551.000,A,3340.4088,N,11556.0395,W,55.00,281.60,171110,,,A*4C
$GPRMC,211554.000,A,3340.4180,N,11556.0933,W,54.90,281.40,171110,,,A*4C
$GPRMC,211557.000,A,3340.4271,N,11556.1472,W,55.00,281.80,171110,,,A*4F
$GPRMC,211600.000,A,3340.4363,N,11556.2009,W,55.00,281.90,171110,,,A*46
$GPRMC,211603.000,A,3340.4456,N,11556.2543,W,54.90,281.50,171110,,,A*4B
$GPRMC,211606.000,A,3340.4547,N,11556.3080,W,55.00,281.50,171110,,,A*4C
$GPRMC,211609.000,A,3340.4640,N,11556.3619,W,54.90,281.70,171110,,,A*4B
$GPRMC,211612.000,A,3340.4733,N,11556.4158,W,55.00,281.60,171110,,,A*48
$GPRMC,211615.000,A,3340.4826,N,11556.4696,W,55.30,281.80,171110,,,A*4C
$GPRMC,211618.000,A,3340.4918,N,11556.5236,W,54.90,281.70,171110,,,A*46
$GPRMC,211621.000,A,3340.5011,N,11556.5771,W,55.00,281.80,171110,,,A*4C
$GPRMC,211624.000,A,3340.5106,N,11556.6310,W,55.40,281.90,171110,,,A*4B
$GPRMC,211627.000,A,3340.5201,N,11556.6848,W,54.90,282.20,171110,,,A*4E
$GPRMC,211630.000,A,3340.5292,N,11556.7386,W,54.90,281.60,171110,,,A*4D
$GPRMC,211633.000,A,3340.5379,N,11556.7924,W,55.00,281.40,171110,,,A*42
$GPRMC,211636.000,A,3340.5470,N,11556.8460,W,55.30,281.90,171110,,,A*45
$GPRMC,211639.000,A,3340.5561,N,11556.9001,W,55.60,281.40,171110,,,A*41
$GPRMC,211642.000,A,3340.5650,N,11556.9542,W,55.40,281.80,171110,,,A*40
$GPRMC,211645.000,A,3340.5737,N,11557.0081,W,55.10,281.40,171110,,,A*4C
$GPRMC,211648.000,A,3340.5831,N,11557.0620,W,55.20,281.50,171110,,,A*47
$GPRMC,211651.000,A,3340.5922,N,11557.1162,W,55.60,281.60,171110,,,A*4B
$GPRMC,211654.000,A,3340.6012,N,11557.1700,W,54.90,281.60,171110,,,A*4B
$GPRMC,211657.000,A,3340.6103,N,11557.2240,W,54.90,281.90,171110,,,A*44
$GPRMC,211700.000,A,3340.6194,N,11557.2776,W,55.30,281.60,171110,,,A*4D
$GPRMC,211703.000,A,3340.6282,N,11557.3316,W,54.90,281.50,171110,,,A*41
$GPRMC,211706.000,A,3340.6372,N,11557.3855,W,55.10,281.40,171110,,,A*4E
$GPRMC,211709.000,A,3340.6463,N,11557.4394,W,55.20,281.70,171110,,,A*47
$GPRMC,211712.000,A,3340.6551,N,11557.4938,W,55.40,280.70,171110,,,A*46
$GPRMC,211715.000,A,3340.6642,N,11557.5479,W,55.20,281.70,171110,,,A*4E
$GPRMC,211718.000,A,3340.6731,N,11557.6016,W,55.20,281.50,171110,,,A*4A
$GPRMC,211721.000,A,3340.6821,N,11557.6557,W,55.40,281.70,171110,,,A*4A
$GPRMC,211724.000,A,3340.6911,N,11557.7101,W,55.40,281.50,171110,,,A*49
$GPRMC,211727.000,A,3340.7002,N,11557.7642,W,55.40,281.60,171110,,,A*43
$GPRMC,211730.000,A,3340.7093,N,11557.8184,W,55.30,281.60,171110,,,A*48
$GPRMC,211733.000,A,3340.7186,N,11557.8726,W,55.20,281.80,171110,,,A*4F
$GPRMC,211736.000,A,3340.7278,N,11557.9267,W,55.20,281.70,171110,,,A*46
$GPRMC,211739.000,A,3340.7371,N,11557.9806,W,55.30,281.40,171110,,,A*4E
$GPRMC,211742.000,A,3340.7460,N,11558.0347,W,55.40,281.60,171110,,,A*48
$GPRMC,211745.000,A,3340.7554,N,11558.0889,W,55.30,281.60,171110,,,A*47
$GPRMC,211748.000,A,3340.7649,N,11558.1428,W,55.30,281.70,171110,,,A*42
$GPRMC,211751.000,A,3340.7741,N,11558.1971,W,55.30,281.60,171110,,,A*43
$GPRMC,211754.000,A,3340.7834,N,11558.2513,W,55.30,281.40,171110,,,A*42
$GPRMC,211757.000,A,3340.7927,N,11558.3053,W,55.20,281.80,171110,,,A*4F
$GPRMC,211800.000,A,3340.8021,N,11558.3598,W,56.00,281.80,171110,,,A*41
$GPRMC,211803.000,A,3340.8110,N,11558.4143,W,55.40,280.40,171110,,,A*4E
$GPRMC,211806.000,A,3340.8169,N,11558.4692,W,55.40,275.10,171110,,,A*41
$GPRMC,211809.000,A,3340.8200,N,11558.5245,W,55.40,271.90,171110,,,A*41
$GPRMC,211812.000,A,3340.8204,N,11558.5797,W,55.40,269.20,171110,,,A*47
$GPRMC,211815.000,A,3340.8194,N,11558.6349,W,55.10,268.20,171110,,,A*4A
$GPRMC,211818.000,A,3340.8173,N,11558.6897,W,55.00,267.00,171110,,,A*4A
$GPRMC,211821.000,A,3340.8155,N,11558.7446,W,55.20,267.10,171110,,,A*46
$GPRMC,211824.000,A,3340.8127,N,11558.7996,W,55.30,266.50,171110,,,A*42
$GPRMC,211827.000,A,3340.8096,N,11558.8544,W,55.20,266.40,171110,,,A*46
$GPRMC,211830.000,A,3340.8076,N,11558.9100,W,55.50,266.90,171110,,,A*41
$GPRMC,211833.000,A,3340.8050,N,11558.9650,W,55.60,266.80,171110,,,A*46
$GPRMC,211836.000,A,3340.8025,N,11559.0206,W,55.80,266.60,171110,,,A*4E
$GPRMC,211839.000,A,3340.7999,N,11559.0764,W,56.20,266.90,171110,,,A*47
$GPRMC,211842.000,A,3340.7975,N,11559.1327,W,56.20,267.40,171110,,,A*47
$GPRMC,211845.000,A,3340.7954,N,11559.1892,W,56.20,267.50,171110,,,A*47
$GPRMC,211848.000,A,3340.7935,N,11559.2454,W,56.30,267.40,171110,,,A*48
$GPRMC,211851.000,A,3340.7911,N,11559.3016,W,56.40,266.70,171110,,,A*40
$GPRMC,211854.000,A,3340.7883,N,11559.3578,W,56.80,266.90,171110,,,A*40
$GPRMC,211857.000,A,3340.7856,N,11559.4144,W,56.80,266.80,171110,,,A*46
$GPRMC,211900.000,A,3340.7830,N,11559.4713,W,57.20,267.00,171110,,,A*43
$GPRMC,211903.000,A,3340.7807,N,11559.5284,W,57.10,267.20,171110,,,A*4F
$GPRMC,211906.000,A,3340.7778,N,11559.5853,W,56.80,266.30,171110,,,A*45
$GPRMC,211909.000,A,3340.7756,N,11559.6420,W,56.90,267.60,171110,,,A*48
$GPRMC,211912.000,A,3340.7764,N,11559.6989,W,57.00,272.90,171110,,,A*4E
$GPRMC,211915.000,A,3340.7814,N,11559.7555,W,57.00,279.20,171110,,,A*4D
$GPRMC,211918.000,A,3340.7912,N,11559.8115,W,57.20,283.30,171110,,,A*4E
$GPRMC,211921.000,A,3340.8041,N,11559.8665,W,56.90,285.30,171110,,,A*48
$GPRMC,211924.000,A,3340.8167,N,11559.9210,W,56.70,285.30,171110,,,A*41
$GPRMC,211927.000,A,3340.8294,N,11559.9755,W,56.70,285.20,171110,,,A*48
$GPRMC,211930.000,A,3340.8419,N,11600.0296,W,56.50,285.20,171110,,,A*43
$GPRMC,211933.000,A,3340.8542,N,11600.0839,W,56.40,284.80,171110,,,A*4A
$GPRMC,211936.000,A,3340.8665,N,11600.1380,W,56.40,285.10,171110,,,A*49
$GPRMC,211939.000,A,3340.8785,N,11600.1921,W,56.30,284.90,171110,,,A*46
$GPRMC,211942.000,A,3340.8911,N,11600.2466,W,56.20,285.10,171110,,,A*4C
$GPRMC,211945.000,A,3340.9032,N,11600.3002,W,56.20,285.00,171110,,,A*44
$GPRMC,211948.000,A,3340.9152,N,11600.3543,W,56.20,285.10,171110,,,A*4F
$GPRMC,211951.000,A,3340.9275,N,11600.4083,W,56.10,285.00,171110,,,A*4D
$GPRMC,211954.000,A,3340.9399,N,11600.4623,W,56.00,285.00,171110,,,A*46
$GPRMC,211957.000,A,3340.9519,N,11600.5158,W,55.70,284.80,171110,,,A*4C
$GPRMC,212000.000,A,3340.9638,N,11600.5696,W,55.50,284.70,171110,,,A*4C
$GPRMC,212003.000,A,3340.9752,N,11600.6244,W,55.50,284.60,171110,,,A*4B
$GPRMC,212006.000,A,3340.9869,N,11600.6783,W,55.60,284.90,171110,,,A*4B
$GPRMC,212009.000,A,3340.9989,N,11600.7325,W,55.70,284.90,171110,,,A*43
$GPRMC,212012.000,A,3341.0109,N,11600.7871,W,55.60,284.80,171110,,,A*4B
$GPRMC,212015.000,A,3341.0225,N,11600.8407,W,55.40,284.80,171110,,,A*41
$GPRMC,212018.000,A,3341.0345,N,11600.8944,W,55.50,284.60,171110,,,A*4E
$GPRMC,212021.000,A,3341.0463,N,11600.9484,W,55.70,284.80,171110,,,A*4B
$GPRMC,212024.000,A,3341.0584,N,11601.0026,W,55.90,285.10,171110,,,A*44
$GPRMC,212027.000,A,3341.0705,N,11601.0562,W,55.90,285.00,171110,,,A*48
$GPRMC,212030.000,A,3341.0819,N,11601.1101,W,56.00,284.70,171110,,,A*40
$GPRMC,212033.000,A,3341.0943,N,11601.1645,W,56.00,285.10,171110,,,A*4D
$GPRMC,212036.000,A,3341.1061,N,11601.2187,W,56.10,285.00,171110,,,A*4A
$GPRMC,212039.000,A,3341.1181,N,11601.2726,W,56.00,285.00,171110,,,A*46
$GPRMC,212042.000,A,3341.1302,N,11601.3265,W,56.00,285.20,171110,,,A*42
$GPRMC,212045.000,A,3341.1428,N,11601.3805,W,56.10,285.30,171110,,,A*46
$GPRMC,212048.000,A,3341.1553,N,11601.4349,W,56.40,285.90,171110,,,A*4D
$GPRMC,212051.000,A,3341.1681,N,11601.4903,W,57.30,286.30,171110,,,A*42
$GPRMC,212054.000,A,3341.1821,N,11601.5455,W,57.80,287.10,171110,,,A*44
$GPRMC,212057.000,A,3341.1965,N,11601.6011,W,58.10,287.50,171110,,,A*43
$GPRMC,212100.000,A,3341.2107,N,11601.6559,W,57.70,287.00,171110,,,A*4A
$GPRMC,212103.000,A,3341.2247,N,11601.7105,W,56.90,287.20,171110,,,A*4F
$GPRMC,212106.000,A,3341.2381,N,11601.7647,W,56.80,287.10,171110,,,A*42
$GPRMC,212109.000,A,3341.2519,N,11601.8185,W,56.00,287.20,171110,,,A*47
$GPRMC,212112.000,A,3341.2652,N,11601.8723,W,56.20,286.60,171110,,,A*4C
$GPRMC,212115.000,A,3341.2789,N,11601.9257,W,55.80,287.10,171110,,,A*44
$GPRMC,212118.000,A,3341.2926,N,11601.9794,W,55.80,287.00,171110,,,A*49
$GPRMC,212121.000,A,3341.3062,N,11602.0331,W,56.40,286.50,171110,,,A*41
$GPRMC,212124.000,A,3341.3198,N,11602.0865,W,56.10,286.90,171110,,,A*43
$GPRMC,212127.000,A,3341.3336,N,11602.1410,W,56.70,287.40,171110,,,A*43
$GPRMC,212130.000,A,3341.3471,N,11602.1947,W,56.40,286.80,171110,,,A*40
$GPRMC,212133.000,A,3341.3607,N,11602.2487,W,56.50,286.70,171110,,,A*4C
$GPRMC,212136.000,A,3341.3745,N,11602.3026,W,56.40,286.90,171110,,,A*4F
$GPRMC,212139.000,A,3341.3882,N,11602.3574,W,56.70,287.10,171110,,,A*4C
$GPRMC,212142.000,A,3341.4019,N,11602.4119,W,56.40,287.10,171110,,,A*46
$GPRMC,212145.000,A,3341.4155,N,11602.4670,W,56.90,286.60,171110,,,A*4B
$GPRMC,212148.000,A,3341.4295,N,11602.5220,W,57.50,287.10,171110,,,A*42
$GPRMC,212151.000,A,3341.4434,N,11602.5781,W,57.40,286.90,171110,,,A*41
$GPRMC,212154.000,A,3341.4572,N,11602.6329,W,56.60,287.30,171110,,,A*4A
$GPRMC,212157.000,A,3341.4709,N,11602.6874,W,56.80,286.90,171110,,,A*41
$GPRMC,212200.000,A,3341.4844,N,11602.7424,W,57.00,287.10,171110,,,A*4E
$GPRMC,212203.000,A,3341.4984,N,11602.7977,W,57.20,287.10,171110,,,A*49
$GPRMC,212206.000,A,3341.5122,N,11602.8531,W,57.70,286.90,171110,,,A*44
$GPRMC,212209.000,A,3341.5262,N,11602.9087,W,58.00,287.10,171110,,,A*44
$GPRMC,212212.000,A,3341.5415,N,11602.9634,W,57.50,289.50,171110,,,A*46
$GPRMC,212215.000,A,3341.5605,N,11603.0168,W,58.10,294.80,171110,,,A*4E
$GPRMC,212219.000,A,3341.5925,N,11603.0841,W,58.50,300.80,171110,,,A*45
$GPRMC,212222.000,A,3341.6183,N,11603.1344,W,58.60,301.10,171110,,,A*4E
$GPRMC,212225.000,A,3341.6438,N,11603.1849,W,58.50,301.10,171110,,,A*49
$GPRMC,212228.000,A,3341.6694,N,11603.2352,W,58.60,301.30,171110,,,A*43
$GPRMC,212231.000,A,3341.6950,N,11603.2855,W,58.60,301.20,171110,,,A*41
$GPRMC,212234.000,A,3341.7204,N,11603.3358,W,58.60,301.10,171110,,,A*4B
$GPRMC,212237.000,A,3341.7460,N,11603.3862,W,58.60,301.00,171110,,,A*4F
$GPRMC,212240.000,A,3341.7714,N,11603.4365,W,58.60,301.00,171110,,,A*44
$GPRMC,212243.000,A,3341.7967,N,11603.4868,W,58.60,301.00,171110,,,A*4B
$GPRMC,212246.000,A,3341.8222,N,11603.5370,W,58.60,301.50,171110,,,A*4D
$GPRMC,212249.000,A,3341.8478,N,11603.5872,W,58.60,301.20,171110,,,A*45
$GPRMC,212252.000,A,3341.8729,N,11603.6377,W,58.70,300.70,171110,,,A*40
$GPRMC,212255.000,A,3341.8974,N,11603.6881,W,58.20,299.80,171110,,,A*48
$GPRMC,212258.000,A,3341.9196,N,11603.7390,W,57.30,297.00,171110,,,A*42
$GPRMC,212301.000,A,3341.9390,N,11603.7902,W,55.90,293.60,171110,,,A*40
$GPRMC,212304.000,A,3341.9554,N,11603.8428,W,55.90,290.00,171110,,,A*44
$GPRMC,212307.000,A,3341.9700,N,11603.8960,W,56.30,288.00,171110,,,A*45
$GPRMC,212312.000,A,3341.9884,N,11603.9860,W,55.90,282.60,171110,,,A*47
$GPRMC,212315.000,A,3341.9978,N,11604.0406,W,56.00,280.90,171110,,,A*47
$GPRMC,212318.000,A,3342.0036,N,11604.0962,W,56.30,275.70,171110,,,A*4B
$GPRMC,212321.000,A,3342.0075,N,11604.1535,W,56.70,274.30,171110,,,A*48
$GPRMC,212324.000,A,3342.0108,N,11604.2103,W,56.60,274.60,171110,,,A*40
$GPRMC,212327.000,A,3342.0136,N,11604.2671,W,57.20,274.00,171110,,,A*4F
$GPRMC,212330.000,A,3342.0179,N,11604.3258,W,58.40,274.80,171110,,,A*4D
$GPRMC,212331.000,A,3342.0192,N,11604.3451,W,58.40,274.80,171110,,,A*46
$GPRMC,212339.000,A,3342.0309,N,11604.5009,W,57.00,274.50,171110,,,A*47
$GPRMC,212342.000,A,3342.0356,N,11604.5581,W,56.90,275.00,171110,,,A*48
$GPRMC,212345.000,A,3342.0404,N,11604.6137,W,54.80,274.90,171110,,,A*4E
$GPRMC,212348.000,A,3342.0443,N,11604.6671,W,53.50,275.20,171110,,,A*45
$GPRMC,212351.000,A,3342.0470,N,11604.7196,W,52.70,274.30,171110,,,A*41
$GPRMC,212354.000,A,3342.0500,N,11604.7713,W,52.10,273.70,171110,,,A*4C
$GPRMC,212357.000,A,3342.0521,N,11604.8222,W,51.00,271.40,171110,,,A*47
$GPRMC,212400.000,A,3342.0505,N,11604.8718,W,49.80,266.70,171110,,,A*4C
$GPRMC,212403.000,A,3342.0472,N,11604.9231,W,52.60,263.60,171110,,,A*41
$GPRMC,212406.000,A,3342.0416,N,11604.9771,W,55.70,262.60,171110,,,A*40
$GPRMC,212409.000,A,3342.0368,N,11605.0351,W,57.30,264.70,171110,,,A*4E
$GPRMC,212412.000,A,3342.0329,N,11605.0930,W,57.80,264.60,171110,,,A*46
$GPRMC,212415.000,A,3342.0276,N,11605.1509,W,57.90,263.10,171110,,,A*4C
$GPRMC,212418.000,A,3342.0198,N,11605.2086,W,58.00,260.90,171110,,,A*4E
$GPRMC,212421.000,A,3342.0118,N,11605.2653,W,57.30,260.30,171110,,,A*44
$GPRMC,212424.000,A,3342.0037,N,11605.3204,W,55.90,261.30,171110,,,A*43
$GPRMC,212427.000,A,3341.9960,N,11605.3744,W,55.70,261.20,171110,,,A*4F
$GPRMC,212430.000,A,3341.9885,N,11605.4291,W,54.90,260.70,171110,,,A*42
$GPRMC,212433.000,A,3341.9809,N,11605.4826,W,54.40,261.10,171110,,,A*49
$GPRMC,212436.000,A,3341.9735,N,11605.5365,W,54.70,261.10,171110,,,A*42
$GPRMC,212439.000,A,3341.9666,N,11605.5904,W,54.80,260.60,171110,,,A*4E
$GPRMC,212442.000,A,3341.9593,N,11605.6446,W,54.20,260.70,171110,,,A*48
$GPRMC,212445.000,A,3341.9522,N,11605.6979,W,53.50,261.20,171110,,,A*40
$GPRMC,212448.000,A,3341.9452,N,11605.7506,W,52.90,260.70,171110,,,A*47
$GPRMC,212451.000,A,3341.9385,N,11605.8019,W,52.30,260.90,171110,,,A*42
$GPRMC,212454.000,A,3341.9316,N,11605.8529,W,51.90,260.60,171110,,,A*4D
$GPRMC,212457.000,A,3341.9246,N,11605.9045,W,53.00,260.80,171110,,,A*41
$GPRMC,212500.000,A,3341.9177,N,11605.9566,W,53.10,262.20,171110,,,A*4E
$GPRMC,212503.000,A,3341.9123,N,11606.0098,W,54.10,264.50,171110,,,A*44
$GPRMC,212506.000,A,3341.9091,N,11606.0639,W,54.20,266.90,171110,,,A*49
$GPRMC,212509.000,A,3341.9099,N,11606.1182,W,55.20,273.20,171110,,,A*46
$GPRMC,212512.000,A,3341.9141,N,11606.1725,W,55.00,277.30,171110,,,A*44
$GPRMC,212515.000,A,3341.9216,N,11606.2257,W,54.00,280.00,171110,,,A*4B
$GPRMC,212518.000,A,3341.9304,N,11606.2774,W,52.60,282.40,171110,,,A*46
$GPRMC,212521.000,A,3341.9402,N,11606.3296,W,54.30,282.80,171110,,,A*4A
$GPRMC,212524.000,A,3341.9503,N,11606.3833,W,55.70,282.70,171110,,,A*40
$GPRMC,212527.000,A,3341.9602,N,11606.4378,W,55.60,282.40,171110,,,A*40
$GPRMC,212530.000,A,3341.9704,N,11606.4930,W,57.00,282.80,171110,,,A*4F
$GPRMC,212533.000,A,3341.9809,N,11606.5489,W,57.30,282.80,171110,,,A*43
$GPRMC,212536.000,A,3341.9915,N,11606.6049,W,57.30,282.60,171110,,,A*4F
$GPRMC,212539.000,A,3342.0021,N,11606.6609,W,57.30,282.50,171110,,,A*45
$GPRMC,212542.000,A,3342.0122,N,11606.7166,W,57.10,282.40,171110,,,A*47
$GPRMC,212545.000,A,3342.0228,N,11606.7726,W,57.10,282.40,171110,,,A*4B
$GPRMC,212548.000,A,3342.0339,N,11606.8288,W,57.10,283.00,171110,,,A*4C
$GPRMC,212551.000,A,3342.0445,N,11606.8841,W,57.00,282.90,171110,,,A*4E
$GPRMC,212554.000,A,3342.0550,N,11606.9388,W,56.10,282.60,171110,,,A*4E
$GPRMC,212557.000,A,3342.0652,N,11606.9933,W,55.80,282.80,171110,,,A*42
$GPRMC,212600.000,A,3342.0758,N,11607.0478,W,56.00,282.80,171110,,,A*49
$GPRMC,212603.000,A,3342.0860,N,11607.1027,W,56.30,282.20,171110,,,A*48
$GPRMC,212606.000,A,3342.0964,N,11607.1574,W,55.80,282.70,171110,,,A*46
$GPRMC,212609.000,A,3342.1069,N,11607.2115,W,55.60,282.40,171110,,,A*41
$GPRMC,212612.000,A,3342.1172,N,11607.2662,W,56.10,282.10,171110,,,A*46
$GPRMC,212615.000,A,3342.1278,N,11607.3210,W,55.90,282.80,171110,,,A*4A
$GPRMC,212618.000,A,3342.1383,N,11607.3760,W,56.20,282.60,171110,,,A*46
$GPRMC,212621.000,A,3342.1491,N,11607.4312,W,55.90,282.60,171110,,,A*46
$GPRMC,212624.000,A,3342.1591,N,11607.4870,W,56.60,282.00,171110,,,A*47
$GPRMC,212627.000,A,3342.1696,N,11607.5422,W,56.20,282.50,171110,,,A*4B
$GPRMC,212630.000,A,3342.1799,N,11607.5979,W,56.40,282.70,171110,,,A*44
$GPRMC,212633.000,A,3342.1923,N,11607.6531,W,57.10,286.40,171110,,,A*48
$GPRMC,212636.000,A,3342.2065,N,11607.7069,W,55.80,288.70,171110,,,A*4A
$GPRMC,212639.000,A,3342.2231,N,11607.7584,W,56.00,290.90,171110,,,A*4C
$GPRMC,212642.000,A,3342.2405,N,11607.8098,W,55.60,291.70,171110,,,A*4C
$GPRMC,212645.000,A,3342.2580,N,11607.8608,W,55.70,292.20,171110,,,A*4F
$GPRMC,212648.000,A,3342.2755,N,11607.9122,W,55.40,292.00,171110,,,A*47
$GPRMC,212651.000,A,3342.2928,N,11607.9636,W,55.60,291.70,171110,,,A*4F
$GPRMC,212654.000,A,3342.3093,N,11608.0155,W,55.50,289.50,171110,,,A*4E
$GPRMC,212657.000,A,3342.3246,N,11608.0679,W,55.40,288.60,171110,,,A*4D
$GPRMC,212700.000,A,3342.3396,N,11608.1205,W,55.10,288.60,171110,,,A*49
$GPRMC,212703.000,A,3342.3541,N,11608.1726,W,54.90,288.70,171110,,,A*4A
$GPRMC,212706.000,A,3342.3693,N,11608.2252,W,55.40,288.30,171110,,,A*4E
$GPRMC,212709.000,A,3342.3841,N,11608.2777,W,55.30,288.50,171110,,,A*43
$GPRMC,212712.000,A,3342.3990,N,11608.3313,W,56.00,288.70,171110,,,A*41
$GPRMC,212715.000,A,3342.4139,N,11608.3848,W,56.20,288.60,171110,,,A*4C
$GPRMC,212718.000,A,3342.4284,N,11608.4381,W,55.90,288.30,171110,,,A*40
$GPRMC,212721.000,A,3342.4434,N,11608.4904,W,55.60,288.60,171110,,,A*4A
$GPRMC,212724.000,A,3342.4583,N,11608.5433,W,55.50,288.70,171110,,,A*48
$GPRMC,212727.000,A,3342.4732,N,11608.5956,W,54.90,289.10,171110,,,A*47
$GPRMC,212730.000,A,3342.4876,N,11608.6479,W,54.80,288.20,171110,,,A*4E
$GPRMC,212733.000,A,3342.5022,N,11608.7001,W,54.80,288.40,171110,,,A*49
$GPRMC,212736.000,A,3342.5175,N,11608.7525,W,55.10,289.00,171110,,,A*41
$GPRMC,212739.000,A,3342.5324,N,11608.8053,W,55.80,288.60,171110,,,A*4D
$GPRMC,212742.000,A,3342.5474,N,11608.8579,W,55.60,289.10,171110,,,A*46
$GPRMC,212745.000,A,3342.5632,N,11608.9106,W,55.90,289.50,171110,,,A*47
$GPRMC,212748.000,A,3342.5787,N,11608.9631,W,55.90,289.50,171110,,,A*46
$GPRMC,212751.000,A,3342.5947,N,11609.0155,W,55.90,290.10,171110,,,A*4D
$GPRMC,212754.000,A,3342.6107,N,11609.0681,W,55.90,289.90,171110,,,A*49
$GPRMC,212757.000,A,3342.6264,N,11609.1205,W,55.80,289.70,171110,,,A*4A
$GPRMC,212800.000,A,3342.6423,N,11609.1730,W,55.70,289.90,171110,,,A*40
$GPRMC,212803.000,A,3342.6582,N,11609.2252,W,55.50,289.80,171110,,,A*48
$GPRMC,212806.000,A,3342.6741,N,11609.2776,W,55.60,289.80,171110,,,A*40
$GPRMC,212809.000,A,3342.6899,N,11609.3297,W,55.10,290.10,171110,,,A*48
$GPRMC,212812.000,A,3342.7058,N,11609.3820,W,55.50,290.00,171110,,,A*45
$GPRMC,212815.000,A,3342.7212,N,11609.4339,W,54.90,289.60,171110,,,A*49
$GPRMC,212818.000,A,3342.7367,N,11609.4857,W,55.00,289.50,171110,,,A*4F
$GPRMC,212821.000,A,3342.7525,N,11609.5375,W,54.70,289.70,171110,,,A*4B
$GPRMC,212824.000,A,3342.7674,N,11609.5888,W,54.50,289.40,171110,,,A*41
$GPRMC,212827.000,A,3342.7827,N,11609.6403,W,54.40,289.40,171110,,,A*47
$GPRMC,212830.000,A,3342.7976,N,11609.6917,W,54.40,289.30,171110,,,A*4B
$GPRMC,212833.000,A,3342.8129,N,11609.7433,W,54.60,289.60,171110,,,A*48
$GPRMC,212836.000,A,3342.8283,N,11609.7950,W,55.10,289.20,171110,,,A*44
$GPRMC,212839.000,A,3342.8440,N,11609.8467,W,54.70,289.50,171110,,,A*44
$GPRMC,212842.000,A,3342.8598,N,11609.8981,W,54.60,289.60,171110,,,A*4B
$GPRMC,212845.000,A,3342.8757,N,11609.9496,W,54.60,289.00,171110,,,A*41
$GPRMC,212848.000,A,3342.8885,N,11610.0024,W,54.50,285.20,171110,,,A*4D
$GPRMC,212851.000,A,3342.8988,N,11610.0556,W,54.10,281.60,171110,,,A*4D
$GPRMC,212854.000,A,3342.9064,N,11610.1099,W,54.60,277.40,171110,,,A*49
$GPRMC,212857.000,A,3342.9108,N,11610.1649,W,54.50,274.70,171110,,,A*49
$GPRMC,212900.000,A,3342.9116,N,11610.2190,W,54.20,270.50,171110,,,A*44
$GPRMC,212903.000,A,3342.9120,N,11610.2736,W,54.30,269.90,171110,,,A*4D
$GPRMC,212906.000,A,3342.9122,N,11610.3284,W,54.30,269.90,171110,,,A*47
$GPRMC,212909.000,A,3342.9123,N,11610.3831,W,54.60,269.80,171110,,,A*49
$GPRMC,212912.000,A,3342.9124,N,11610.4382,W,54.80,270.20,171110,,,A*4C
$GPRMC,212915.000,A,3342.9126,N,11610.4933,W,55.00,270.00,171110,,,A*42
$GPRMC,212918.000,A,3342.9127,N,11610.5483,W,55.30,270.00,171110,,,A*4A
$GPRMC,212921.000,A,3342.9128,N,11610.6040,W,55.60,270.10,171110,,,A*43
$GPRMC,212924.000,A,3342.9131,N,11610.6596,W,55.60,270.00,171110,,,A*41
$GPRMC,212927.000,A,3342.9132,N,11610.7154,W,55.70,270.20,171110,,,A*49
$GPRMC,212930.000,A,3342.9134,N,11610.7711,W,55.80,269.90,171110,,,A*42
$GPRMC,212933.000,A,3342.9134,N,11610.8269,W,55.60,270.10,171110,,,A*4A
$GPRMC,212936.000,A,3342.9135,N,11610.8822,W,55.10,270.00,171110,,,A*4D
$GPRMC,212939.000,A,3342.9136,N,11610.9370,W,54.70,269.90,171110,,,A*4A
$GPRMC,212942.000,A,3342.9134,N,11610.9915,W,54.50,269.50,171110,,,A*43
$GPRMC,212945.000,A,3342.9139,N,11611.0460,W,54.50,271.80,171110,,,A*4A
$GPRMC,212948.000,A,3342.9170,N,11611.1006,W,54.80,274.50,171110,,,A*4A
$GPRMC,212951.000,A,3342.9232,N,11611.1548,W,54.70,278.50,171110,,,A*4B
$GPRMC,212954.000,A,3342.9330,N,11611.2077,W,54.80,283.30,171110,,,A*4A
$GPRMC,212957.000,A,3342.9448,N,11611.2603,W,55.00,287.50,171110,,,A*4F
$GPRMC,213000.000,A,3342.9604,N,11611.3121,W,55.20,292.10,171110,,,A*4B
$GPRMC,213003.000,A,3342.9791,N,11611.3622,W,55.40,296.10,171110,,,A*43
$GPRMC,213006.000,A,3343.0010,N,11611.4113,W,55.30,299.40,171110,,,A*4F
$GPRMC,213009.000,A,3343.0261,N,11611.4575,W,55.10,304.70,171110,,,A*44
$GPRMC,213012.000,A,3343.0532,N,11611.5020,W,54.70,307.20,171110,,,A*4A
$GPRMC,213015.000,A,3343.0832,N,11611.5433,W,54.70,312.60,171110,,,A*46
$GPRMC,213018.000,A,3343.1148,N,11611.5825,W,54.70,314.10,171110,,,A*44
$GPRMC,213021.000,A,3343.1468,N,11611.6216,W,54.60,314.50,171110,,,A*45
$GPRMC,213024.000,A,3343.1793,N,11611.6602,W,54.50,315.60,171110,,,A*47
$GPRMC,213027.000,A,3343.2127,N,11611.6974,W,54.60,317.30,171110,,,A*44
$GPRMC,213030.000,A,3343.2471,N,11611.7344,W,54.90,318.20,171110,,,A*4D
$GPRMC,213033.000,A,3343.2815,N,11611.7710,W,54.80,318.40,171110,,,A*42
$GPRMC,213036.000,A,3343.3157,N,11611.8074,W,54.70,318.40,171110,,,A*4C
$GPRMC,213039.000,A,3343.3501,N,11611.8440,W,54.80,318.50,171110,,,A*49
$GPRMC,213042.000,A,3343.3841,N,11611.8806,W,54.30,318.50,171110,,,A*49
$GPRMC,213045.000,A,3343.4179,N,11611.9160,W,54.00,318.60,171110,,,A*43
$GPRMC,213048.000,A,3343.4517,N,11611.9512,W,53.90,318.60,171110,,,A*4D
$GPRMC,213051.000,A,3343.4856,N,11611.9864,W,53.90,318.70,171110,,,A*40
$GPRMC,213054.000,A,3343.5190,N,11612.0221,W,53.60,317.90,171110,,,A*48
$GPRMC,213057.000,A,3343.5511,N,11612.0591,W,53.80,314.50,171110,,,A*4B
$GPRMC,213100.000,A,3343.5821,N,11612.0979,W,54.00,312.80,171110,,,A*48
$GPRMC,213103.000,A,3343.6121,N,11612.1383,W,54.10,311.20,171110,,,A*47
$GPRMC,213106.000,A,3343.6409,N,11612.1788,W,53.60,310.20,171110,,,A*43
$GPRMC,213109.000,A,3343.6698,N,11612.2195,W,53.50,310.10,171110,,,A*4F
$GPRMC,213112.000,A,3343.6990,N,11612.2605,W,54.00,310.50,171110,,,A*4A
$GPRMC,213115.000,A,3343.7276,N,11612.3014,W,53.70,310.80,171110,,,A*45
$GPRMC,213118.000,A,3343.7576,N,11612.3412,W,53.80,312.50,171110,,,A*4D
$GPRMC,213121.000,A,3343.7885,N,11612.3800,W,53.90,314.50,171110,,,A*4E
$GPRMC,213124.000,A,3343.8204,N,11612.4179,W,54.00,316.00,171110,,,A*4E
$GPRMC,213127.000,A,3343.8534,N,11612.4547,W,54.20,317.80,171110,,,A*4B
$GPRMC,213130.000,A,3343.8875,N,11612.4907,W,54.20,319.50,171110,,,A*4E
$GPRMC,213133.000,A,3343.9225,N,11612.5255,W,54.40,321.40,171110,,,A*42
$GPRMC,213136.000,A,3343.9580,N,11612.5591,W,54.40,321.70,171110,,,A*43
$GPRMC,213139.000,A,3343.9934,N,11612.5925,W,53.90,321.80,171110,,,A*49
$GPRMC,213142.000,A,3344.0290,N,11612.6262,W,54.30,321.70,171110,,,A*47
$GPRMC,213145.000,A,3344.0646,N,11612.6599,W,54.30,321.70,171110,,,A*4C
$GPRMC,213148.000,A,3344.1003,N,11612.6933,W,54.20,321.90,171110,,,A*44
$GPRMC,213151.000,A,3344.1353,N,11612.7272,W,54.10,319.00,171110,,,A*44
$GPRMC,213154.000,A,3344.1684,N,11612.7640,W,54.10,314.60,171110,,,A*40
$GPRMC,213157.000,A,3344.1985,N,11612.8041,W,54.20,309.90,171110,,,A*45
$GPRMC,213200.000,A,3344.2251,N,11612.8472,W,53.90,304.40,171110,,,A*4D
$GPRMC,213203.000,A,3344.2493,N,11612.8926,W,54.40,301.10,171110,,,A*40
$GPRMC,213206.000,A,3344.2693,N,11612.9407,W,54.00,295.00,171110,,,A*41
$GPRMC,213209.000,A,3344.2854,N,11612.9905,W,54.50,289.60,171110,,,A*4A
$GPRMC,213212.000,A,3344.2979,N,11613.0418,W,53.80,284.30,171110,,,A*45
$GPRMC,213215.000,A,3344.3071,N,11613.0941,W,53.90,280.80,171110,,,A*4D
$GPRMC,213218.000,A,3344.3126,N,11613.1472,W,53.70,276.60,171110,,,A*46
$GPRMC,213221.000,A,3344.3160,N,11613.2009,W,53.80,275.10,171110,,,A*4E
$GPRMC,213224.000,A,3344.3201,N,11613.2547,W,53.70,275.40,171110,,,A*4A
$GPRMC,213227.000,A,3344.3242,N,11613.3084,W,53.70,275.40,171110,,,A*45
$GPRMC,213230.000,A,3344.3281,N,11613.3619,W,53.80,275.50,171110,,,A*40
$GPRMC,213233.000,A,3344.3319,N,11613.4154,W,53.60,275.30,171110,,,A*42
$GPRMC,213236.000,A,3344.3356,N,11613.4692,W,53.80,275.10,171110,,,A*4D
$GPRMC,213239.000,A,3344.3397,N,11613.5229,W,53.80,275.80,171110,,,A*43
$GPRMC,213242.000,A,3344.3443,N,11613.5764,W,53.80,275.90,171110,,,A*4C
$GPRMC,213245.000,A,3344.3486,N,11613.6301,W,53.70,275.50,171110,,,A*45
$GPRMC,213248.000,A,3344.3529,N,11613.6833,W,53.40,275.60,171110,,,A*46
$GPRMC,213251.000,A,3344.3570,N,11613.7359,W,53.60,275.30,171110,,,A*43
$GPRMC,213254.000,A,3344.3613,N,11613.7890,W,53.90,275.60,171110,,,A*44
$GPRMC,213257.000,A,3344.3660,N,11613.8435,W,53.80,275.20,171110,,,A*4A
$GPRMC,213300.000,A,3344.3704,N,11613.8971,W,53.90,275.50,171110,,,A*41
$GPRMC,213303.000,A,3344.3746,N,11613.9508,W,53.80,275.40,171110,,,A*47
$GPRMC,213306.000,A,3344.3782,N,11614.0032,W,52.90,273.70,171110,,,A*4D
$GPRMC,213309.000,A,3344.3778,N,11614.0527,W,49.70,267.10,171110,,,A*41
$GPRMC,213312.000,A,3344.3743,N,11614.1024,W,49.50,263.60,171110,,,A*45
$GPRMC,213315.000,A,3344.3680,N,11614.1505,W,49.00,259.90,171110,,,A*49
$GPRMC,213318.000,A,3344.3588,N,11614.1994,W,50.80,257.00,171110,,,A*4C
$GPRMC,213321.000,A,3344.3482,N,11614.2503,W,52.70,255.70,171110,,,A*44
$GPRMC,213324.000,A,3344.3373,N,11614.3017,W,52.20,255.90,171110,,,A*42
$GPRMC,213327.000,A,3344.3270,N,11614.3521,W,51.90,256.80,171110,,,A*49
$GPRMC,213330.000,A,3344.3187,N,11614.4034,W,52.50,259.10,171110,,,A*4B
$GPRMC,213333.000,A,3344.3115,N,11614.4558,W,53.60,262.00,171110,,,A*47
$GPRMC,213336.000,A,3344.3068,N,11614.5087,W,53.60,265.50,171110,,,A*4D
$GPRMC,213339.000,A,3344.3044,N,11614.5624,W,53.70,268.10,171110,,,A*4B
$GPRMC,213342.000,A,3344.3041,N,11614.6159,W,53.50,270.60,171110,,,A*40
$GPRMC,213345.000,A,3344.3055,N,11614.6693,W,53.40,273.40,171110,,,A*43
$GPRMC,213348.000,A,3344.3091,N,11614.7225,W,53.50,275.80,171110,,,A*45
$GPRMC,213351.000,A,3344.3144,N,11614.7758,W,53.70,278.60,171110,,,A*4A
$GPRMC,213354.000,A,3344.3221,N,11614.8289,W,53.90,280.20,171110,,,A*44
$GPRMC,213357.000,A,3344.3317,N,11614.8814,W,53.90,283.90,171110,,,A*45
$GPRMC,213400.000,A,3344.3428,N,11614.9334,W,53.90,285.10,171110,,,A*4D
$GPRMC,213403.000,A,3344.3565,N,11614.9844,W,53.70,288.10,171110,,,A*49
$GPRMC,213406.000,A,3344.3718,N,11615.0356,W,54.40,290.00,171110,,,A*48
$GPRMC,213409.000,A,3344.3898,N,11615.0849,W,53.90,294.30,171110,,,A*48
$GPRMC,213412.000,A,3344.4091,N,11615.1337,W,54.10,295.70,171110,,,A*4D
$GPRMC,213415.000,A,3344.4303,N,11615.1813,W,53.80,298.40,171110,,,A*4F
$GPRMC,213418.000,A,3344.4533,N,11615.2273,W,53.90,300.40,171110,,,A*49
$GPRMC,213421.000,A,3344.4762,N,11615.2734,W,53.80,300.60,171110,,,A*40
$GPRMC,213424.000,A,3344.4990,N,11615.3195,W,53.60,300.70,171110,,,A*45
$GPRMC,213427.000,A,3344.5222,N,11615.3661,W,53.60,301.00,171110,,,A*4F
$GPRMC,213430.000,A,3344.5454,N,11615.4118,W,53.70,300.90,171110,,,A*49
$GPRMC,213433.000,A,3344.5687,N,11615.4577,W,53.80,301.30,171110,,,A*4F
$GPRMC,213436.000,A,3344.5928,N,11615.5033,W,53.90,301.90,171110,,,A*4F
$GPRMC,213439.000,A,3344.6166,N,11615.5488,W,54.00,301.60,171110,,,A*44
$GPRMC,213442.000,A,3344.6400,N,11615.5947,W,54.00,301.20,171110,,,A*47
$GPRMC,213445.000,A,3344.6631,N,11615.6408,W,54.00,300.80,171110,,,A*4E
$GPRMC,213448.000,A,3344.6861,N,11615.6870,W,53.90,300.90,171110,,,A*44
$GPRMC,213451.000,A,3344.7110,N,11615.7321,W,53.90,304.20,171110,,,A*43
$GPRMC,213454.000,A,3344.7379,N,11615.7759,W,54.00,307.20,171110,,,A*4D
$GPRMC,213457.000,A,3344.7663,N,11615.8171,W,52.90,310.20,171110,,,A*4A
$GPRMC,213500.000,A,3344.7976,N,11615.8567,W,54.10,313.70,171110,,,A*49
$GPRMC,213503.000,A,3344.8305,N,11615.8936,W,54.00,315.90,171110,,,A*4A
$GPRMC,213506.000,A,3344.8632,N,11615.9298,W,53.70,316.10,171110,,,A*4B
$GPRMC,213509.000,A,3344.8941,N,11615.9691,W,53.80,312.00,171110,,,A*48
$GPRMC,213512.000,A,3344.9219,N,11616.0112,W,53.70,307.40,171110,,,A*4C
$GPRMC,213515.000,A,3344.9466,N,11616.0553,W,53.80,302.70,171110,,,A*4D
$GPRMC,213518.000,A,3344.9683,N,11616.1027,W,54.00,297.20,171110,,,A*49
$GPRMC,213521.000,A,3344.9852,N,11616.1524,W,53.90,290.80,171110,,,A*44
$GPRMC,213524.000,A,3344.9992,N,11616.2032,W,53.50,287.60,171110,,,A*49
$GPRMC,213527.000,A,3345.0084,N,11616.2548,W,53.20,282.00,171110,,,A*40
$GPRMC,213530.000,A,3345.0162,N,11616.3083,W,53.80,280.20,171110,,,A*46
$GPRMC,213533.000,A,3345.0234,N,11616.3624,W,54.00,279.50,171110,,,A*40
$GPRMC,213536.000,A,3345.0338,N,11616.4147,W,53.70,283.80,171110,,,A*45
$GPRMC,213539.000,A,3345.0460,N,11616.4675,W,53.70,289.70,171110,,,A*43
$GPRMC,213542.000,A,3345.0620,N,11616.5173,W,53.20,292.50,171110,,,A*44
$GPRMC,213545.000,A,3345.0807,N,11616.5654,W,53.30,295.40,171110,,,A*4D
$GPRMC,213548.000,A,3345.1000,N,11616.6134,W,53.40,295.80,171110,,,A*47
$GPRMC,213551.000,A,3345.1190,N,11616.6613,W,53.40,295.40,171110,,,A*49
$GPRMC,213554.000,A,3345.1380,N,11616.7092,W,53.50,295.40,171110,,,A*40
$GPRMC,213557.000,A,3345.1578,N,11616.7575,W,53.90,295.90,171110,,,A*4F
$GPRMC,213600.000,A,3345.1775,N,11616.8059,W,53.80,296.20,171110,,,A*4C
$GPRMC,213603.000,A,3345.1972,N,11616.8543,W,53.80,295.60,171110,,,A*4F
$GPRMC,213606.000,A,3345.2167,N,11616.9025,W,53.80,295.70,171110,,,A*40
$GPRMC,213609.000,A,3345.2364,N,11616.9509,W,53.80,295.70,171110,,,A*45
$GPRMC,213612.000,A,3345.2562,N,11616.9994,W,53.90,295.70,171110,,,A*46
$GPRMC,213615.000,A,3345.2759,N,11617.0478,W,53.70,295.70,171110,,,A*42
$GPRMC,213618.000,A,3345.2952,N,11617.0964,W,53.90,295.00,171110,,,A*43
$GPRMC,213621.000,A,3345.3137,N,11617.1456,W,53.90,293.80,171110,,,A*40
$GPRMC,213624.000,A,3345.3309,N,11617.1950,W,53.60,292.10,171110,,,A*46
$GPRMC,213627.000,A,3345.3474,N,11617.2448,W,53.50,290.90,171110,,,A*46
$GPRMC,213630.000,A,3345.3630,N,11617.2951,W,53.60,290.10,171110,,,A*4C
$GPRMC,213633.000,A,3345.3784,N,11617.3456,W,53.80,289.90,171110,,,A*44
$GPRMC,213636.000,A,3345.3936,N,11617.3963,W,53.80,289.80,171110,,,A*4C
$GPRMC,213639.000,A,3345.4087,N,11617.4469,W,53.70,289.90,171110,,,A*49
$GPRMC,213642.000,A,3345.4239,N,11617.4973,W,53.50,289.70,171110,,,A*48
$GPRMC,213645.000,A,3345.4392,N,11617.5478,W,53.60,290.00,171110,,,A*44
$GPRMC,213648.000,A,3345.4545,N,11617.5983,W,53.70,289.90,171110,,,A*4C
$GPRMC,213651.000,A,3345.4696,N,11617.6488,W,53.60,289.80,171110,,,A*4C
$GPRMC,213654.000,A,3345.4848,N,11617.6992,W,53.70,289.90,171110,,,A*42
$GPRMC,213657.000,A,3345.5003,N,11617.7497,W,53.80,290.70,171110,,,A*47
$GPRMC,213700.000,A,3345.5170,N,11617.7996,W,54.00,292.90,171110,,,A*4E
$GPRMC,213703.000,A,3345.5366,N,11617.8479,W,53.60,296.40,171110,,,A*43
$GPRMC,213706.000,A,3345.5576,N,11617.8949,W,53.60,298.40,171110,,,A*41
$GPRMC,213709.000,A,3345.5789,N,11617.9422,W,53.70,298.30,171110,,,A*4B
$GPRMC,213712.000,A,3345.5999,N,11617.9898,W,54.00,297.40,171110,,,A*4B
$GPRMC,213715.000,A,3345.6183,N,11618.0388,W,53.50,293.80,171110,,,A*4A
$GPRMC,213718.000,A,3345.6338,N,11618.0891,W,53.40,290.00,171110,,,A*4C
$GPRMC,213721.000,A,3345.6472,N,11618.1397,W,53.20,287.60,171110,,,A*45
$GPRMC,213724.000,A,3345.6588,N,11618.1911,W,53.40,284.70,171110,,,A*44
$GPRMC,213727.000,A,3345.6685,N,11618.2430,W,53.30,282.60,171110,,,A*44
$GPRMC,213730.000,A,3345.6774,N,11618.2958,W,53.40,281.40,171110,,,A*48
$GPRMC,213733.000,A,3345.6869,N,11618.3483,W,53.50,281.80,171110,,,A*4F
$GPRMC,213736.000,A,3345.6974,N,11618.4002,W,53.30,284.30,171110,,,A*45
$GPRMC,213739.000,A,3345.7109,N,11618.4523,W,53.80,288.60,171110,,,A*4D
$GPRMC,213742.000,A,3345.7259,N,11618.5034,W,53.70,289.80,171110,,,A*45
$GPRMC,213745.000,A,3345.7410,N,11618.5536,W,53.70,290.00,171110,,,A*4E
$GPRMC,213748.000,A,3345.7565,N,11618.6039,W,53.80,290.80,171110,,,A*4E
$GPRMC,213751.000,A,3345.7726,N,11618.6542,W,53.80,290.90,171110,,,A*4B
$GPRMC,213754.000,A,3345.7882,N,11618.7047,W,53.80,290.20,171110,,,A*45
$GPRMC,213757.000,A,3345.8036,N,11618.7550,W,53.70,290.40,171110,,,A*44
$GPRMC,213800.000,A,3345.8190,N,11618.8054,W,53.60,289.90,171110,,,A*4E
$GPRMC,213803.000,A,3345.8340,N,11618.8561,W,53.70,289.50,171110,,,A*4C
$GPRMC,213806.000,A,3345.8492,N,11618.9067,W,53.80,289.70,171110,,,A*4E
$GPRMC,213809.000,A,3345.8644,N,11618.9572,W,53.80,289.90,171110,,,A*47
$GPRMC,213812.000,A,3345.8798,N,11619.0078,W,53.70,290.20,171110,,,A*46
$GPRMC,213815.000,A,3345.8954,N,11619.0583,W,53.90,290.60,171110,,,A*44
$GPRMC,213818.000,A,3345.9131,N,11619.1077,W,53.50,294.00,171110,,,A*42
$GPRMC,213821.000,A,3345.9330,N,11619.1566,W,53.80,296.20,171110,,,A*43
$GPRMC,213824.000,A,3345.9543,N,11619.2042,W,54.20,298.20,171110,,,A*47
$GPRMC,213827.000,A,3345.9761,N,11619.2513,W,53.60,299.00,171110,,,A*47
$GPRMC,213830.000,A,3345.9991,N,11619.2972,W,53.80,301.30,171110,,,A*46
$GPRMC,213833.000,A,3346.0235,N,11619.3423,W,53.90,303.70,171110,,,A*45
$GPRMC,213836.000,A,3346.0484,N,11619.3861,W,52.60,303.90,171110,,,A*46
$GPRMC,213839.000,A,3346.0730,N,11619.4296,W,52.60,304.20,171110,,,A*4C
$GPRMC,213842.000,A,3346.0993,N,11619.4747,W,55.00,305.10,171110,,,A*4D
$GPRMC,213845.000,A,3346.1256,N,11619.5182,W,53.60,305.70,171110,,,A*41
$GPRMC,213848.000,A,3346.1515,N,11619.5614,W,53.70,305.30,171110,,,A*41
$GPRMC,213852.000,A,3346.1862,N,11619.6192,W,53.50,305.60,171110,,,A*4A
$GPRMC,213855.000,A,3346.2128,N,11619.6631,W,54.70,305.30,171110,,,A*47
$GPRMC,213858.000,A,3346.2382,N,11619.7076,W,54.30,305.20,171110,,,A*49
$GPRMC,213901.000,A,3346.2639,N,11619.7508,W,53.80,305.00,171110,,,A*43
$GPRMC,213904.000,A,3346.2897,N,11619.7949,W,53.80,305.60,171110,,,A*43
$GPRMC,213907.000,A,3346.3159,N,11619.8385,W,53.80,305.80,171110,,,A*41
$GPRMC,213910.000,A,3346.3417,N,11619.8821,W,53.80,305.30,171110,,,A*46
$GPRMC,213913.000,A,3346.3676,N,11619.9260,W,53.90,305.10,171110,,,A*4D
$GPRMC,213916.000,A,3346.3937,N,11619.9701,W,53.90,305.30,171110,,,A*42
$GPRMC,213919.000,A,3346.4200,N,11620.0138,W,53.80,306.00,171110,,,A*4B
$GPRMC,213922.000,A,3346.4463,N,11620.0574,W,53.60,305.20,171110,,,A*43
$GPRMC,213925.000,A,3346.4722,N,11620.1013,W,53.80,305.80,171110,,,A*43
$GPRMC,213928.000,A,3346.4982,N,11620.1452,W,54.10,305.30,171110,,,A*4E
$GPRMC,213931.000,A,3346.5243,N,11620.1889,W,54.00,305.70,171110,,,A*4E
$GPRMC,213934.000,A,3346.5505,N,11620.2333,W,54.00,305.20,171110,,,A*42
$GPRMC,213937.000,A,3346.5760,N,11620.2775,W,54.10,304.60,171110,,,A*42
$GPRMC,213940.000,A,3346.6019,N,11620.3214,W,54.00,305.80,171110,,,A*45
$GPRMC,213943.000,A,3346.6285,N,11620.3655,W,54.20,305.60,171110,,,A*4C
$GPRMC,213946.000,A,3346.6547,N,11620.4099,W,54.50,305.60,171110,,,A*46
$GPRMC,213949.000,A,3346.6806,N,11620.4541,W,54.10,305.20,171110,,,A*41
$GPRMC,213952.000,A,3346.7068,N,11620.4982,W,54.00,305.50,171110,,,A*4F
$GPRMC,213955.000,A,3346.7332,N,11620.5422,W,54.00,306.00,171110,,,A*44
$GPRMC,213958.000,A,3346.7597,N,11620.5861,W,54.40,305.70,171110,,,A*4B
$GPRMC,214001.000,A,3346.7857,N,11620.6298,W,54.10,305.50,171110,,,A*40
$GPRMC,214004.000,A,3346.8120,N,11620.6742,W,54.20,305.40,171110,,,A*43
$GPRMC,214007.000,A,3346.8383,N,11620.7177,W,53.90,305.70,171110,,,A*45
$GPRMC,214010.000,A,3346.8645,N,11620.7614,W,53.90,305.90,171110,,,A*40
$GPRMC,214013.000,A,3346.8903,N,11620.8045,W,53.60,305.90,171110,,,A*4C
$GPRMC,214016.000,A,3346.9161,N,11620.8485,W,54.00,305.40,171110,,,A*40
$GPRMC,214019.000,A,3346.9418,N,11620.8914,W,54.30,305.30,171110,,,A*45
$GPRMC,214022.000,A,3346.9681,N,11620.9354,W,54.00,305.20,171110,,,A*42
$GPRMC,214025.000,A,3346.9942,N,11620.9796,W,54.00,305.50,171110,,,A*48
$GPRMC,214028.000,A,3347.0203,N,11621.0238,W,54.00,305.40,171110,,,A*4B
$GPRMC,214031.000,A,3347.0462,N,11621.0678,W,54.00,305.30,171110,,,A*45
$GPRMC,214034.000,A,3347.0722,N,11621.1116,W,54.00,305.30,171110,,,A*49
$GPRMC,214037.000,A,3347.0982,N,11621.1556,W,53.90,305.40,171110,,,A*47
$GPRMC,214040.000,A,3347.1244,N,11621.1999,W,54.10,305.20,171110,,,A*41
$GPRMC,214043.000,A,3347.1505,N,11621.2440,W,53.90,305.30,171110,,,A*44
$GPRMC,214046.000,A,3347.1763,N,11621.2885,W,54.30,304.70,171110,,,A*4E
$GPRMC,214049.000,A,3347.2016,N,11621.3331,W,54.00,304.70,171110,,,A*41
$GPRMC,214052.000,A,3347.2276,N,11621.3769,W,54.00,305.40,171110,,,A*44
$GPRMC,214055.000,A,3347.2536,N,11621.4208,W,54.00,305.40,171110,,,A*45
$GPRMC,214058.000,A,3347.2797,N,11621.4650,W,54.00,305.30,171110,,,A*4F
$GPRMC,214101.000,A,3347.3059,N,11621.5090,W,54.10,305.70,171110,,,A*48
$GPRMC,214104.000,A,3347.3321,N,11621.5529,W,54.00,305.30,171110,,,A*43
$GPRMC,214107.000,A,3347.3580,N,11621.5970,W,54.00,305.20,171110,,,A*4C
$GPRMC,214110.000,A,3347.3840,N,11621.6410,W,53.90,305.60,171110,,,A*49
$GPRMC,214113.000,A,3347.4101,N,11621.6850,W,53.90,305.20,171110,,,A*4D
$GPRMC,214116.000,A,3347.4361,N,11621.7289,W,53.90,305.60,171110,,,A*47
$GPRMC,214119.000,A,3347.4622,N,11621.7726,W,53.80,305.60,171110,,,A*4B
$GPRMC,214122.000,A,3347.4882,N,11621.8165,W,53.80,305.30,171110,,,A*4C
$GPRMC,214125.000,A,3347.5141,N,11621.8604,W,53.70,305.40,171110,,,A*44
$GPRMC,214128.000,A,3347.5401,N,11621.9042,W,53.80,305.30,171110,,,A*45
$GPRMC,214131.000,A,3347.5660,N,11621.9481,W,53.90,305.30,171110,,,A*42
$GPRMC,214134.000,A,3347.5921,N,11621.9921,W,54.00,305.60,171110,,,A*41
$GPRMC,214137.000,A,3347.6184,N,11622.0358,W,54.10,305.50,171110,,,A*4A
