NMEA Sentence Code,UTC Time,Status,Latitude,Latitude Direction,Longitude,Longitude Direction,Speed (knots),Track Angle (degrees true),Date,MagneticVariation,Magnetic Variation Direction,[FAA Mode]-Optional,Checksum
$GPRMC,153227.735,A,3302.2474,N,11539.8490,W,47.09,269.80,010410,,,A*4B
$GPRMC,153230.726,A,3302.2473,N,11539.8953,W,46.95,270.36,010410,,,A*4B
$GPRMC,153233.815,A,3302.2473,N,11539.9432,W,47.12,269.66,010410,,,A*4F
$GPRMC,153236.805,A,3302.2472,N,11539.9895,W,47.09,270.13,010410,,,A*4B
$GPRMC,153239.796,A,3302.2476,N,11540.0362,W,47.07,270.42,010410,,,A*4B
$GPRMC,153242.786,A,3302.2478,N,11540.0826,W,47.14,270.08,010410,,,A*4F
$GPRMC,153245.776,A,3302.2476,N,11540.1291,W,47.16,269.55,010410,,,A*4C
$GPRMC,153248.766,A,3302.2477,N,11540.1757,W,47.08,270.30,010410,,,A*4A
$GPRMC,153251.756,A,3302.2478,N,11540.2226,W,47.44,270.22,010410,,,A*45
$GPRMC,153254.746,A,3302.2479,N,11540.2701,W,48.76,269.92,010410,,,A*4D
$GPRMC,153257.736,A,3302.2478,N,11540.3185,W,49.27,270.18,010410,,,A*4C
$GPRMC,153300.726,A,3302.2483,N,11540.3673,W,49.36,270.47,010410,,,A*4E
$GPRMC,153303.816,A,3302.2486,N,11540.4177,W,49.08,270.23,010410,,,A*4F
$GPRMC,153306.806,A,3302.2486,N,11540.4661,W,48.92,269.49,010410,,,A*4D
$GPRMC,153309.796,A,3302.2483,N,11540.5143,W,48.86,269.85,010410,,,A*42
$GPRMC,153312.786,A,3302.2483,N,11540.5625,W,48.83,270.04,010410,,,A*4A
$GPRMC,153315.776,A,3302.2485,N,11540.6107,W,48.85,270.25,010410,,,A*45
$GPRMC,153318.766,A,3302.2487,N,11540.6588,W,48.71,270.96,010410,,,A*4B
$GPRMC,153321.757,A,3302.2499,N,11540.7070,W,48.67,271.71,010410,,,A*40
$GPRMC,153324.747,A,3302.2514,N,11540.7549,W,48.83,272.41,010410,,,A*45
$GPRMC,153327.737,A,3302.2534,N,11540.8031,W,48.95,273.36,010410,,,A*40
$GPRMC,153330.727,A,3302.2559,N,11540.8517,W,49.05,273.84,010410,,,A*4C
$GPRMC,153333.817,A,3302.2590,N,11540.9015,W,48.82,274.46,010410,,,A*47
$GPRMC,153336.807,A,3302.2621,N,11540.9496,W,48.87,274.01,010410,,,A*43
$GPRMC,153339.797,A,3302.2648,N,11540.9978,W,48.79,273.69,010410,,,A*40
$GPRMC,153342.787,A,3302.2671,N,11541.0462,W,48.86,272.81,010410,,,A*4E
$GPRMC,153345.777,A,3302.2685,N,11541.0943,W,48.83,272.31,010410,,,A*4D
$GPRMC,153348.767,A,3302.2702,N,11541.1426,W,48.74,271.43,010410,,,A*4E
$GPRMC,153351.757,A,3302.2709,N,11541.1905,W,48.75,270.63,010410,,,A*40
$GPRMC,153354.747,A,3302.2713,N,11541.2388,W,48.71,270.30,010410,,,A*41
$GPRMC,153357.737,A,3302.2712,N,11541.2870,W,48.58,269.86,010410,,,A*46
$GPRMC,153400.728,A,3302.2712,N,11541.3349,W,48.53,270.21,010410,,,A*43
$GPRMC,153403.817,A,3302.2714,N,11541.3844,W,48.65,270.31,010410,,,A*47
$GPRMC,153406.807,A,3302.2716,N,11541.4324,W,48.69,269.96,010410,,,A*42
$GPRMC,153409.797,A,3302.2717,N,11541.4807,W,48.74,269.95,010410,,,A*4F
$GPRMC,153412.788,A,3302.2716,N,11541.5289,W,48.77,269.97,010410,,,A*46
$GPRMC,153415.778,A,3302.2716,N,11541.5771,W,48.89,269.97,010410,,,A*4D
$GPRMC,153418.768,A,3302.2719,N,11541.6255,W,49.10,269.86,010410,,,A*4F
$GPRMC,153421.758,A,3302.2716,N,11541.6740,W,48.98,269.93,010410,,,A*4D
$GPRMC,153424.748,A,3302.2719,N,11541.7223,W,48.87,270.18,010410,,,A*42
$GPRMC,153427.738,A,3302.2718,N,11541.7704,W,48.91,269.78,010410,,,A*4E
$GPRMC,153430.728,A,3302.2718,N,11541.8188,W,48.88,270.07,010410,,,A*4C
$GPRMC,153433.818,A,3302.2715,N,11541.8688,W,48.88,269.77,010410,,,A*46
$GPRMC,153436.808,A,3302.2717,N,11541.9170,W,48.97,269.99,010410,,,A*4F
$GPRMC,153439.798,A,3302.2715,N,11541.9653,W,48.81,269.98,010410,,,A*44
$GPRMC,153442.788,A,3302.2715,N,11542.0137,W,48.55,269.81,010410,,,A*47
$GPRMC,153445.778,A,3302.2714,N,11542.0616,W,48.59,269.86,010410,,,A*41
$GPRMC,153448.768,A,3302.2718,N,11542.1097,W,48.62,271.25,010410,,,A*47
$GPRMC,153451.759,A,3302.2742,N,11542.1578,W,48.57,274.94,010410,,,A*4F
$GPRMC,153454.749,A,3302.2786,N,11542.2056,W,48.68,278.11,010410,,,A*44
$GPRMC,153457.739,A,3302.2849,N,11542.2531,W,48.98,280.95,010410,,,A*4C
$GPRMC,153500.729,A,3302.2932,N,11542.3003,W,49.29,283.19,010410,,,A*4A
$GPRMC,153503.819,A,3302.3040,N,11542.3490,W,49.30,286.53,010410,,,A*45
$GPRMC,153506.809,A,3302.3165,N,11542.3953,W,49.14,289.53,010410,,,A*4C
$GPRMC,153509.799,A,3302.3312,N,11542.4404,W,48.97,292.00,010410,,,A*49
$GPRMC,153512.789,A,3302.3475,N,11542.4851,W,48.70,294.43,010410,,,A*40
$GPRMC,153515.779,A,3302.3654,N,11542.5283,W,48.61,298.28,010410,,,A*4C
$GPRMC,153518.769,A,3302.3853,N,11542.5698,W,48.52,300.82,010410,,,A*47
$GPRMC,153521.759,A,3302.4068,N,11542.6103,W,48.71,303.67,010410,,,A*46
$GPRMC,153524.749,A,3302.4300,N,11542.6497,W,48.68,306.31,010410,,,A*49
$GPRMC,153527.739,A,3302.4546,N,11542.6876,W,48.59,308.99,010410,,,A*44
$GPRMC,153530.730,A,3302.4808,N,11542.7243,W,48.71,312.20,010410,,,A*42
$GPRMC,153533.819,A,3302.5099,N,11542.7604,W,48.85,315.36,010410,,,A*48
$GPRMC,153536.809,A,3302.5394,N,11542.7936,W,48.92,317.70,010410,,,A*4A
$GPRMC,153539.799,A,3302.5701,N,11542.8249,W,48.68,320.82,010410,,,A*4B
$GPRMC,153542.790,A,3302.6021,N,11542.8543,W,48.52,323.83,010410,,,A*4E
$GPRMC,153545.780,A,3302.6352,N,11542.8811,W,48.70,326.75,010410,,,A*49
$GPRMC,153548.770,A,3302.6697,N,11542.9067,W,48.99,329.38,010410,,,A*4E
$GPRMC,153551.760,A,3302.7055,N,11542.9306,W,49.17,331.86,010410,,,A*41
$GPRMC,153554.750,A,3302.7418,N,11542.9533,W,49.08,331.33,010410,,,A*4A
$GPRMC,153557.740,A,3302.7777,N,11542.9761,W,49.01,331.64,010410,,,A*4C
$GPRMC,153600.730,A,3302.8134,N,11542.9986,W,48.73,331.61,010410,,,A*42
$GPRMC,153603.720,A,3302.8493,N,11543.0218,W,48.71,330.53,010410,,,A*4E
$GPRMC,153606.810,A,3302.8854,N,11543.0474,W,48.71,327.45,010410,,,A*4D
$GPRMC,153609.800,A,3302.9189,N,11543.0742,W,48.90,324.99,010410,,,A*40
$GPRMC,153612.790,A,3302.9516,N,11543.1029,W,48.85,322.53,010410,,,A*41
$GPRMC,153615.780,A,3302.9831,N,11543.1336,W,48.87,319.27,010410,,,A*4B
$GPRMC,153618.770,A,3303.0132,N,11543.1659,W,48.91,317.35,010410,,,A*4D
$GPRMC,153621.761,A,3303.0432,N,11543.1988,W,48.76,317.20,010410,,,A*4C
$GPRMC,153624.751,A,3303.0729,N,11543.2317,W,48.86,316.99,010410,,,A*40
$GPRMC,153627.741,A,3303.1024,N,11543.2644,W,48.72,317.07,010410,,,A*47
$GPRMC,153630.731,A,3303.1322,N,11543.2970,W,48.75,317.39,010410,,,A*41
$GPRMC,153633.721,A,3303.1623,N,11543.3294,W,48.89,319.03,010410,,,A*43
$GPRMC,153636.811,A,3303.1949,N,11543.3610,W,48.81,322.07,010410,,,A*45
$GPRMC,153639.801,A,3303.2273,N,11543.3896,W,48.91,324.89,010410,,,A*4B
$GPRMC,153642.791,A,3303.2610,N,11543.4161,W,48.61,328.05,010410,,,A*41
$GPRMC,153645.781,A,3303.2959,N,11543.4406,W,48.80,330.57,010410,,,A*40
$GPRMC,153648.771,A,3303.3315,N,11543.4640,W,48.79,331.44,010410,,,A*44
$GPRMC,153651.761,A,3303.3671,N,11543.4873,W,48.91,331.18,010410,,,A*4B
$GPRMC,153654.751,A,3303.4029,N,11543.5106,W,48.82,331.24,010410,,,A*46
$GPRMC,153657.741,A,3303.4385,N,11543.5339,W,48.94,331.07,010410,,,A*49
$GPRMC,153700.732,A,3303.4743,N,11543.5570,W,48.82,331.36,010410,,,A*4E
$GPRMC,153703.722,A,3303.5101,N,11543.5804,W,48.84,331.19,010410,,,A*48
$GPRMC,153706.811,A,3303.5469,N,11543.6048,W,48.76,331.41,010410,,,A*4A
$GPRMC,153709.801,A,3303.5824,N,11543.6279,W,48.62,330.99,010410,,,A*40
$GPRMC,153712.792,A,3303.6176,N,11543.6518,W,48.61,329.08,010410,,,A*41
$GPRMC,153715.782,A,3303.6516,N,11543.6772,W,48.56,326.98,010410,,,A*49
$GPRMC,153718.772,A,3303.6848,N,11543.7045,W,48.60,323.95,010410,,,A*42
$GPRMC,153721.762,A,3303.7167,N,11543.7337,W,48.65,321.86,010410,,,A*4F
$GPRMC,153724.752,A,3303.7486,N,11543.7635,W,48.72,321.48,010410,,,A*40
$GPRMC,153727.742,A,3303.7801,N,11543.7936,W,48.75,321.34,010410,,,A*41
$GPRMC,153730.732,A,3303.8119,N,11543.8238,W,48.84,321.56,010410,,,A*4F
$GPRMC,153733.722,A,3303.8438,N,11543.8538,W,48.82,321.50,010410,,,A*4C
$GPRMC,153736.812,A,3303.8767,N,11543.8846,W,48.79,321.49,010410,,,A*44
$GPRMC,153739.802,A,3303.9085,N,11543.9148,W,49.17,321.44,010410,,,A*42
$GPRMC,153742.792,A,3303.9407,N,11543.9452,W,49.11,321.44,010410,,,A*4E
$GPRMC,153745.782,A,3303.9726,N,11543.9755,W,48.98,321.48,010410,,,A*40
$GPRMC,153748.772,A,3304.0043,N,11544.0057,W,48.68,321.42,010410,,,A*46
$GPRMC,153751.763,A,3304.0360,N,11544.0355,W,48.56,321.51,010410,,,A*42
$GPRMC,153754.753,A,3304.0675,N,11544.0652,W,48.79,321.47,010410,,,A*4D
$GPRMC,153757.743,A,3304.0993,N,11544.0955,W,48.91,321.59,010410,,,A*49
$GPRMC,153800.733,A,3304.1311,N,11544.1258,W,49.17,321.23,010410,,,A*47
$GPRMC,153803.723,A,3304.1629,N,11544.1558,W,48.75,321.35,010410,,,A*4E
$GPRMC,153806.813,A,3304.1958,N,11544.1868,W,48.66,321.56,010410,,,A*47
$GPRMC,153809.803,A,3304.2274,N,11544.2168,W,48.69,321.38,010410,,,A*42
$GPRMC,153812.793,A,3304.2589,N,11544.2469,W,48.76,321.35,010410,,,A*4C
$GPRMC,153815.783,A,3304.2905,N,11544.2772,W,48.92,321.09,010410,,,A*4E
$GPRMC,153818.773,A,3304.3222,N,11544.3077,W,48.90,321.71,010410,,,A*4D
$GPRMC,153821.763,A,3304.3544,N,11544.3377,W,49.04,321.66,010410,,,A*48
$GPRMC,153824.753,A,3304.3861,N,11544.3681,W,49.01,321.58,010410,,,A*40
$GPRMC,153827.743,A,3304.4180,N,11544.3979,W,48.88,321.53,010410,,,A*40
$GPRMC,153830.734,A,3304.4497,N,11544.4283,W,48.61,320.56,010410,,,A*4F
$GPRMC,153833.724,A,3304.4806,N,11544.4595,W,48.80,319.05,010410,,,A*4A
$GPRMC,153836.813,A,3304.5116,N,11544.4926,W,48.75,317.02,010410,,,A*4A
$GPRMC,153839.803,A,3304.5410,N,11544.5264,W,48.71,314.98,010410,,,A*4F
$GPRMC,153842.794,A,3304.5690,N,11544.5608,W,48.88,313.56,010410,,,A*45
$GPRMC,153845.784,A,3304.5964,N,11544.5964,W,48.90,311.60,010410,,,A*4C
$GPRMC,153848.774,A,3304.6229,N,11544.6332,W,48.84,309.64,010410,,,A*4D
$GPRMC,153851.764,A,3304.6482,N,11544.6708,W,48.86,307.63,010410,,,A*45
$GPRMC,153854.754,A,3304.6726,N,11544.7097,W,48.84,306.47,010410,,,A*4B
$GPRMC,153857.744,A,3304.6966,N,11544.7487,W,48.90,306.61,010410,,,A*47
$GPRMC,153900.734,A,3304.7207,N,11544.7877,W,48.80,306.44,010410,,,A*4B
$GPRMC,153903.724,A,3304.7446,N,11544.8263,W,48.81,306.29,010410,,,A*40
$GPRMC,153906.814,A,3304.7698,N,11544.8664,W,48.79,306.60,010410,,,A*41
$GPRMC,153909.804,A,3304.7936,N,11544.9053,W,48.51,305.56,010410,,,A*4B
$GPRMC,153912.794,A,3304.8163,N,11544.9450,W,48.58,302.55,010410,,,A*4A
$GPRMC,153915.784,A,3304.8375,N,11544.9862,W,48.81,299.97,010410,,,A*4D
$GPRMC,153918.774,A,3304.8570,N,11545.0281,W,48.88,297.10,010410,,,A*4B
$GPRMC,153921.765,A,3304.8748,N,11545.0716,W,48.91,294.49,010410,,,A*44
$GPRMC,153924.755,A,3304.8909,N,11545.1162,W,48.89,291.66,010410,,,A*4C
$GPRMC,153927.745,A,3304.9050,N,11545.1618,W,48.92,288.71,010410,,,A*44
$GPRMC,153930.735,A,3304.9172,N,11545.2078,W,49.06,286.09,010410,,,A*4A
$GPRMC,153933.725,A,3304.9278,N,11545.2544,W,48.71,284.00,010410,,,A*41
$GPRMC,153936.815,A,3304.9378,N,11545.3027,W,48.69,284.03,010410,,,A*42
$GPRMC,153939.805,A,3304.9478,N,11545.3494,W,48.62,284.09,010410,,,A*46
$GPRMC,153942.795,A,3304.9581,N,11545.3960,W,48.54,285.91,010410,,,A*48
$GPRMC,153945.785,A,3304.9702,N,11545.4418,W,48.81,288.71,010410,,,A*49
$GPRMC,153948.775,A,3304.9841,N,11545.4873,W,48.78,291.83,010410,,,A*41
$GPRMC,153951.765,A,3305.0003,N,11545.5315,W,48.90,294.96,010410,,,A*43
$GPRMC,153954.755,A,3305.0182,N,11545.5749,W,48.78,297.63,010410,,,A*4F
$GPRMC,153957.745,A,3305.0380,N,11545.6169,W,48.75,300.21,010410,,,A*4E
$GPRMC,154000.736,A,3305.0593,N,11545.6579,W,48.85,303.17,010410,,,A*4E
$GPRMC,154003.726,A,3305.0825,N,11545.6974,W,49.02,306.18,010410,,,A*49
$GPRMC,154006.815,A,3305.1081,N,11545.7374,W,49.24,308.88,010410,,,A*4C
$GPRMC,154009.805,A,3305.1346,N,11545.7748,W,49.31,311.99,010410,,,A*4D
$GPRMC,154012.796,A,3305.1622,N,11545.8109,W,49.25,311.88,010410,,,A*4C
$GPRMC,154015.786,A,3305.1895,N,11545.8465,W,48.95,312.62,010410,,,A*4A
$GPRMC,154018.776,A,3305.2171,N,11545.8822,W,48.78,312.49,010410,,,A*4D
$GPRMC,154021.766,A,3305.2444,N,11545.9178,W,48.71,312.69,010410,,,A*49
$GPRMC,154024.756,A,3305.2719,N,11545.9533,W,48.77,312.56,010410,,,A*45
$GPRMC,154027.746,A,3305.2987,N,11545.9890,W,48.62,311.70,010410,,,A*49
$GPRMC,154030.736,A,3305.3250,N,11546.0256,W,48.52,309.30,010410,,,A*4C
$GPRMC,154033.726,A,3305.3497,N,11546.0634,W,48.40,306.15,010410,,,A*48
$GPRMC,154036.816,A,3305.3733,N,11546.1040,W,48.70,303.70,010410,,,A*4D
$GPRMC,154039.806,A,3305.3951,N,11546.1448,W,48.97,301.15,010410,,,A*4D
$GPRMC,154042.796,A,3305.4152,N,11546.1869,W,48.97,297.85,010410,,,A*43
$GPRMC,154045.786,A,3305.4334,N,11546.2303,W,48.99,295.39,010410,,,A*48
$GPRMC,154048.776,A,3305.4502,N,11546.2742,W,48.66,294.10,010410,,,A*42
$GPRMC,154051.767,A,3305.4671,N,11546.3182,W,48.72,294.38,010410,,,A*49
$GPRMC,154054.757,A,3305.4839,N,11546.3622,W,48.90,294.28,010410,,,A*4D
$GPRMC,154057.747,A,3305.5007,N,11546.4064,W,49.17,294.07,010410,,,A*4B
$GPRMC,154100.737,A,3305.5177,N,11546.4508,W,49.00,294.61,010410,,,A*40
$GPRMC,154103.727,A,3305.5356,N,11546.4943,W,48.86,296.77,010410,,,A*4A
$GPRMC,154106.817,A,3305.5553,N,11546.5386,W,49.08,298.50,010410,,,A*4E
$GPRMC,154109.807,A,3305.5750,N,11546.5810,W,48.96,298.90,010410,,,A*4F
$GPRMC,154112.797,A,3305.5948,N,11546.6233,W,48.93,299.41,010410,,,A*44
$GPRMC,154115.787,A,3305.6148,N,11546.6657,W,48.76,298.91,010410,,,A*48
$GPRMC,154118.777,A,3305.6345,N,11546.7079,W,48.71,299.34,010410,,,A*47
$GPRMC,154121.767,A,3305.6545,N,11546.7502,W,48.72,298.99,010410,,,A*46
$GPRMC,154124.757,A,3305.6742,N,11546.7922,W,48.96,299.34,010410,,,A*47
$GPRMC,154127.747,A,3305.6939,N,11546.8344,W,48.81,299.14,010410,,,A*46
$GPRMC,154130.738,A,3305.7134,N,11546.8762,W,48.69,299.22,010410,,,A*4F
$GPRMC,154133.728,A,3305.7328,N,11546.9180,W,48.78,298.87,010410,,,A*47
$GPRMC,154136.817,A,3305.7531,N,11546.9619,W,48.81,299.02,010410,,,A*42
$GPRMC,154139.807,A,3305.7729,N,11547.0041,W,48.71,298.95,010410,,,A*44
$GPRMC,154142.798,A,3305.7928,N,11547.0464,W,48.75,299.52,010410,,,A*43
$GPRMC,154145.788,A,3305.8125,N,11547.0880,W,48.67,299.18,010410,,,A*44
$GPRMC,154148.778,A,3305.8322,N,11547.1303,W,48.81,299.28,010410,,,A*49
$GPRMC,154151.768,A,3305.8522,N,11547.1724,W,48.68,299.28,010410,,,A*40
$GPRMC,154154.758,A,3305.8720,N,11547.2146,W,48.95,299.10,010410,,,A*4E
$GPRMC,154157.748,A,3305.8919,N,11547.2572,W,48.92,299.08,010410,,,A*45
$GPRMC,154200.738,A,3305.9117,N,11547.2995,W,48.94,299.07,010410,,,A*48
$GPRMC,154203.728,A,3305.9316,N,11547.3416,W,48.88,298.97,010410,,,A*4B
$GPRMC,154206.818,A,3305.9522,N,11547.3853,W,48.99,299.40,010410,,,A*45
$GPRMC,154209.808,A,3305.9719,N,11547.4274,W,48.78,299.45,010410,,,A*43
$GPRMC,154212.798,A,3305.9918,N,11547.4690,W,48.74,299.44,010410,,,A*43
$GPRMC,154215.788,A,3306.0117,N,11547.5110,W,48.79,299.03,010410,,,A*48
$GPRMC,154218.778,A,3306.0312,N,11547.5534,W,48.73,298.67,010410,,,A*46
$GPRMC,154221.769,A,3306.0506,N,11547.5951,W,48.62,298.74,010410,,,A*42
$GPRMC,154224.759,A,3306.0695,N,11547.6375,W,47.93,297.35,010410,,,A*49
$GPRMC,154227.749,A,3306.0880,N,11547.6801,W,48.42,296.89,010410,,,A*4C
$GPRMC,154230.739,A,3306.1062,N,11547.7228,W,48.82,297.08,010410,,,A*4C
$GPRMC,154233.729,A,3306.1249,N,11547.7657,W,48.90,296.77,010410,,,A*43
$GPRMC,154236.819,A,3306.1438,N,11547.8113,W,49.28,296.79,010410,,,A*4E
$GPRMC,154239.809,A,3306.1625,N,11547.8548,W,49.09,296.63,010410,,,A*4C
$GPRMC,154242.799,A,3306.1804,N,11547.8981,W,48.91,295.56,010410,,,A*47
$GPRMC,154245.789,A,3306.1970,N,11547.9424,W,48.89,291.58,010410,,,A*43
$GPRMC,154248.779,A,3306.2114,N,11547.9876,W,48.98,289.38,010410,,,A*4C
$GPRMC,154251.769,A,3306.2243,N,11548.0339,W,49.10,286.78,010410,,,A*48
$GPRMC,154254.759,A,3306.2351,N,11548.0807,W,49.05,283.38,010410,,,A*4F
$GPRMC,154257.749,A,3306.2437,N,11548.1281,W,49.00,280.71,010410,,,A*44
$GPRMC,154300.740,A,3306.2501,N,11548.1759,W,49.06,278.70,010410,,,A*4A
$GPRMC,154303.730,A,3306.2559,N,11548.2237,W,48.70,277.73,010410,,,A*41
$GPRMC,154306.819,A,3306.2614,N,11548.2726,W,48.17,277.85,010410,,,A*47
$GPRMC,154309.809,A,3306.2668,N,11548.3197,W,48.30,277.62,010410,,,A*43
$GPRMC,154312.800,A,3306.2722,N,11548.3672,W,48.80,277.71,010410,,,A*4A
$GPRMC,154315.790,A,3306.2781,N,11548.4152,W,49.24,278.20,010410,,,A*44
$GPRMC,154318.780,A,3306.2839,N,11548.4638,W,49.52,277.90,010410,,,A*4A
$GPRMC,154321.770,A,3306.2894,N,11548.5122,W,48.97,277.83,010410,,,A*4F
$GPRMC,154324.760,A,3306.2952,N,11548.5600,W,48.53,277.90,010410,,,A*4D
$GPRMC,154327.750,A,3306.3007,N,11548.6077,W,48.62,277.65,010410,,,A*48
$GPRMC,154330.740,A,3306.3063,N,11548.6555,W,48.67,277.78,010410,,,A*41
$GPRMC,154333.730,A,3306.3117,N,11548.7031,W,48.93,277.66,010410,,,A*45
$GPRMC,154336.720,A,3306.3170,N,11548.7514,W,48.95,277.85,010410,,,A*49
$GPRMC,154339.810,A,3306.3227,N,11548.8007,W,48.65,277.72,010410,,,A*44
$GPRMC,154342.800,A,3306.3280,N,11548.8481,W,48.53,277.53,010410,,,A*48
$GPRMC,154345.790,A,3306.3335,N,11548.8959,W,48.34,277.86,010410,,,A*47
$GPRMC,154348.780,A,3306.3389,N,11548.9431,W,48.49,277.89,010410,,,A*4B
$GPRMC,154351.771,A,3306.3445,N,11548.9911,W,48.98,277.67,010410,,,A*49
$GPRMC,154354.761,A,3306.3500,N,11549.0392,W,49.19,277.60,010410,,,A*4B
$GPRMC,154357.751,A,3306.3557,N,11549.0876,W,48.83,277.73,010410,,,A*48
$GPRMC,154400.741,A,3306.3612,N,11549.1354,W,48.58,277.93,010410,,,A*4C
$GPRMC,154403.731,A,3306.3667,N,11549.1827,W,48.56,277.69,010410,,,A*4E
$GPRMC,154406.721,A,3306.3721,N,11549.2303,W,48.65,277.90,010410,,,A*41
$GPRMC,154409.811,A,3306.3777,N,11549.2796,W,49.00,277.59,010410,,,A*4E
$GPRMC,154412.801,A,3306.3832,N,11549.3277,W,49.05,277.83,010410,,,A*42
$GPRMC,154415.791,A,3306.3888,N,11549.3758,W,48.92,277.65,010410,,,A*4D
$GPRMC,154418.781,A,3306.3939,N,11549.4236,W,48.76,277.54,010410,,,A*48
$GPRMC,154421.771,A,3306.3996,N,11549.4712,W,48.42,277.90,010410,,,A*44
$GPRMC,154424.761,A,3306.4049,N,11549.5187,W,48.43,277.58,010410,,,A*42
$GPRMC,154427.751,A,3306.4105,N,11549.5661,W,48.66,277.74,010410,,,A*4D
$GPRMC,154430.742,A,3306.4165,N,11549.6137,W,48.58,279.02,010410,,,A*4A
$GPRMC,154433.732,A,3306.4235,N,11549.6610,W,48.51,281.20,010410,,,A*44
$GPRMC,154436.722,A,3306.4324,N,11549.7080,W,49.12,283.77,010410,,,A*49
$GPRMC,154439.812,A,3306.4428,N,11549.7567,W,48.84,284.00,010410,,,A*44
$GPRMC,154442.802,A,3306.4525,N,11549.8034,W,48.49,283.63,010410,,,A*4A
$GPRMC,154445.792,A,3306.4622,N,11549.8501,W,48.47,283.92,010410,,,A*4C
$GPRMC,154448.782,A,3306.4719,N,11549.8963,W,48.57,284.10,010410,,,A*4D
$GPRMC,154451.772,A,3306.4819,N,11549.9428,W,48.67,284.18,010410,,,A*4D
$GPRMC,154454.762,A,3306.4919,N,11549.9894,W,48.76,284.08,010410,,,A*42
$GPRMC,154457.752,A,3306.5018,N,11550.0361,W,48.87,283.65,010410,,,A*49
$GPRMC,154500.742,A,3306.5116,N,11550.0829,W,49.18,284.16,010410,,,A*47
$GPRMC,154503.732,A,3306.5217,N,11550.1304,W,49.32,284.43,010410,,,A*4C
$GPRMC,154506.722,A,3306.5330,N,11550.1774,W,49.46,287.60,010410,,,A*4E
$GPRMC,154509.812,A,3306.5469,N,11550.2249,W,49.33,290.48,010410,,,A*40
$GPRMC,154512.802,A,3306.5626,N,11550.2701,W,49.12,293.34,010410,,,A*40
$GPRMC,154515.792,A,3306.5797,N,11550.3143,W,48.95,295.95,010410,,,A*48
$GPRMC,154518.782,A,3306.5986,N,11550.3571,W,48.91,299.17,010410,,,A*4D
$GPRMC,154521.773,A,3306.6187,N,11550.3988,W,48.52,301.30,010410,,,A*43
$GPRMC,154524.763,A,3306.6406,N,11550.4386,W,48.55,304.96,010410,,,A*46
$GPRMC,154527.753,A,3306.6646,N,11550.4772,W,48.74,307.73,010410,,,A*44
$GPRMC,154530.743,A,3306.6896,N,11550.5145,W,48.74,310.32,010410,,,A*40
$GPRMC,154533.733,A,3306.7165,N,11550.5501,W,48.93,313.48,010410,,,A*43
$GPRMC,154536.723,A,3306.7452,N,11550.5844,W,48.83,315.81,010410,,,A*48
$GPRMC,154539.813,A,3306.7757,N,11550.6188,W,48.82,317.02,010410,,,A*4F
$GPRMC,154542.803,A,3306.8055,N,11550.6521,W,48.93,316.99,010410,,,A*4C
$GPRMC,154545.793,A,3306.8351,N,11550.6851,W,48.95,316.90,010410,,,A*4F
$GPRMC,154548.783,A,3306.8649,N,11550.7183,W,48.80,317.02,010410,,,A*46
$GPRMC,154551.773,A,3306.8947,N,11550.7509,W,48.91,316.97,010410,,,A*4B
$GPRMC,154554.763,A,3306.9244,N,11550.7841,W,48.83,316.94,010410,,,A*47
$GPRMC,154557.753,A,3306.9542,N,11550.8175,W,48.95,316.86,010410,,,A*43
$GPRMC,154600.744,A,3306.9842,N,11550.8508,W,48.88,316.65,010410,,,A*46
$GPRMC,154603.734,A,3307.0137,N,11550.8842,W,48.82,316.72,010410,,,A*4E
$GPRMC,154606.724,A,3307.0433,N,11550.9175,W,48.93,316.91,010410,,,A*4A
$GPRMC,154609.814,A,3307.0740,N,11550.9519,W,48.92,317.21,010410,,,A*4B
$GPRMC,154612.804,A,3307.1041,N,11550.9849,W,48.70,317.06,010410,,,A*46
$GPRMC,154615.794,A,3307.1338,N,11551.0172,W,48.55,318.52,010410,,,A*4A
$GPRMC,154618.784,A,3307.1643,N,11551.0480,W,48.70,320.73,010410,,,A*48
$GPRMC,154621.774,A,3307.1959,N,11551.0773,W,47.55,322.28,010410,,,A*42
$GPRMC,154624.764,A,3307.2267,N,11551.1045,W,45.06,323.94,010410,,,A*42
$GPRMC,154627.754,A,3307.2567,N,11551.1297,W,42.75,325.56,010410,,,A*43
$GPRMC,154630.744,A,3307.2857,N,11551.1524,W,40.30,327.52,010410,,,A*40
$GPRMC,154633.734,A,3307.3130,N,11551.1719,W,35.72,329.40,010410,,,A*48
$GPRMC,154636.724,A,3307.3374,N,11551.1885,W,31.32,330.12,010410,,,A*4B
$GPRMC,154639.814,A,3307.3596,N,11551.2037,W,28.91,331.21,010410,,,A*40
$GPRMC,154642.804,A,3307.3801,N,11551.2171,W,27.68,332.25,010410,,,A*43
$GPRMC,154645.794,A,3307.4002,N,11551.2295,W,26.74,333.28,010410,,,A*47
$GPRMC,154648.784,A,3307.4196,N,11551.2405,W,25.06,334.54,010410,,,A*42
$GPRMC,154651.775,A,3307.4368,N,11551.2501,W,21.16,335.28,010410,,,A*4D
$GPRMC,154654.765,A,3307.4513,N,11551.2580,W,17.09,335.51,010410,,,A*4F
$GPRMC,154657.755,A,3307.4628,N,11551.2641,W,12.99,334.58,010410,,,A*4E
$GPRMC,154700.745,A,3307.4712,N,11551.2683,W,8.92,340.31,010410,,,A*76
$GPRMC,154703.735,A,3307.4782,N,11551.2706,W,7.91,346.51,010410,,,A*7B
$GPRMC,154706.725,A,3307.4845,N,11551.2729,W,7.78,346.87,010410,,,A*7A
$GPRMC,154709.815,A,3307.4910,N,11551.2746,W,7.13,350.27,010410,,,A*71
$GPRMC,154712.805,A,3307.4962,N,11551.2760,W,6.30,348.11,010410,,,A*77
$GPRMC,154715.795,A,3307.5014,N,11551.2773,W,7.11,348.16,010410,,,A*78
$GPRMC,154718.785,A,3307.5073,N,11551.2792,W,7.69,347.64,010410,,,A*7F
$GPRMC,154721.775,A,3307.5129,N,11551.2815,W,6.97,344.87,010410,,,A*7A
$GPRMC,154727.755,A,3307.5194,N,11551.2838,W,6.40,337.61,010410,,,A*71
$GPRMC,154730.746,A,3307.5268,N,11551.2869,W,11.02,335.33,010410,,,A*44
$GPRMC,154733.736,A,3307.5372,N,11551.2924,W,14.65,329.05,010410,,,A*4E
$GPRMC,154736.726,A,3307.5486,N,11551.3012,W,17.28,328.83,010410,,,A*4E
$GPRMC,154739.816,A,3307.5634,N,11551.3104,W,21.21,336.19,010410,,,A*40
$GPRMC,154742.806,A,3307.5813,N,11551.3186,W,24.65,339.94,010410,,,A*43
$GPRMC,154745.796,A,3307.6023,N,11551.3272,W,28.74,340.15,010410,,,A*49
$GPRMC,154748.786,A,3307.6263,N,11551.3377,W,32.77,340.34,010410,,,A*4C
$GPRMC,154751.776,A,3307.6536,N,11551.3493,W,36.87,340.12,010410,,,A*4E
$GPRMC,154754.766,A,3307.6842,N,11551.3622,W,40.59,340.31,010410,,,A*4F
$GPRMC,154757.756,A,3307.7178,N,11551.3768,W,44.99,339.89,010410,,,A*44
$GPRMC,154800.746,A,3307.7542,N,11551.3923,W,48.22,340.06,010410,,,A*41
$GPRMC,154803.736,A,3307.7927,N,11551.4091,W,50.07,340.12,010410,,,A*46
$GPRMC,154806.726,A,3307.8315,N,11551.4259,W,49.72,340.19,010410,,,A*41
$GPRMC,154809.816,A,3307.8718,N,11551.4436,W,50.22,339.85,010410,,,A*42
$GPRMC,154812.806,A,3307.9112,N,11551.4605,W,49.89,340.50,010410,,,A*49
$GPRMC,154815.796,A,3307.9501,N,11551.4771,W,48.98,340.36,010410,,,A*4D
$GPRMC,154818.786,A,3307.9881,N,11551.4937,W,48.64,339.99,010410,,,A*40
$GPRMC,154821.777,A,3308.0261,N,11551.5105,W,48.45,340.24,010410,,,A*45
$GPRMC,154824.767,A,3308.0640,N,11551.5266,W,48.46,339.88,010410,,,A*4B
$GPRMC,154827.757,A,3308.1020,N,11551.5429,W,48.77,340.33,010410,,,A*4B
$GPRMC,154830.747,A,3308.1402,N,11551.5596,W,49.34,340.08,010410,,,A*43
$GPRMC,154833.737,A,3308.1791,N,11551.5762,W,49.49,340.01,010410,,,A*44
$GPRMC,154836.727,A,3308.2177,N,11551.5925,W,49.26,339.98,010410,,,A*47
$GPRMC,154839.817,A,3308.2575,N,11551.6097,W,49.18,340.05,010410,,,A*46
$GPRMC,154842.807,A,3308.2961,N,11551.6264,W,48.91,339.98,010410,,,A*46
$GPRMC,154845.797,A,3308.3341,N,11551.6432,W,48.89,340.03,010410,,,A*4E
$GPRMC,154848.787,A,3308.3725,N,11551.6594,W,48.87,340.20,010410,,,A*46
$GPRMC,154851.777,A,3308.4108,N,11551.6762,W,49.21,340.02,010410,,,A*49
$GPRMC,154854.767,A,3308.4486,N,11551.6928,W,48.76,340.48,010410,,,A*43
$GPRMC,154857.757,A,3308.4868,N,11551.7090,W,48.58,340.31,010410,,,A*46
$GPRMC,154900.748,A,3308.5248,N,11551.7253,W,48.44,339.87,010410,,,A*41
$GPRMC,154903.738,A,3308.5629,N,11551.7417,W,48.87,340.08,010410,,,A*46
$GPRMC,154906.728,A,3308.6012,N,11551.7584,W,49.23,340.03,010410,,,A*40
$GPRMC,154909.818,A,3308.6409,N,11551.7755,W,49.14,340.03,010410,,,A*47
$GPRMC,154912.808,A,3308.6796,N,11551.7923,W,50.20,339.97,010410,,,A*4A
$GPRMC,154915.798,A,3308.7190,N,11551.8095,W,50.63,340.00,010410,,,A*46
$GPRMC,154918.788,A,3308.7587,N,11551.8267,W,50.93,339.65,010410,,,A*45
$GPRMC,154921.778,A,3308.7986,N,11551.8440,W,50.83,340.07,010410,,,A*45
$GPRMC,154924.768,A,3308.8381,N,11551.8612,W,50.44,340.26,010410,,,A*4E
$GPRMC,154927.758,A,3308.8776,N,11551.8784,W,50.50,339.94,010410,,,A*4E
$GPRMC,154930.748,A,3308.9171,N,11551.8958,W,50.70,339.76,010410,,,A*48
$GPRMC,154933.738,A,3308.9568,N,11551.9131,W,50.40,339.89,010410,,,A*45
$GPRMC,154936.728,A,3308.9961,N,11551.9301,W,50.08,340.19,010410,,,A*4E
$GPRMC,154939.818,A,3309.0367,N,11551.9470,W,49.85,340.38,010410,,,A*46
$GPRMC,154942.808,A,3309.0760,N,11551.9634,W,50.19,340.35,010410,,,A*4A
$GPRMC,154945.798,A,3309.1152,N,11551.9804,W,50.23,340.11,010410,,,A*4F
$GPRMC,154948.788,A,3309.1543,N,11551.9980,W,50.54,339.93,010410,,,A*4E
$GPRMC,154951.779,A,3309.1941,N,11552.0151,W,51.08,340.03,010410,,,A*47
$GPRMC,154954.769,A,3309.2342,N,11552.0319,W,51.18,340.34,010410,,,A*42
$GPRMC,154957.759,A,3309.2741,N,11552.0488,W,51.00,340.02,010410,,,A*46
$GPRMC,155000.749,A,3309.3136,N,11552.0660,W,50.29,340.21,010410,,,A*45
$GPRMC,155003.739,A,3309.3531,N,11552.0830,W,50.24,339.95,010410,,,A*45
$GPRMC,155006.729,A,3309.3923,N,11552.1003,W,50.16,340.03,010410,,,A*47
$GPRMC,155009.819,A,3309.4326,N,11552.1182,W,50.47,339.76,010410,,,A*4C
$GPRMC,155012.809,A,3309.4723,N,11552.1350,W,50.84,340.26,010410,,,A*4F
$GPRMC,155015.799,A,3309.5120,N,11552.1519,W,51.00,340.18,010410,,,A*41
$GPRMC,155018.789,A,3309.5520,N,11552.1690,W,50.93,339.93,010410,,,A*4D
$GPRMC,155021.779,A,3309.5917,N,11552.1863,W,50.65,339.95,010410,,,A*4D
$GPRMC,155024.769,A,3309.6310,N,11552.2034,W,49.92,340.08,010410,,,A*44
$GPRMC,155027.759,A,3309.6699,N,11552.2200,W,50.05,340.28,010410,,,A*41
$GPRMC,155030.750,A,3309.7095,N,11552.2369,W,50.45,340.08,010410,,,A*4D
$GPRMC,155033.740,A,3309.7492,N,11552.2536,W,50.97,340.41,010410,,,A*42
$GPRMC,155036.730,A,3309.7891,N,11552.2711,W,50.90,340.28,010410,,,A*40
$GPRMC,155039.820,A,3309.8302,N,11552.2892,W,50.68,339.98,010410,,,A*49
$GPRMC,155042.810,A,3309.8694,N,11552.3074,W,50.57,337.24,010410,,,A*48
$GPRMC,155045.800,A,3309.9070,N,11552.3299,W,50.61,329.57,010410,,,A*4C
$GPRMC,155048.790,A,3309.9422,N,11552.3579,W,50.83,322.81,010410,,,A*41
$GPRMC,155051.780,A,3309.9739,N,11552.3910,W,50.71,315.01,010410,,,A*43
$GPRMC,155054.770,A,3310.0021,N,11552.4281,W,50.50,310.46,010410,,,A*47
$GPRMC,155057.760,A,3310.0286,N,11552.4664,W,50.44,309.79,010410,,,A*44
$GPRMC,155100.750,A,3310.0554,N,11552.5046,W,50.41,309.99,010410,,,A*40
$GPRMC,155103.740,A,3310.0823,N,11552.5426,W,50.45,309.89,010410,,,A*48
$GPRMC,155106.730,A,3310.1092,N,11552.5810,W,50.77,309.75,010410,,,A*42
$GPRMC,155109.721,A,3310.1363,N,11552.6193,W,50.49,309.77,010410,,,A*4E
$GPRMC,155112.810,A,3310.1639,N,11552.6590,W,50.61,309.87,010410,,,A*41
$GPRMC,155115.800,A,3310.1912,N,11552.6975,W,50.74,310.17,010410,,,A*43
$GPRMC,155118.790,A,3310.2182,N,11552.7358,W,50.52,309.81,010410,,,A*4D
$GPRMC,155121.781,A,3310.2449,N,11552.7742,W,50.11,309.62,010410,,,A*40
$GPRMC,155124.771,A,3310.2714,N,11552.8121,W,50.30,309.92,010410,,,A*41
$GPRMC,155127.761,A,3310.2981,N,11552.8501,W,50.33,309.96,010410,,,A*40
$GPRMC,155130.751,A,3310.3250,N,11552.8880,W,50.20,309.96,010410,,,A*45
$GPRMC,155133.741,A,3310.3517,N,11552.9258,W,50.04,310.11,010410,,,A*4C
$GPRMC,155136.731,A,3310.3787,N,11552.9637,W,50.34,310.11,010410,,,A*4B
$GPRMC,155139.721,A,3310.4056,N,11553.0022,W,50.90,309.90,010410,,,A*4C
$GPRMC,155142.811,A,3310.4338,N,11553.0420,W,51.31,310.05,010410,,,A*4F
$GPRMC,155145.801,A,3310.4612,N,11553.0807,W,51.22,309.83,010410,,,A*49
$GPRMC,155148.791,A,3310.4884,N,11553.1194,W,50.95,309.78,010410,,,A*48
$GPRMC,155151.781,A,3310.5157,N,11553.1578,W,50.66,309.97,010410,,,A*4C
$GPRMC,155154.771,A,3310.5426,N,11553.1960,W,50.66,310.02,010410,,,A*44
$GPRMC,155157.761,A,3310.5698,N,11553.2343,W,50.64,309.70,010410,,,A*46
$GPRMC,155200.752,A,3310.5966,N,11553.2726,W,50.52,309.92,010410,,,A*47
$GPRMC,155203.742,A,3310.6235,N,11553.3110,W,50.52,310.13,010410,,,A*48
$GPRMC,155206.732,A,3310.6504,N,11553.3492,W,50.46,309.91,010410,,,A*47
$GPRMC,155209.722,A,3310.6774,N,11553.3875,W,50.64,309.93,010410,,,A*4B
$GPRMC,155212.812,A,3310.7053,N,11553.4269,W,50.78,309.99,010410,,,A*49
$GPRMC,155215.802,A,3310.7321,N,11553.4653,W,50.66,310.21,010410,,,A*40
$GPRMC,155218.792,A,3310.7590,N,11553.5037,W,50.66,309.54,010410,,,A*48
$GPRMC,155221.782,A,3310.7860,N,11553.5421,W,50.70,309.87,010410,,,A*4B
$GPRMC,155224.772,A,3310.8128,N,11553.5805,W,50.65,309.72,010410,,,A*4F
$GPRMC,155227.762,A,3310.8399,N,11553.6191,W,50.58,309.92,010410,,,A*42
$GPRMC,155230.752,A,3310.8666,N,11553.6576,W,50.57,309.70,010410,,,A*4C
$GPRMC,155233.742,A,3310.8935,N,11553.6963,W,50.67,309.88,010410,,,A*4B
$GPRMC,155236.732,A,3310.9206,N,11553.7345,W,50.50,310.01,010410,,,A*41
$GPRMC,155239.723,A,3310.9474,N,11553.7730,W,50.63,309.57,010410,,,A*40
$GPRMC,155242.812,A,3310.9752,N,11553.8129,W,50.59,309.77,010410,,,A*4C
$GPRMC,155245.802,A,3311.0021,N,11553.8515,W,50.50,309.76,010410,,,A*42
$GPRMC,155248.792,A,3311.0290,N,11553.8900,W,50.64,310.06,010410,,,A*41
$GPRMC,155251.783,A,3311.0561,N,11553.9285,W,50.72,309.87,010410,,,A*41
$GPRMC,155254.773,A,3311.0830,N,11553.9669,W,50.63,309.77,010410,,,A*4B
$GPRMC,155257.763,A,3311.1101,N,11554.0058,W,50.49,309.94,010410,,,A*4C
$GPRMC,155300.753,A,3311.1371,N,11554.0441,W,50.48,309.79,010410,,,A*47
$GPRMC,155303.743,A,3311.1638,N,11554.0828,W,50.59,309.74,010410,,,A*43
$GPRMC,155306.733,A,3311.1909,N,11554.1211,W,50.55,310.36,010410,,,A*4F
$GPRMC,155309.723,A,3311.2190,N,11554.1585,W,50.56,313.35,010410,,,A*43
$GPRMC,155312.813,A,3311.2501,N,11554.1954,W,50.65,316.67,010410,,,A*4B
$GPRMC,155315.803,A,3311.2816,N,11554.2293,W,50.62,319.30,010410,,,A*4F
$GPRMC,155318.793,A,3311.3144,N,11554.2608,W,50.58,322.43,010410,,,A*48
$GPRMC,155321.783,A,3311.3482,N,11554.2905,W,50.46,325.13,010410,,,A*43
$GPRMC,155324.773,A,3311.3832,N,11554.3181,W,50.52,328.38,010410,,,A*4A
$GPRMC,155327.763,A,3311.4195,N,11554.3435,W,50.65,330.90,010410,,,A*4E
$GPRMC,155330.754,A,3311.4569,N,11554.3666,W,50.54,334.27,010410,,,A*45
$GPRMC,155333.744,A,3311.4952,N,11554.3872,W,50.70,336.86,010410,,,A*47
$GPRMC,155336.734,A,3311.5347,N,11554.4058,W,50.76,339.59,010410,,,A*46
$GPRMC,155339.724,A,3311.5746,N,11554.4232,W,50.73,340.00,010410,,,A*44
$GPRMC,155342.814,A,3311.6155,N,11554.4415,W,50.93,339.64,010410,,,A*42
$GPRMC,155345.804,A,3311.6550,N,11554.4593,W,50.72,339.77,010410,,,A*47
$GPRMC,155348.794,A,3311.6948,N,11554.4767,W,50.84,339.91,010410,,,A*41
$GPRMC,155351.784,A,3311.7344,N,11554.4940,W,50.59,339.76,010410,,,A*4D
$GPRMC,155354.774,A,3311.7738,N,11554.5113,W,50.37,340.02,010410,,,A*42
$GPRMC,155357.764,A,3311.8131,N,11554.5281,W,50.56,339.56,010410,,,A*40
$GPRMC,155400.754,A,3311.8522,N,11554.5459,W,50.54,339.54,010410,,,A*43
$GPRMC,155403.744,A,3311.8919,N,11554.5633,W,50.47,340.08,010410,,,A*4E
$GPRMC,155406.734,A,3311.9314,N,11554.5804,W,50.42,340.33,010410,,,A*4D
$GPRMC,155409.725,A,3311.9710,N,11554.5977,W,50.88,339.58,010410,,,A*42
$GPRMC,155412.814,A,3312.0121,N,11554.6155,W,51.19,339.86,010410,,,A*4A
$GPRMC,155415.804,A,3312.0519,N,11554.6332,W,51.18,339.57,010410,,,A*4D
$GPRMC,155418.794,A,3312.0920,N,11554.6510,W,51.58,339.34,010410,,,A*47
$GPRMC,155421.785,A,3312.1328,N,11554.6690,W,52.68,338.90,010410,,,A*4A
$GPRMC,155424.775,A,3312.1736,N,11554.6880,W,53.37,338.49,010410,,,A*4B
$GPRMC,155427.765,A,3312.2158,N,11554.7075,W,54.34,339.41,010410,,,A*4A
$GPRMC,155430.755,A,3312.2583,N,11554.7262,W,54.74,339.68,010410,,,A*46
$GPRMC,155433.745,A,3312.3009,N,11554.7448,W,54.25,339.73,010410,,,A*42
$GPRMC,155436.735,A,3312.3432,N,11554.7636,W,54.07,339.62,010410,,,A*47
$GPRMC,155439.725,A,3312.3852,N,11554.7818,W,54.04,340.00,010410,,,A*48
$GPRMC,155442.815,A,3312.4288,N,11554.8010,W,53.77,340.04,010410,,,A*4A
$GPRMC,155445.805,A,3312.4707,N,11554.8197,W,53.79,339.66,010410,,,A*44
$GPRMC,155448.795,A,3312.5125,N,11554.8381,W,53.99,339.71,010410,,,A*45
$GPRMC,155451.785,A,3312.5549,N,11554.8569,W,54.39,339.54,010410,,,A*48
$GPRMC,155454.775,A,3312.5975,N,11554.8756,W,54.29,339.94,010410,,,A*42
$GPRMC,155457.765,A,3312.6397,N,11554.8943,W,54.04,339.36,010410,,,A*48
$GPRMC,155500.756,A,3312.6818,N,11554.9132,W,53.88,339.34,010410,,,A*49
$GPRMC,155503.746,A,3312.7238,N,11554.9318,W,53.90,339.89,010410,,,A*47
$GPRMC,155506.736,A,3312.7658,N,11554.9505,W,53.89,339.66,010410,,,A*44
$GPRMC,155509.726,A,3312.8079,N,11554.9688,W,53.94,339.67,010410,,,A*4B
$GPRMC,155512.816,A,3312.8515,N,11554.9878,W,54.06,339.94,010410,,,A*43
$GPRMC,155515.806,A,3312.8938,N,11555.0060,W,54.03,340.60,010410,,,A*4F
$GPRMC,155518.796,A,3312.9360,N,11555.0234,W,53.84,340.98,010410,,,A*4E
$GPRMC,155521.786,A,3312.9781,N,11555.0410,W,53.77,340.27,010410,,,A*46
$GPRMC,155524.776,A,3313.0202,N,11555.0593,W,53.85,339.71,010410,,,A*40
$GPRMC,155527.766,A,3313.0624,N,11555.0780,W,53.98,339.90,010410,,,A*41
$GPRMC,155530.756,A,3313.1048,N,11555.0966,W,53.85,339.82,010410,,,A*40
$GPRMC,155533.746,A,3313.1469,N,11555.1150,W,53.97,339.97,010410,,,A*4E
$GPRMC,155536.736,A,3313.1890,N,11555.1334,W,54.12,339.39,010410,,,A*48
$GPRMC,155539.727,A,3313.2311,N,11555.1521,W,53.94,340.09,010410,,,A*40
$GPRMC,155542.816,A,3313.2747,N,11555.1713,W,54.07,339.48,010410,,,A*43
$GPRMC,155545.806,A,3313.3170,N,11555.1896,W,54.17,339.57,010410,,,A*4B
$GPRMC,155548.796,A,3313.3590,N,11555.2082,W,54.34,339.61,010410,,,A*40
$GPRMC,155551.787,A,3313.4016,N,11555.2269,W,54.49,339.19,010410,,,A*46
$GPRMC,155554.777,A,3313.4440,N,11555.2458,W,54.28,339.86,010410,,,A*4E
$GPRMC,155557.767,A,3313.4863,N,11555.2646,W,54.15,339.56,010410,,,A*4F
$GPRMC,155600.757,A,3313.5284,N,11555.2846,W,54.12,334.93,010410,,,A*42
$GPRMC,155603.747,A,3313.5678,N,11555.3105,W,54.17,327.17,010410,,,A*43
$GPRMC,155606.737,A,3313.6041,N,11555.3424,W,54.22,320.31,010410,,,A*4D
$GPRMC,155609.727,A,3313.6381,N,11555.3768,W,53.20,319.70,010410,,,A*4D
$GPRMC,155612.817,A,3313.6722,N,11555.4114,W,51.24,319.93,010410,,,A*47
$GPRMC,155615.807,A,3313.7042,N,11555.4439,W,49.30,319.95,010410,,,A*41
$GPRMC,155618.797,A,3313.7359,N,11555.4754,W,50.28,319.78,010410,,,A*49
$GPRMC,155621.787,A,3313.7675,N,11555.5069,W,50.05,319.79,010410,,,A*4F
$GPRMC,155624.777,A,3313.7999,N,11555.5399,W,52.65,319.15,010410,,,A*4A
$GPRMC,155627.767,A,3313.8339,N,11555.5746,W,54.64,319.76,010410,,,A*43
$GPRMC,155630.758,A,3313.8683,N,11555.6093,W,53.44,319.90,010410,,,A*4C
$GPRMC,155633.748,A,3313.9026,N,11555.6438,W,54.15,319.72,010410,,,A*4C
$GPRMC,155636.738,A,3313.9371,N,11555.6787,W,55.52,319.70,010410,,,A*48
$GPRMC,155639.728,A,3313.9727,N,11555.7135,W,55.76,319.55,010410,,,A*4E
$GPRMC,155642.818,A,3314.0086,N,11555.7495,W,54.20,319.88,010410,,,A*41
$GPRMC,155645.808,A,3314.0425,N,11555.7835,W,53.20,319.37,010410,,,A*4F
$GPRMC,155648.798,A,3314.0760,N,11555.8171,W,53.01,319.67,010410,,,A*46
$GPRMC,155651.788,A,3314.1099,N,11555.8516,W,53.14,320.25,010410,,,A*42
$GPRMC,155654.778,A,3314.1443,N,11555.8849,W,53.59,322.50,010410,,,A*45
$GPRMC,155657.768,A,3314.1804,N,11555.9160,W,53.54,325.70,010410,,,A*43
$GPRMC,155700.758,A,3314.2181,N,11555.9456,W,53.58,327.99,010410,,,A*4D
$GPRMC,155703.748,A,3314.2554,N,11555.9735,W,53.18,327.99,010410,,,A*41
$GPRMC,155706.738,A,3314.2927,N,11556.0011,W,52.89,328.15,010410,,,A*42
$GPRMC,155709.728,A,3314.3303,N,11556.0285,W,52.99,328.26,010410,,,A*4F
$GPRMC,155712.818,A,3314.3690,N,11556.0572,W,53.18,327.89,010410,,,A*4B
$GPRMC,155715.808,A,3314.4062,N,11556.0854,W,53.30,327.74,010410,,,A*40
$GPRMC,155718.798,A,3314.4443,N,11556.1137,W,53.57,328.23,010410,,,A*4D
$GPRMC,155721.789,A,3314.4819,N,11556.1417,W,53.07,328.16,010410,,,A*40
$GPRMC,155724.779,A,3314.5195,N,11556.1694,W,53.12,328.30,010410,,,A*4F
$GPRMC,155727.769,A,3314.5566,N,11556.1974,W,52.62,327.15,010410,,,A*4A
$GPRMC,155730.759,A,3314.5934,N,11556.2262,W,52.84,326.30,010410,,,A*45
$GPRMC,155733.749,A,3314.6298,N,11556.2551,W,53.06,326.38,010410,,,A*4D
$GPRMC,155736.739,A,3314.6664,N,11556.2846,W,53.19,325.92,010410,,,A*4E
$GPRMC,155739.729,A,3314.7028,N,11556.3138,W,53.01,326.24,010410,,,A*49
$GPRMC,155742.819,A,3314.7407,N,11556.3443,W,53.05,326.32,010410,,,A*4A
$GPRMC,155745.809,A,3314.7777,N,11556.3734,W,53.50,327.09,010410,,,A*42
$GPRMC,155748.799,A,3314.8151,N,11556.4017,W,53.46,328.21,010410,,,A*47
$GPRMC,155751.789,A,3314.8530,N,11556.4296,W,53.28,328.09,010410,,,A*44
$GPRMC,155754.779,A,3314.8906,N,11556.4574,W,53.26,328.05,010410,,,A*4E
$GPRMC,155757.769,A,3314.9282,N,11556.4858,W,53.14,328.01,010410,,,A*4C
$GPRMC,155800.760,A,3314.9657,N,11556.5135,W,53.29,328.27,010410,,,A*4D
$GPRMC,155803.750,A,3315.0036,N,11556.5409,W,53.24,328.41,010410,,,A*43
$GPRMC,155806.740,A,3315.0412,N,11556.5686,W,53.10,328.34,010410,,,A*45
$GPRMC,155809.730,A,3315.0787,N,11556.5964,W,53.21,328.18,010410,,,A*4D
$GPRMC,155812.820,A,3315.1174,N,11556.6249,W,53.13,327.80,010410,,,A*4A
$GPRMC,155815.810,A,3315.1550,N,11556.6526,W,53.25,328.14,010410,,,A*45
$GPRMC,155818.800,A,3315.1927,N,11556.6800,W,53.48,328.28,010410,,,A*48
$GPRMC,155821.790,A,3315.2300,N,11556.7078,W,53.22,328.30,010410,,,A*4B
$GPRMC,155824.780,A,3315.2675,N,11556.7356,W,53.16,328.15,010410,,,A*47
$GPRMC,155827.770,A,3315.3049,N,11556.7631,W,53.27,328.15,010410,,,A*45
$GPRMC,155830.760,A,3315.3427,N,11556.7912,W,53.10,328.15,010410,,,A*44
$GPRMC,155833.750,A,3315.3802,N,11556.8191,W,53.19,327.90,010410,,,A*48
$GPRMC,155836.740,A,3315.4176,N,11556.8465,W,52.84,328.25,010410,,,A*4B
$GPRMC,155839.730,A,3315.4549,N,11556.8741,W,52.92,328.15,010410,,,A*4A
$GPRMC,155842.721,A,3315.4926,N,11556.9016,W,53.48,328.17,010410,,,A*43
$GPRMC,155845.810,A,3315.5318,N,11556.9307,W,53.59,327.97,010410,,,A*4B
$GPRMC,155848.800,A,3315.5696,N,11556.9591,W,53.47,328.14,010410,,,A*46
$GPRMC,155851.791,A,3315.6072,N,11556.9870,W,52.89,327.83,010410,,,A*46
$GPRMC,155854.781,A,3315.6442,N,11557.0146,W,52.87,328.35,010410,,,A*4D
$GPRMC,155857.771,A,3315.6815,N,11557.0426,W,53.18,327.91,010410,,,A*4A
$GPRMC,155900.761,A,3315.7187,N,11557.0711,W,53.50,328.02,010410,,,A*45
$GPRMC,155903.751,A,3315.7565,N,11557.0991,W,53.18,327.56,010410,,,A*49
$GPRMC,155906.741,A,3315.7936,N,11557.1271,W,52.94,327.51,010410,,,A*41
$GPRMC,155909.731,A,3315.8304,N,11557.1556,W,52.92,327.31,010410,,,A*4F
$GPRMC,155912.721,A,3315.8668,N,11557.1834,W,51.83,327.44,010410,,,A*43
$GPRMC,155915.811,A,3315.9035,N,11557.2119,W,49.89,327.36,010410,,,A*44
$GPRMC,155918.801,A,3315.9382,N,11557.2386,W,50.12,327.29,010410,,,A*47
$GPRMC,155921.791,A,3315.9729,N,11557.2651,W,49.83,327.35,010410,,,A*4C
$GPRMC,155924.781,A,3316.0075,N,11557.2912,W,49.24,327.50,010410,,,A*4A
$GPRMC,155927.771,A,3316.0423,N,11557.3174,W,48.83,327.90,010410,,,A*48
$GPRMC,155930.761,A,3316.0767,N,11557.3426,W,48.43,327.56,010410,,,A*48
$GPRMC,155933.752,A,3316.1110,N,11557.3679,W,48.91,327.80,010410,,,A*40
$GPRMC,155936.742,A,3316.1454,N,11557.3941,W,49.10,327.45,010410,,,A*44
$GPRMC,155939.732,A,3316.1802,N,11557.4198,W,49.19,328.53,010410,,,A*49
$GPRMC,155942.722,A,3316.2153,N,11557.4456,W,49.23,327.94,010410,,,A*40
$GPRMC,155945.812,A,3316.2511,N,11557.4727,W,49.05,328.09,010410,,,A*43
$GPRMC,155948.802,A,3316.2858,N,11557.4984,W,49.53,328.02,010410,,,A*40
$GPRMC,155951.792,A,3316.3210,N,11557.5239,W,49.69,328.08,010410,,,A*46
$GPRMC,155954.782,A,3316.3557,N,11557.5496,W,48.90,328.09,010410,,,A*43
$GPRMC,155957.772,A,3316.3899,N,11557.5751,W,48.87,327.99,010410,,,A*48
$GPRMC,160000.762,A,3316.4244,N,11557.6006,W,48.95,327.80,010410,,,A*44
$GPRMC,160003.752,A,3316.4590,N,11557.6260,W,49.19,327.89,010410,,,A*44
$GPRMC,160006.742,A,3316.4934,N,11557.6513,W,49.03,328.26,010410,,,A*40
$GPRMC,160009.732,A,3316.5279,N,11557.6772,W,49.05,328.24,010410,,,A*4A
$GPRMC,160012.723,A,3316.5624,N,11557.7032,W,49.07,327.71,010410,,,A*43
$GPRMC,160015.812,A,3316.5982,N,11557.7302,W,49.27,327.67,010410,,,A*4F
$GPRMC,160018.802,A,3316.6329,N,11557.7559,W,49.14,328.28,010410,,,A*47
$GPRMC,160021.792,A,3316.6677,N,11557.7816,W,49.13,328.04,010410,,,A*4A
$GPRMC,160024.783,A,3316.7026,N,11557.8062,W,49.10,328.39,010410,,,A*45
$GPRMC,160027.773,A,3316.7371,N,11557.8315,W,49.10,328.47,010410,,,A*42
$GPRMC,160030.763,A,3316.7718,N,11557.8572,W,49.27,327.98,010410,,,A*40
$GPRMC,160033.753,A,3316.8068,N,11557.8833,W,49.36,327.89,010410,,,A*47
$GPRMC,160036.743,A,3316.8416,N,11557.9097,W,49.36,327.73,010410,,,A*4C
$GPRMC,160039.733,A,3316.8767,N,11557.9359,W,49.41,327.99,010410,,,A*44
$GPRMC,160042.723,A,3316.9117,N,11557.9617,W,49.38,328.44,010410,,,A*47
$GPRMC,160045.813,A,3316.9480,N,11557.9889,W,49.40,328.08,010410,,,A*49
$GPRMC,160048.803,A,3316.9826,N,11558.0146,W,48.87,328.22,010410,,,A*4B
$GPRMC,160051.793,A,3317.0170,N,11558.0406,W,48.63,327.93,010410,,,A*49
$GPRMC,160054.783,A,3317.0515,N,11558.0661,W,48.91,328.07,010410,,,A*46
$GPRMC,160057.773,A,3317.0860,N,11558.0919,W,49.20,328.16,010410,,,A*4E
$GPRMC,160100.763,A,3317.1210,N,11558.1177,W,49.35,328.15,010410,,,A*46
$GPRMC,160103.754,A,3317.1560,N,11558.1439,W,49.06,328.44,010410,,,A*4A
$GPRMC,160106.744,A,3317.1907,N,11558.1695,W,49.03,328.32,010410,,,A*43
$GPRMC,160109.734,A,3317.2254,N,11558.1948,W,49.20,327.88,010410,,,A*45
$GPRMC,160112.724,A,3317.2600,N,11558.2205,W,49.10,328.03,010410,,,A*45
$GPRMC,160115.814,A,3317.2955,N,11558.2461,W,48.89,328.50,010410,,,A*42
$GPRMC,160118.804,A,3317.3302,N,11558.2718,W,48.89,328.08,010410,,,A*47
$GPRMC,160121.794,A,3317.3648,N,11558.2970,W,49.08,328.09,010410,,,A*49
$GPRMC,160124.784,A,3317.3993,N,11558.3225,W,49.31,327.75,010410,,,A*40
$GPRMC,160127.774,A,3317.4339,N,11558.3480,W,49.22,328.37,010410,,,A*43
$GPRMC,160130.764,A,3317.4688,N,11558.3743,W,49.50,328.05,010410,,,A*43
$GPRMC,160133.754,A,3317.5040,N,11558.4005,W,49.64,328.12,010410,,,A*43
$GPRMC,160136.744,A,3317.5390,N,11558.4271,W,49.45,327.99,010410,,,A*47
$GPRMC,160139.734,A,3317.5737,N,11558.4532,W,49.32,328.17,010410,,,A*4F
$GPRMC,160142.724,A,3317.6088,N,11558.4788,W,49.25,327.98,010410,,,A*4F
$GPRMC,160145.814,A,3317.6445,N,11558.5056,W,49.01,328.01,010410,,,A*4D
$GPRMC,160148.804,A,3317.6792,N,11558.5311,W,49.16,327.90,010410,,,A*49
$GPRMC,160151.794,A,3317.7141,N,11558.5572,W,49.20,327.98,010410,,,A*40
$GPRMC,160154.785,A,3317.7487,N,11558.5828,W,48.93,327.86,010410,,,A*4E
$GPRMC,160157.775,A,3317.7834,N,11558.6091,W,49.14,328.29,010410,,,A*4B
$GPRMC,160200.765,A,3317.8181,N,11558.6350,W,49.24,327.84,010410,,,A*46
$GPRMC,160203.755,A,3317.8527,N,11558.6609,W,49.31,328.06,010410,,,A*46
$GPRMC,160206.745,A,3317.8874,N,11558.6868,W,49.32,328.06,010410,,,A*43
$GPRMC,160209.735,A,3317.9223,N,11558.7126,W,49.30,328.37,010410,,,A*40
$GPRMC,160212.725,A,3317.9569,N,11558.7379,W,49.22,328.13,010410,,,A*4F
$GPRMC,160215.815,A,3317.9928,N,11558.7641,W,49.08,328.05,010410,,,A*4C
$GPRMC,160218.805,A,3318.0276,N,11558.7895,W,49.17,327.58,010410,,,A*48
$GPRMC,160221.795,A,3318.0622,N,11558.8155,W,49.16,328.11,010410,,,A*48
$GPRMC,160224.785,A,3318.0969,N,11558.8417,W,48.95,327.92,010410,,,A*41
$GPRMC,160227.775,A,3318.1315,N,11558.8676,W,49.30,328.20,010410,,,A*40
$GPRMC,160230.765,A,3318.1664,N,11558.8940,W,49.46,327.91,010410,,,A*4A
$GPRMC,160233.755,A,3318.2013,N,11558.9197,W,49.45,327.60,010410,,,A*41
$GPRMC,160236.746,A,3318.2359,N,11558.9456,W,49.21,328.22,010410,,,A*48
$GPRMC,160239.736,A,3318.2704,N,11558.9716,W,49.12,327.48,010410,,,A*48
$GPRMC,160242.726,A,3318.3048,N,11558.9973,W,49.16,328.04,010410,,,A*45
$GPRMC,160245.816,A,3318.3404,N,11559.0245,W,49.06,328.38,010410,,,A*4A
$GPRMC,160248.806,A,3318.3753,N,11559.0500,W,49.05,327.93,010410,,,A*4C
$GPRMC,160251.796,A,3318.4099,N,11559.0758,W,49.06,327.82,010410,,,A*48
$GPRMC,160254.786,A,3318.4443,N,11559.1016,W,48.65,327.95,010410,,,A*41
$GPRMC,160257.776,A,3318.4786,N,11559.1273,W,48.95,327.84,010410,,,A*49
$GPRMC,160300.766,A,3318.5132,N,11559.1535,W,49.38,327.74,010410,,,A*4F
$GPRMC,160303.756,A,3318.5482,N,11559.1790,W,49.48,327.91,010410,,,A*40
$GPRMC,160306.746,A,3318.5833,N,11559.2051,W,49.63,327.62,010410,,,A*4E
$GPRMC,160309.736,A,3318.6187,N,11559.2315,W,50.52,328.23,010410,,,A*40
$GPRMC,160312.726,A,3318.6545,N,11559.2584,W,51.11,328.20,010410,,,A*4A
$GPRMC,160315.816,A,3318.6919,N,11559.2854,W,51.65,327.69,010410,,,A*45
$GPRMC,160318.806,A,3318.7284,N,11559.3128,W,51.47,328.12,010410,,,A*47
$GPRMC,160321.796,A,3318.7645,N,11559.3397,W,51.06,328.09,010410,,,A*4B
$GPRMC,160324.786,A,3318.8005,N,11559.3665,W,50.69,328.05,010410,,,A*4E
$GPRMC,160327.777,A,3318.8363,N,11559.3932,W,50.78,328.31,010410,,,A*4A
$GPRMC,160330.767,A,3318.8723,N,11559.4200,W,50.92,327.79,010410,,,A*47
$GPRMC,160333.757,A,3318.9080,N,11559.4465,W,50.92,328.27,010410,,,A*49
$GPRMC,160336.747,A,3318.9441,N,11559.4735,W,50.99,327.71,010410,,,A*45
$GPRMC,160339.737,A,3318.9800,N,11559.5006,W,50.81,328.22,010410,,,A*42
$GPRMC,160342.727,A,3319.0157,N,11559.5272,W,51.21,327.71,010410,,,A*4F
$GPRMC,160345.817,A,3319.0527,N,11559.5548,W,50.58,328.22,010410,,,A*4F
$GPRMC,160348.807,A,3319.0884,N,11559.5814,W,50.30,328.12,010410,,,A*4E
$GPRMC,160351.797,A,3319.1243,N,11559.6078,W,50.54,327.97,010410,,,A*41
$GPRMC,160354.787,A,3319.1603,N,11559.6347,W,51.10,328.02,010410,,,A*48
$GPRMC,160357.777,A,3319.1964,N,11559.6614,W,51.43,328.03,010410,,,A*4E
$GPRMC,160400.767,A,3319.2326,N,11559.6884,W,51.14,328.16,010410,,,A*44
$GPRMC,160403.757,A,3319.2683,N,11559.7158,W,51.34,327.65,010410,,,A*4E
$GPRMC,160406.748,A,3319.3047,N,11559.7427,W,51.30,328.23,010410,,,A*4E
$GPRMC,160409.738,A,3319.3408,N,11559.7697,W,51.04,328.09,010410,,,A*4F
$GPRMC,160412.728,A,3319.3768,N,11559.7968,W,50.93,327.88,010410,,,A*47
$GPRMC,160415.817,A,3319.4141,N,11559.8242,W,51.01,328.02,010410,,,A*42
$GPRMC,160418.808,A,3319.4498,N,11559.8510,W,50.75,327.90,010410,,,A*46
$GPRMC,160421.798,A,3319.4857,N,11559.8778,W,50.49,328.04,010410,,,A*44
$GPRMC,160424.788,A,3319.5213,N,11559.9044,W,50.23,328.10,010410,,,A*4B
$GPRMC,160427.778,A,3319.5570,N,11559.9310,W,50.75,328.21,010410,,,A*46
$GPRMC,160430.768,A,3319.5931,N,11559.9577,W,51.42,327.96,010410,,,A*49
$GPRMC,160433.758,A,3319.6295,N,11559.9852,W,51.31,328.31,010410,,,A*43
$GPRMC,160436.748,A,3319.6658,N,11600.0118,W,51.15,328.36,010410,,,A*42
$GPRMC,160439.738,A,3319.7019,N,11600.0393,W,50.84,328.00,010410,,,A*45
$GPRMC,160442.728,A,3319.7377,N,11600.0658,W,50.88,328.01,010410,,,A*4C
$GPRMC,160445.818,A,3319.7750,N,11600.0935,W,50.80,328.00,010410,,,A*4B
$GPRMC,160448.808,A,3319.8107,N,11600.1199,W,50.79,328.05,010410,,,A*40
$GPRMC,160451.798,A,3319.8466,N,11600.1470,W,50.84,328.09,010410,,,A*40
$GPRMC,160454.788,A,3319.8825,N,11600.1737,W,50.85,328.00,010410,,,A*47
$GPRMC,160457.779,A,3319.9184,N,11600.2005,W,50.90,328.17,010410,,,A*4E
$GPRMC,160500.769,A,3319.9543,N,11600.2271,W,51.06,327.95,010410,,,A*49
$GPRMC,160503.759,A,3319.9906,N,11600.2540,W,51.08,327.82,010410,,,A*49
$GPRMC,160506.749,A,3320.0266,N,11600.2805,W,50.95,328.28,010410,,,A*45
$GPRMC,160509.739,A,3320.0624,N,11600.3076,W,51.04,327.80,010410,,,A*46
$GPRMC,160512.729,A,3320.0984,N,11600.3340,W,51.05,328.52,010410,,,A*4F
$GPRMC,160515.819,A,3320.1358,N,11600.3617,W,51.02,328.12,010410,,,A*4A
$GPRMC,160518.809,A,3320.1720,N,11600.3884,W,50.98,328.13,010410,,,A*4A
$GPRMC,160521.799,A,3320.2080,N,11600.4152,W,50.92,328.09,010410,,,A*4C
$GPRMC,160524.789,A,3320.2439,N,11600.4420,W,50.84,328.04,010410,,,A*44
$GPRMC,160527.779,A,3320.2800,N,11600.4686,W,51.03,327.93,010410,,,A*4F
$GPRMC,160530.769,A,3320.3160,N,11600.4950,W,51.04,327.98,010410,,,A*4E
$GPRMC,160533.759,A,3320.3518,N,11600.5220,W,50.92,328.18,010410,,,A*41
$GPRMC,160536.749,A,3320.3877,N,11600.5487,W,50.98,328.17,010410,,,A*4F
$GPRMC,160539.740,A,3320.4237,N,11600.5754,W,50.98,328.03,010410,,,A*48
$GPRMC,160542.730,A,3320.4596,N,11600.6021,W,50.91,328.02,010410,,,A*41
$GPRMC,160545.819,A,3320.4964,N,11600.6298,W,50.82,327.94,010410,,,A*41
$GPRMC,160548.810,A,3320.5319,N,11600.6563,W,50.60,328.73,010410,,,A*4D
$GPRMC,160551.800,A,3320.5678,N,11600.6825,W,50.73,327.88,010410,,,A*40
$GPRMC,160554.790,A,3320.6036,N,11600.7089,W,50.68,328.11,010410,,,A*46
$GPRMC,160557.780,A,3320.6395,N,11600.7353,W,50.76,328.23,010410,,,A*44
$GPRMC,160600.770,A,3320.6756,N,11600.7622,W,51.13,328.10,010410,,,A*40
$GPRMC,160603.760,A,3320.7117,N,11600.7889,W,51.05,328.13,010410,,,A*4B
$GPRMC,160606.750,A,3320.7479,N,11600.8157,W,50.97,327.93,010410,,,A*48
$GPRMC,160609.740,A,3320.7838,N,11600.8424,W,50.81,328.26,010410,,,A*48
$GPRMC,160612.730,A,3320.8203,N,11600.8688,W,51.02,330.46,010410,,,A*49
$GPRMC,160615.720,A,3320.8576,N,11600.8928,W,51.07,333.13,010410,,,A*49
$GPRMC,160618.810,A,3320.8973,N,11600.9154,W,50.99,335.86,010410,,,A*4F
$GPRMC,160621.800,A,3320.9362,N,11600.9356,W,50.95,337.81,010410,,,A*46
$GPRMC,160624.790,A,3320.9759,N,11600.9531,W,50.92,340.44,010410,,,A*40
$GPRMC,160627.780,A,3321.0160,N,11600.9690,W,51.12,343.05,010410,,,A*41
$GPRMC,160630.771,A,3321.0568,N,11600.9829,W,50.90,345.27,010410,,,A*44
$GPRMC,160633.761,A,3321.0980,N,11600.9960,W,50.89,345.48,010410,,,A*41
$GPRMC,160636.751,A,3321.1388,N,11601.0087,W,50.94,345.06,010410,,,A*4A
$GPRMC,160639.741,A,3321.1797,N,11601.0217,W,50.97,345.49,010410,,,A*4D
$GPRMC,160642.731,A,3321.2207,N,11601.0343,W,50.90,345.25,010410,,,A*44
$GPRMC,160645.721,A,3321.2615,N,11601.0473,W,50.91,345.09,010410,,,A*4E
$GPRMC,160648.811,A,3321.3037,N,11601.0604,W,50.66,345.32,010410,,,A*4A
$GPRMC,160651.801,A,3321.3446,N,11601.0736,W,51.12,345.29,010410,,,A*49
$GPRMC,160654.791,A,3321.3858,N,11601.0866,W,51.25,345.31,010410,,,A*4E
$GPRMC,160657.781,A,3321.4270,N,11601.0995,W,51.20,345.32,010410,,,A*40
$GPRMC,160700.771,A,3321.4682,N,11601.1124,W,51.14,345.53,010410,,,A*46
$GPRMC,160703.761,A,3321.5091,N,11601.1252,W,50.84,345.17,010410,,,A*4B
$GPRMC,160706.751,A,3321.5498,N,11601.1379,W,50.91,345.25,010410,,,A*4D
$GPRMC,160709.741,A,3321.5908,N,11601.1508,W,50.84,345.37,010410,,,A*40
$GPRMC,160712.732,A,3321.6317,N,11601.1637,W,50.67,345.16,010410,,,A*48
$GPRMC,160715.722,A,3321.6725,N,11601.1762,W,50.72,345.30,010410,,,A*4A
$GPRMC,160718.811,A,3321.7148,N,11601.1896,W,51.27,345.16,010410,,,A*45
$GPRMC,160721.802,A,3321.7562,N,11601.2027,W,51.20,345.42,010410,,,A*46
$GPRMC,160724.792,A,3321.7972,N,11601.2156,W,50.83,345.28,010410,,,A*4B
$GPRMC,160727.782,A,3321.8380,N,11601.2285,W,50.83,345.51,010410,,,A*42
$GPRMC,160730.772,A,3321.8789,N,11601.2416,W,50.92,345.18,010410,,,A*47
$GPRMC,160733.762,A,3321.9197,N,11601.2547,W,50.80,345.17,010410,,,A*44
$GPRMC,160736.752,A,3321.9605,N,11601.2677,W,50.78,345.43,010410,,,A*48
$GPRMC,160739.742,A,3322.0013,N,11601.2810,W,50.97,343.50,010410,,,A*47
$GPRMC,160742.732,A,3322.0418,N,11601.2967,W,50.98,340.61,010410,,,A*4C
$GPRMC,160745.722,A,3322.0815,N,11601.3151,W,51.13,337.68,010410,,,A*4C
$GPRMC,160748.812,A,3322.1215,N,11601.3363,W,50.98,334.83,010410,,,A*41
$GPRMC,160751.802,A,3322.1598,N,11601.3582,W,50.95,334.28,010410,,,A*4F
$GPRMC,160754.792,A,3322.1983,N,11601.3800,W,50.94,334.33,010410,,,A*46
$GPRMC,160757.782,A,3322.2363,N,11601.4021,W,50.82,333.92,010410,,,A*44
$GPRMC,160800.772,A,3322.2745,N,11601.4242,W,50.97,334.15,010410,,,A*4D
$GPRMC,160803.763,A,3322.3130,N,11601.4459,W,50.98,334.35,010410,,,A*4A
$GPRMC,160806.753,A,3322.3512,N,11601.4681,W,50.95,333.88,010410,,,A*43
$GPRMC,160809.743,A,3322.3893,N,11601.4903,W,50.97,334.18,010410,,,A*40
$GPRMC,160812.733,A,3322.4276,N,11601.5122,W,51.15,334.06,010410,,,A*45
$GPRMC,160815.723,A,3322.4661,N,11601.5344,W,50.97,334.29,010410,,,A*45
$GPRMC,160818.813,A,3322.5055,N,11601.5574,W,50.86,334.31,010410,,,A*48
$GPRMC,160821.803,A,3322.5436,N,11601.5792,W,50.82,334.13,010410,,,A*4C
$GPRMC,160824.793,A,3322.5814,N,11601.6012,W,50.60,333.79,010410,,,A*48
$GPRMC,160827.783,A,3322.6191,N,11601.6239,W,50.86,331.67,010410,,,A*43
$GPRMC,160830.773,A,3322.6556,N,11601.6495,W,51.07,327.96,010410,,,A*44
$GPRMC,160833.763,A,3322.6905,N,11601.6778,W,50.94,323.94,010410,,,A*41
$GPRMC,160836.753,A,3322.7239,N,11601.7091,W,50.87,320.34,010410,,,A*48
$GPRMC,160839.743,A,3322.7559,N,11601.7425,W,50.79,317.99,010410,,,A*4E
$GPRMC,160842.734,A,3322.7868,N,11601.7767,W,50.88,317.12,010410,,,A*45
$GPRMC,160845.724,A,3322.8180,N,11601.8111,W,50.90,317.24,010410,,,A*47
$GPRMC,160848.813,A,3322.8502,N,11601.8467,W,51.10,317.41,010410,,,A*41
$GPRMC,160851.803,A,3322.8813,N,11601.8812,W,50.95,317.29,010410,,,A*49
$GPRMC,160854.794,A,3322.9124,N,11601.9158,W,50.95,317.14,010410,,,A*49
$GPRMC,160857.784,A,3322.9432,N,11601.9504,W,50.82,317.10,010410,,,A*46
$GPRMC,160900.774,A,3322.9743,N,11601.9846,W,50.94,317.31,010410,,,A*40
$GPRMC,160903.764,A,3323.0057,N,11602.0189,W,51.14,317.14,010410,,,A*46
$GPRMC,160906.754,A,3323.0368,N,11602.0528,W,50.94,317.39,010410,,,A*46
$GPRMC,160909.744,A,3323.0682,N,11602.0875,W,50.87,317.44,010410,,,A*44
$GPRMC,160912.734,A,3323.0994,N,11602.1216,W,50.68,317.26,010410,,,A*4A
$GPRMC,160915.724,A,3323.1302,N,11602.1557,W,50.64,317.00,010410,,,A*42
$GPRMC,160918.814,A,3323.1621,N,11602.1913,W,50.69,317.21,010410,,,A*45
$GPRMC,160921.804,A,3323.1931,N,11602.2258,W,51.09,317.18,010410,,,A*4A
$GPRMC,160924.794,A,3323.2243,N,11602.2604,W,50.88,317.46,010410,,,A*4A
$GPRMC,160927.784,A,3323.2556,N,11602.2949,W,51.01,317.29,010410,,,A*44
$GPRMC,160930.774,A,3323.2865,N,11602.3289,W,51.08,317.11,010410,,,A*44
$GPRMC,160933.765,A,3323.3176,N,11602.3632,W,51.02,316.88,010410,,,A*42
$GPRMC,160936.755,A,3323.3486,N,11602.3978,W,50.78,317.21,010410,,,A*41
$GPRMC,160939.745,A,3323.3802,N,11602.4319,W,50.82,318.99,010410,,,A*4C
$GPRMC,160942.735,A,3323.4128,N,11602.4640,W,51.13,322.70,010410,,,A*4F
$GPRMC,160945.725,A,3323.4475,N,11602.4930,W,51.25,327.09,010410,,,A*42
$GPRMC,160948.815,A,3323.4853,N,11602.5192,W,50.94,331.81,010410,,,A*46
$GPRMC,160951.805,A,3323.5234,N,11602.5417,W,50.79,336.03,010410,,,A*43
$GPRMC,160954.795,A,3323.5627,N,11602.5603,W,50.94,340.54,010410,,,A*41
$GPRMC,160957.785,A,3323.6033,N,11602.5751,W,51.29,344.79,010410,,,A*49
$GPRMC,161000.775,A,3323.6447,N,11602.5864,W,50.92,348.70,010410,,,A*46
$GPRMC,161003.765,A,3323.6860,N,11602.5963,W,50.81,348.85,010410,,,A*43
$GPRMC,161006.755,A,3323.7274,N,11602.6062,W,50.61,348.40,010410,,,A*47
$GPRMC,161009.745,A,3323.7684,N,11602.6161,W,50.63,348.43,010410,,,A*41
$GPRMC,161012.735,A,3323.8099,N,11602.6259,W,50.61,348.74,010410,,,A*47
$GPRMC,161015.726,A,3323.8512,N,11602.6353,W,50.72,348.81,010410,,,A*47
$GPRMC,161018.815,A,3323.8939,N,11602.6455,W,50.79,348.78,010410,,,A*4C
$GPRMC,161021.805,A,3323.9354,N,11602.6553,W,50.91,348.57,010410,,,A*4B
$GPRMC,161024.796,A,3323.9769,N,11602.6651,W,50.81,348.80,010410,,,A*4B
$GPRMC,161027.786,A,3324.0182,N,11602.6752,W,50.70,348.63,010410,,,A*45
$GPRMC,161030.776,A,3324.0594,N,11602.6850,W,50.70,348.59,010410,,,A*4B
$GPRMC,161033.766,A,3324.1008,N,11602.6945,W,50.62,348.85,010410,,,A*4F
$GPRMC,161036.756,A,3324.1422,N,11602.7041,W,50.76,348.90,010410,,,A*48
$GPRMC,161039.746,A,3324.1837,N,11602.7139,W,50.79,348.45,010410,,,A*47
$GPRMC,161042.736,A,3324.2253,N,11602.7241,W,50.89,348.68,010410,,,A*4B
$GPRMC,161045.726,A,3324.2669,N,11602.7338,W,51.12,348.60,010410,,,A*44
$GPRMC,161048.816,A,3324.3099,N,11602.7445,W,51.06,348.80,010410,,,A*4B
$GPRMC,161051.806,A,3324.3516,N,11602.7542,W,51.18,348.74,010410,,,A*42
$GPRMC,161054.796,A,3324.3934,N,11602.7646,W,51.07,348.88,010410,,,A*47
$GPRMC,161057.786,A,3324.4349,N,11602.7747,W,50.88,348.34,010410,,,A*43
$GPRMC,161100.776,A,3324.4763,N,11602.7847,W,50.77,348.51,010410,,,A*4F
$GPRMC,161103.766,A,3324.5177,N,11602.7945,W,50.39,348.66,010410,,,A*42
$GPRMC,161106.757,A,3324.5586,N,11602.8046,W,50.12,348.62,010410,,,A*47
$GPRMC,161109.747,A,3324.5997,N,11602.8145,W,50.38,348.63,010410,,,A*4E
$GPRMC,161112.737,A,3324.6409,N,11602.8242,W,50.68,348.79,010410,,,A*40
$GPRMC,161115.727,A,3324.6823,N,11602.8340,W,51.13,348.76,010410,,,A*43
$GPRMC,161118.817,A,3324.7257,N,11602.8439,W,51.88,348.98,010410,,,A*41
$GPRMC,161121.807,A,3324.7679,N,11602.8542,W,51.68,347.51,010410,,,A*4B
$GPRMC,161124.797,A,3324.8095,N,11602.8659,W,51.27,345.53,010410,,,A*41
$GPRMC,161127.787,A,3324.8504,N,11602.8801,W,51.20,342.37,010410,,,A*4F
$GPRMC,161130.777,A,3324.8906,N,11602.8965,W,51.05,339.94,010410,,,A*49
$GPRMC,161133.767,A,3324.9301,N,11602.9157,W,50.99,336.11,010410,,,A*49
$GPRMC,161136.757,A,3324.9683,N,11602.9377,W,50.84,333.14,010410,,,A*4C
$GPRMC,161139.747,A,3325.0055,N,11602.9617,W,50.83,330.44,010410,,,A*45
$GPRMC,161142.737,A,3325.0417,N,11602.9879,W,50.74,327.44,010410,,,A*44
$GPRMC,161145.728,A,3325.0769,N,11603.0161,W,50.93,324.93,010410,,,A*4F
$GPRMC,161148.817,A,3325.1121,N,11603.0471,W,50.78,322.14,010410,,,A*42
$GPRMC,161151.807,A,3325.1444,N,11603.0794,W,50.89,318.19,010410,,,A*4F
$GPRMC,161154.797,A,3325.1752,N,11603.1144,W,50.70,316.05,010410,,,A*47
$GPRMC,161157.788,A,3325.2052,N,11603.1499,W,50.96,315.00,010410,,,A*45
$GPRMC,161200.778,A,3325.2352,N,11603.1859,W,50.93,315.01,010410,,,A*4C
$GPRMC,161203.768,A,3325.2653,N,11603.2220,W,51.04,315.25,010410,,,A*44
$GPRMC,161206.758,A,3325.2955,N,11603.2579,W,50.71,315.21,010410,,,A*47
$GPRMC,161209.748,A,3325.3256,N,11603.2940,W,51.05,315.25,010410,,,A*40
$GPRMC,161212.738,A,3325.3557,N,11603.3300,W,51.05,315.08,010410,,,A*4B
$GPRMC,161215.728,A,3325.3862,N,11603.3660,W,51.06,315.10,010410,,,A*4F
$GPRMC,161218.818,A,3325.4170,N,11603.4028,W,51.07,315.04,010410,,,A*4A
$GPRMC,161221.808,A,3325.4472,N,11603.4390,W,50.98,315.16,010410,,,A*42
$GPRMC,161224.798,A,3325.4770,N,11603.4751,W,50.74,314.41,010410,,,A*48
$GPRMC,161227.788,A,3325.5071,N,11603.5110,W,50.91,314.91,010410,,,A*49
$GPRMC,161230.778,A,3325.5373,N,11603.5468,W,50.73,315.93,010410,,,A*44
$GPRMC,161233.768,A,3325.5681,N,11603.5817,W,50.84,317.41,010410,,,A*4F
$GPRMC,161236.759,A,3325.5997,N,11603.6157,W,50.74,319.01,010410,,,A*4B
$GPRMC,161239.749,A,3325.6317,N,11603.6476,W,50.76,320.76,010410,,,A*4A
$GPRMC,161242.739,A,3325.6646,N,11603.6794,W,50.78,320.82,010410,,,A*4A
$GPRMC,161245.729,A,3325.6972,N,11603.7114,W,50.74,320.54,010410,,,A*4C
$GPRMC,161248.819,A,3325.7313,N,11603.7445,W,51.04,320.48,010410,,,A*4B
$GPRMC,161251.809,A,3325.7637,N,11603.7767,W,50.91,319.82,010410,,,A*43
$GPRMC,161254.799,A,3325.7957,N,11603.8101,W,50.74,319.06,010410,,,A*47
$GPRMC,161257.789,A,3325.8279,N,11603.8430,W,50.94,319.17,010410,,,A*44
$GPRMC,161300.779,A,3325.8599,N,11603.8759,W,50.82,319.49,010410,,,A*41
$GPRMC,161303.769,A,3325.8922,N,11603.9088,W,50.93,319.36,010410,,,A*4D
$GPRMC,161306.759,A,3325.9243,N,11603.9417,W,51.15,319.35,010410,,,A*48
$GPRMC,161309.749,A,3325.9565,N,11603.9752,W,51.04,318.99,010410,,,A*40
$GPRMC,161312.739,A,3325.9886,N,11604.0081,W,51.28,319.44,010410,,,A*45
$GPRMC,161315.729,A,3326.0209,N,11604.0411,W,50.89,319.50,010410,,,A*46
$GPRMC,161318.819,A,3326.0538,N,11604.0752,W,50.82,318.99,010410,,,A*49
$GPRMC,161321.809,A,3326.0859,N,11604.1084,W,50.96,319.39,010410,,,A*4B
$GPRMC,161324.799,A,3326.1180,N,11604.1415,W,50.90,319.66,010410,,,A*44
$GPRMC,161327.790,A,3326.1502,N,11604.1747,W,50.94,319.27,010410,,,A*45
$GPRMC,161330.780,A,3326.1821,N,11604.2077,W,50.77,319.27,010410,,,A*44
$GPRMC,161333.770,A,3326.2146,N,11604.2404,W,50.86,319.59,010410,,,A*44
$GPRMC,161336.760,A,3326.2469,N,11604.2732,W,50.75,319.28,010410,,,A*44
$GPRMC,161339.750,A,3326.2791,N,11604.3062,W,51.07,319.33,010410,,,A*41
$GPRMC,161342.740,A,3326.3111,N,11604.3390,W,51.25,319.19,010410,,,A*45
$GPRMC,161345.730,A,3326.3434,N,11604.3722,W,50.90,319.38,010410,,,A*46
$GPRMC,161348.720,A,3326.3755,N,11604.4052,W,50.87,319.54,010410,,,A*45
$GPRMC,161351.810,A,3326.4082,N,11604.4394,W,50.91,319.18,010410,,,A*4D
$GPRMC,161354.800,A,3326.4403,N,11604.4719,W,51.02,319.46,010410,,,A*45
$GPRMC,161357.790,A,3326.4726,N,11604.5049,W,50.87,319.34,010410,,,A*4E
