NMEA Sentence Code,UTC Time,Status,Latitude,Latitude Direction,Longitude,Longitude Direction,Speed (knots),Track Angle (degrees true),Date,MagneticVariation,Magnetic Variation Direction,[FAA Mode]-Optional,Checksum
$GPRMC,143729.90,A,3347.628359,N,11713.801279,W,55.4,159.2,130910,,,A*7E
$GPRMC,143732.90,A,3347.588104,N,11713.778207,W,54.0,152.7,130910,,,A*74
$GPRMC,143735.90,A,3347.553125,N,11713.748518,W,53.7,144.1,130910,,,A*7D
$GPRMC,143739.90,A,3347.506575,N,11713.699303,W,56.0,136.7,130910,,,A*70
$GPRMC,143742.90,A,3347.474171,N,11713.656956,W,57.3,132.4,130910,,,A*74
$GPRMC,143745.90,A,3347.443210,N,11713.613843,W,56.9,130.1,130910,,,A*7B
$GPRMC,143748.90,A,3347.415130,N,11713.568422,W,56.0,128.2,130910,,,A*73
$GPRMC,143751.90,A,3347.387373,N,11713.525247,W,55.2,128.0,130910,,,A*7D
$GPRMC,143754.90,A,3347.358677,N,11713.483448,W,54.3,129.1,130910,,,A*7F
$GPRMC,143757.90,A,3347.329831,N,11713.441426,W,53.8,129.6,130910,,,A*7B
$GPRMC,143801.90,A,3347.295592,N,11713.385551,W,52.9,128.0,130910,,,A*7C
$GPRMC,143804.90,A,3347.266961,N,11713.345040,W,53.5,128.8,130910,,,A*79
$GPRMC,143807.90,A,3347.239918,N,11713.302103,W,53.9,128.0,130910,,,A*7F
$GPRMC,143810.90,A,3347.212675,N,11713.260014,W,53.9,128.0,130910,,,A*76
$GPRMC,143813.90,A,3347.183024,N,11713.218073,W,54.6,128.7,130910,,,A*7D
$GPRMC,143816.90,A,3347.153086,N,11713.174597,W,56.0,128.7,130910,,,A*7F
$GPRMC,143819.90,A,3347.125372,N,11713.129063,W,55.9,127.8,130910,,,A*75
$GPRMC,143822.90,A,3347.096579,N,11713.085513,W,55.6,128.2,130910,,,A*76
$GPRMC,143826.90,A,3347.058682,N,11713.029276,W,54.4,128.4,130910,,,A*70
$GPRMC,143830.20,A,3347.029558,N,11712.982571,W,54.0,128.4,130910,,,A*73
$GPRMC,143833.90,A,3346.992817,N,11712.931151,W,52.6,129.2,130910,,,A*7C
$GPRMC,143836.00,A,3346.974422,N,11712.903126,W,51.8,128.7,130910,,,A*7A
$GPRMC,143840.90,A,3346.930271,N,11712.835952,W,52.3,127.4,130910,,,A*79
$GPRMC,143843.90,A,3346.904748,N,11712.793704,W,52.9,126.7,130910,,,A*74
$GPRMC,143846.90,A,3346.877954,N,11712.750269,W,53.9,126.3,130910,,,A*73
$GPRMC,143849.90,A,3346.848677,N,11712.706867,W,55.2,127.1,130910,,,A*77
$GPRMC,143852.90,A,3346.821550,N,11712.663331,W,55.5,127.1,130910,,,A*79
$GPRMC,143855.90,A,3346.789736,N,11712.619541,W,56.7,128.0,130910,,,A*72
$GPRMC,143858.90,A,3346.760372,N,11712.574303,W,57.4,128.2,130910,,,A*74
$GPRMC,143901.90,A,3346.733504,N,11712.526875,W,57.5,128.0,130910,,,A*76
$GPRMC,143905.90,A,3346.693060,N,11712.467572,W,57.7,128.1,130910,,,A*73
$GPRMC,143909.90,A,3346.650951,N,11712.406637,W,57.9,128.8,130910,,,A*79
$GPRMC,143912.90,A,3346.621627,N,11712.360830,W,57.6,127.6,130910,,,A*7B
$GPRMC,143915.90,A,3346.593566,N,11712.315209,W,57.5,127.5,130910,,,A*72
$GPRMC,143918.90,A,3346.561585,N,11712.271773,W,57.0,128.7,130910,,,A*7C
$GPRMC,143922.90,A,3346.524211,N,11712.211233,W,56.6,127.5,130910,,,A*73
$GPRMC,143926.90,A,3346.486012,N,11712.150960,W,56.7,127.7,130910,,,A*77
$GPRMC,143930.90,A,3346.446003,N,11712.092087,W,57.3,128.6,130910,,,A*78
$GPRMC,143933.90,A,3346.414627,N,11712.048010,W,57.6,128.9,130910,,,A*7F
$GPRMC,143937.90,A,3346.378129,N,11711.986989,W,56.3,126.9,130910,,,A*74
$GPRMC,143940.90,A,3346.349134,N,11711.941826,W,57.3,127.9,130910,,,A*75
$GPRMC,143943.90,A,3346.319612,N,11711.894425,W,58.8,127.7,130910,,,A*7C
$GPRMC,143946.90,A,3346.289782,N,11711.849846,W,57.9,128.0,130910,,,A*76
$GPRMC,143949.90,A,3346.258108,N,11711.802430,W,58.7,127.3,130910,,,A*7E
$GPRMC,143953.90,A,3346.218404,N,11711.739770,W,58.9,127.6,130910,,,A*73
$GPRMC,143957.90,A,3346.180010,N,11711.677608,W,58.8,127.6,130910,,,A*70
$GPRMC,144000.00,A,3346.160396,N,11711.647043,W,57.9,127.6,130910,,,A*72
$GPRMC,144003.90,A,3346.121349,N,11711.588419,W,56.8,128.3,130910,,,A*7E
$GPRMC,144006.90,A,3346.093641,N,11711.544580,W,55.9,129.0,130910,,,A*7F
$GPRMC,144009.20,A,3346.068739,N,11711.513417,W,55.4,133.3,130910,,,A*79
$GPRMC,144012.90,A,3346.026896,N,11711.465521,W,55.5,137.1,130910,,,A*7B
$GPRMC,144015.20,A,3345.998833,N,11711.438626,W,56.0,142.3,130910,,,A*7D
$GPRMC,144018.20,A,3345.959657,N,11711.408737,W,54.6,148.8,130910,,,A*76
$GPRMC,144022.90,A,3345.892590,N,11711.377334,W,55.1,162.6,130910,,,A*72
$GPRMC,144025.20,A,3345.858232,N,11711.369998,W,54.7,169.2,130910,,,A*7C
$GPRMC,144029.20,A,3345.794968,N,11711.365183,W,56.4,179.4,130910,,,A*73
$GPRMC,144032.90,A,3345.736972,N,11711.365660,W,56.9,180.1,130910,,,A*75
$GPRMC,144035.90,A,3345.690572,N,11711.365337,W,55.2,180.0,130910,,,A*7D
$GPRMC,144038.90,A,3345.644547,N,11711.365321,W,54.4,181.1,130910,,,A*7F
$GPRMC,144041.90,A,3345.599974,N,11711.366486,W,53.8,180.5,130910,,,A*79
$GPRMC,144045.90,A,3345.539722,N,11711.366188,W,55.0,180.3,130910,,,A*79
$GPRMC,144050.20,A,3345.474616,N,11711.365826,W,55.3,180.3,130910,,,A*75
$GPRMC,144054.90,A,3345.402430,N,11711.365121,W,55.1,179.9,130910,,,A*7D
$GPRMC,144058.90,A,3345.339046,N,11711.367290,W,56.5,180.4,130910,,,A*7C
$GPRMC,144101.90,A,3345.291983,N,11711.368381,W,56.0,180.5,130910,,,A*78
$GPRMC,144104.20,A,3345.256223,N,11711.368211,W,56.7,180.1,130910,,,A*77
$GPRMC,144107.20,A,3345.208301,N,11711.368256,W,56.8,180.5,130910,,,A*76
$GPRMC,144111.00,A,3345.148354,N,11711.369055,W,57.5,180.0,130910,,,A*7D
$GPRMC,144114.90,A,3345.084122,N,11711.369435,W,58.4,180.0,130910,,,A*7F
$GPRMC,144117.90,A,3345.036210,N,11711.370109,W,57.8,180.5,130910,,,A*73
$GPRMC,144120.20,A,3344.999380,N,11711.369670,W,57.0,180.2,130910,,,A*77
$GPRMC,144123.90,A,3344.941138,N,11711.370258,W,56.1,180.4,130910,,,A*7B
$GPRMC,144126.90,A,3344.894676,N,11711.370218,W,55.3,180.2,130910,,,A*79
$GPRMC,144129.90,A,3344.847940,N,11711.371923,W,55.7,181.5,130910,,,A*72
$GPRMC,144132.90,A,3344.801247,N,11711.374035,W,55.9,182.6,130910,,,A*73
$GPRMC,144135.90,A,3344.753314,N,11711.377423,W,56.9,182.1,130910,,,A*7F
$GPRMC,144139.90,A,3344.690893,N,11711.379045,W,56.2,180.9,130910,,,A*72
$GPRMC,144143.20,A,3344.638660,N,11711.379531,W,58.3,180.0,130910,,,A*74
$GPRMC,144147.20,A,3344.573369,N,11711.378683,W,58.7,179.6,130910,,,A*7F
$GPRMC,144150.00,A,3344.529632,N,11711.377986,W,57.8,179.8,130910,,,A*74
$GPRMC,144153.90,A,3344.466137,N,11711.376593,W,57.4,178.8,130910,,,A*72
$GPRMC,144156.90,A,3344.418154,N,11711.375624,W,57.2,179.1,130910,,,A*79
$GPRMC,144159.90,A,3344.371348,N,11711.375376,W,56.0,179.5,130910,,,A*74
$GPRMC,144202.90,A,3344.325896,N,11711.375491,W,52.8,179.4,130910,,,A*73
$GPRMC,144205.90,A,3344.282317,N,11711.375781,W,52.3,179.3,130910,,,A*74
$GPRMC,144208.90,A,3344.237075,N,11711.374940,W,54.1,179.7,130910,,,A*72
$GPRMC,144211.90,A,3344.192344,N,11711.375314,W,53.9,179.6,130910,,,A*73
$GPRMC,144215.20,A,3344.141322,N,11711.374202,W,56.3,179.2,130910,,,A*7E
$GPRMC,144218.30,A,3344.093150,N,11711.374073,W,57.4,179.4,130910,,,A*7F
$GPRMC,144221.90,A,3344.033795,N,11711.372700,W,58.2,179.7,130910,,,A*75
$GPRMC,144224.90,A,3343.985384,N,11711.372572,W,58.6,179.1,130910,,,A*72
$GPRMC,144227.90,A,3343.935998,N,11711.371371,W,58.8,179.4,130910,,,A*70
$GPRMC,144230.90,A,3343.888215,N,11711.371564,W,58.4,179.2,130910,,,A*77
$GPRMC,144233.90,A,3343.838335,N,11711.370976,W,58.9,178.9,130910,,,A*75
$GPRMC,144236.90,A,3343.790509,N,11711.370992,W,57.4,179.2,130910,,,A*76
$GPRMC,144239.90,A,3343.742748,N,11711.369068,W,56.9,179.5,130910,,,A*7E
$GPRMC,144242.90,A,3343.694768,N,11711.368204,W,57.2,179.2,130910,,,A*7E
$GPRMC,144245.30,A,3343.657244,N,11711.367178,W,58.2,179.2,130910,,,A*7F
$GPRMC,144249.20,A,3343.592588,N,11711.366333,W,59.2,179.5,130910,,,A*75
$GPRMC,144252.20,A,3343.543310,N,11711.365645,W,59.2,179.4,130910,,,A*72
$GPRMC,144255.20,A,3343.493729,N,11711.365422,W,58.7,179.2,130910,,,A*76
$GPRMC,144259.90,A,3343.417282,N,11711.364980,W,57.7,179.6,130910,,,A*76
$GPRMC,144303.20,A,3343.364588,N,11711.364144,W,56.7,179.6,130910,,,A*7C
$GPRMC,144306.20,A,3343.316866,N,11711.363846,W,56.1,178.9,130910,,,A*75
$GPRMC,144310.20,A,3343.254895,N,11711.362747,W,54.9,179.5,130910,,,A*71
$GPRMC,144313.90,A,3343.198179,N,11711.362001,W,54.9,179.7,130910,,,A*76
$GPRMC,144316.20,A,3343.162175,N,11711.361142,W,56.8,179.6,130910,,,A*76
$GPRMC,144320.20,A,3343.097806,N,11711.360513,W,58.7,179.3,130910,,,A*70
$GPRMC,144323.20,A,3343.048228,N,11711.359955,W,59.5,179.3,130910,,,A*70
$GPRMC,144328.20,A,3342.964468,N,11711.358518,W,60.8,179.4,130910,,,A*7B
$GPRMC,144332.90,A,3342.884729,N,11711.355233,W,61.6,176.6,130910,,,A*73
$GPRMC,144337.20,A,3342.811476,N,11711.343747,W,61.4,170.4,130910,,,A*7F
$GPRMC,144340.20,A,3342.761351,N,11711.331508,W,61.2,167.1,130910,,,A*7C
$GPRMC,144343.90,A,3342.699865,N,11711.312446,W,61.8,163.5,130910,,,A*7E
$GPRMC,144346.90,A,3342.652040,N,11711.292916,W,61.4,160.2,130910,,,A*7A
$GPRMC,144349.90,A,3342.604256,N,11711.270772,W,61.5,157.0,130910,,,A*74
$GPRMC,144353.90,A,3342.543099,N,11711.234873,W,61.3,153.1,130910,,,A*73
$GPRMC,144357.90,A,3342.483298,N,11711.196656,W,61.1,150.9,130910,,,A*72
$GPRMC,144401.90,A,3342.424565,N,11711.154557,W,61.6,148.9,130910,,,A*7C
$GPRMC,144404.20,A,3342.391742,N,11711.128676,W,61.2,147.8,130910,,,A*7D
$GPRMC,144407.20,A,3342.348758,N,11711.095930,W,60.7,148.1,130910,,,A*79
$GPRMC,144410.20,A,3342.306286,N,11711.064403,W,60.1,148.2,130910,,,A*75
$GPRMC,144414.90,A,3342.239017,N,11711.014870,W,60.2,148.9,130910,,,A*7A
$GPRMC,144417.90,A,3342.194297,N,11710.984939,W,60.9,150.8,130910,,,A*79
$GPRMC,144420.90,A,3342.150353,N,11710.956190,W,61.5,151.0,130910,,,A*7C
$GPRMC,144424.90,A,3342.090817,N,11710.915561,W,62.7,151.5,130910,,,A*77
$GPRMC,144427.90,A,3342.044564,N,11710.886012,W,61.5,151.5,130910,,,A*7F
$GPRMC,144430.90,A,3342.001750,N,11710.855839,W,60.8,151.1,130910,,,A*7A
$GPRMC,144433.20,A,3341.969332,N,11710.832703,W,60.0,151.0,130910,,,A*78
$GPRMC,144436.20,A,3341.926503,N,11710.804397,W,58.5,151.3,130910,,,A*73
$GPRMC,144440.20,A,3341.870857,N,11710.766513,W,57.6,150.9,130910,,,A*7A
$GPRMC,144444.20,A,3341.814038,N,11710.728660,W,58.7,150.9,130910,,,A*7E
$GPRMC,144447.00,A,3341.774255,N,11710.702758,W,59.2,150.9,130910,,,A*79
$GPRMC,144450.90,A,3341.717483,N,11710.664847,W,59.1,151.0,130910,,,A*75
$GPRMC,144453.90,A,3341.675255,N,11710.635349,W,57.8,150.7,130910,,,A*7E
$GPRMC,144456.90,A,3341.634463,N,11710.607186,W,56.8,151.1,130910,,,A*7B
$GPRMC,144459.90,A,3341.592431,N,11710.579843,W,57.0,151.6,130910,,,A*78
$GPRMC,144502.90,A,3341.552294,N,11710.553339,W,55.9,151.6,130910,,,A*77
$GPRMC,144505.90,A,3341.510196,N,11710.528522,W,56.4,152.3,130910,,,A*7F
$GPRMC,144509.20,A,3341.467544,N,11710.498548,W,54.1,150.8,130910,,,A*7A
$GPRMC,144513.90,A,3341.405342,N,11710.457776,W,53.5,151.4,130910,,,A*7C
$GPRMC,144517.90,A,3341.352906,N,11710.423334,W,55.2,151.1,130910,,,A*72
$GPRMC,144520.90,A,3341.312271,N,11710.396435,W,55.1,151.5,130910,,,A*71
$GPRMC,144524.90,A,3341.258236,N,11710.361644,W,56.3,153.2,130910,,,A*71
$GPRMC,144527.90,A,3341.215439,N,11710.337509,W,57.2,155.5,130910,,,A*7A
$GPRMC,144530.20,A,3341.181840,N,11710.322432,W,56.1,159.4,130910,,,A*79
$GPRMC,144533.20,A,3341.137450,N,11710.304572,W,55.0,163.0,130910,,,A*74
$GPRMC,144536.90,A,3341.082197,N,11710.286239,W,55.2,166.2,130910,,,A*7D
$GPRMC,144539.90,A,3341.035255,N,11710.276568,W,56.1,169.4,130910,,,A*76
$GPRMC,144542.90,A,3340.986824,N,11710.268672,W,58.1,172.4,130910,,,A*75
$GPRMC,144546.20,A,3340.933525,N,11710.263976,W,59.1,176.5,130910,,,A*7C
$GPRMC,144549.20,A,3340.886640,N,11710.263158,W,56.5,180.3,130910,,,A*7C
$GPRMC,144552.90,A,3340.828901,N,11710.263608,W,55.5,180.5,130910,,,A*74
$GPRMC,144555.90,A,3340.783564,N,11710.263383,W,53.7,180.3,130910,,,A*76
$GPRMC,144558.20,A,3340.749379,N,11710.263365,W,54.3,180.1,130910,,,A*75
$GPRMC,144602.20,A,3340.687583,N,11710.263423,W,55.2,180.7,130910,,,A*7A
$GPRMC,144605.20,A,3340.641572,N,11710.263805,W,55.5,180.3,130910,,,A*72
$GPRMC,144609.20,A,3340.579961,N,11710.263843,W,55.1,180.1,130910,,,A*7C
$GPRMC,144613.00,A,3340.522448,N,11710.264093,W,54.7,180.2,130910,,,A*7B
$GPRMC,144616.20,A,3340.472717,N,11710.264571,W,54.7,180.3,130910,,,A*79
$GPRMC,144620.20,A,3340.412039,N,11710.264975,W,54.2,180.4,130910,,,A*7B
$GPRMC,144623.90,A,3340.356545,N,11710.265170,W,54.2,180.5,130910,,,A*77
$GPRMC,144626.30,A,3340.321587,N,11710.265411,W,54.6,180.0,130910,,,A*75
$GPRMC,144629.30,A,3340.275722,N,11710.265506,W,55.6,180.2,130910,,,A*73
$GPRMC,144632.00,A,3340.233694,N,11710.266085,W,55.2,180.4,130910,,,A*7B
$GPRMC,144635.90,A,3340.172696,N,11710.267060,W,55.0,180.9,130910,,,A*74
$GPRMC,144639.20,A,3340.121500,N,11710.267757,W,55.0,180.4,130910,,,A*77
$GPRMC,144643.00,A,3340.065075,N,11710.267457,W,55.0,180.0,130910,,,A*79
$GPRMC,144647.20,A,3340.000131,N,11710.267570,W,55.8,180.2,130910,,,A*73
$GPRMC,144650.20,A,3339.952826,N,11710.267725,W,56.9,179.9,130910,,,A*77
$GPRMC,144653.20,A,3339.905789,N,11710.267691,W,56.3,180.4,130910,,,A*73
$GPRMC,144656.20,A,3339.858754,N,11710.267963,W,56.5,180.2,130910,,,A*7D
$GPRMC,144659.20,A,3339.812454,N,11710.268093,W,54.8,180.9,130910,,,A*72
$GPRMC,144702.90,A,3339.756453,N,11710.268524,W,53.7,180.0,130910,,,A*76
$GPRMC,144705.90,A,3339.711380,N,11710.269948,W,54.2,181.3,130910,,,A*7C
$GPRMC,144708.00,A,3339.679535,N,11710.270870,W,54.4,181.6,130910,,,A*7E
$GPRMC,144711.90,A,3339.620900,N,11710.273095,W,54.7,182.3,130910,,,A*7C
$GPRMC,144714.90,A,3339.574495,N,11710.274740,W,55.0,181.5,130910,,,A*71
$GPRMC,144718.90,A,3339.510471,N,11710.279566,W,55.8,182.2,130910,,,A*72
$GPRMC,144721.20,A,3339.475016,N,11710.280611,W,56.1,181.6,130910,,,A*7C
$GPRMC,144724.90,A,3339.417367,N,11710.281393,W,56.0,180.7,130910,,,A*7C
$GPRMC,144727.90,A,3339.370873,N,11710.281905,W,55.9,180.8,130910,,,A*77
$GPRMC,144731.90,A,3339.309842,N,11710.282147,W,54.6,179.8,130910,,,A*79
$GPRMC,144735.20,A,3339.259908,N,11710.281626,W,54.5,179.8,130910,,,A*7D
$GPRMC,144738.20,A,3339.214909,N,11710.282391,W,54.6,180.0,130910,,,A*7F
$GPRMC,144741.20,A,3339.169652,N,11710.282649,W,54.7,180.0,130910,,,A*78
$GPRMC,144744.20,A,3339.124702,N,11710.283081,W,54.4,179.8,130910,,,A*7E
$GPRMC,144748.20,A,3339.066505,N,11710.283399,W,51.5,180.2,130910,,,A*72
$GPRMC,144751.20,A,3339.025847,N,11710.282717,W,47.7,180.1,130910,,,A*73
$GPRMC,144754.90,A,3338.979096,N,11710.282990,W,45.2,180.3,130910,,,A*7C
$GPRMC,144757.90,A,3338.941838,N,11710.282460,W,44.2,179.8,130910,,,A*76
$GPRMC,144800.20,A,3338.916808,N,11710.282358,W,40.4,180.3,130910,,,A*72
$GPRMC,144803.00,A,3338.887487,N,11710.282392,W,38.0,180.1,130910,,,A*7E
$GPRMC,144807.20,A,3338.850763,N,11710.283162,W,28.6,181.4,130910,,,A*74
$GPRMC,144810.20,A,3338.830351,N,11710.282618,W,23.2,181.0,130910,,,A*71
$GPRMC,144814.20,A,3338.808358,N,11710.282933,W,17.8,182.9,130910,,,A*76
$GPRMC,144817.90,A,3338.796080,N,11710.283450,W,12.5,182.1,130910,,,A*79
$GPRMC,144820.20,A,3338.788300,N,11710.283424,W,13.2,181.3,130910,,,A*76
$GPRMC,144823.20,A,3338.774642,N,11710.283915,W,16.3,180.3,130910,,,A*7F
$GPRMC,144826.20,A,3338.762917,N,11710.284160,W,14.1,180.1,130910,,,A*7D
$GPRMC,144830.00,A,3338.750038,N,11710.283923,W,13.1,181.0,130910,,,A*72
$GPRMC,144833.20,A,3338.736488,N,11710.283027,W,14.4,178.8,130910,,,A*7D
$GPRMC,144837.90,A,3338.718080,N,11710.282012,W,13.3,177.7,130910,,,A*75
$GPRMC,144841.90,A,3338.700833,N,11710.283531,W,13.9,180.1,130910,,,A*7C
$GPRMC,144844.90,A,3338.688580,N,11710.283993,W,15.7,179.4,130910,,,A*72
$GPRMC,144848.20,A,3338.672371,N,11710.283608,W,18.3,178.4,130910,,,A*7D
$GPRMC,144852.90,A,3338.648155,N,11710.281998,W,17.2,179.2,130910,,,A*7D
$GPRMC,144856.90,A,3338.633272,N,11710.282777,W,12.3,181.7,130910,,,A*79
$GPRMC,144859.90,A,3338.623784,N,11710.282850,W,11.1,181.2,130910,,,A*75
$GPRMC,144903.20,A,3338.612884,N,11710.281829,W,14.0,176.9,130910,,,A*77
$GPRMC,144906.30,A,3338.596456,N,11710.282187,W,20.5,179.7,130910,,,A*72
$GPRMC,144910.90,A,3338.567294,N,11710.281683,W,22.2,179.4,130910,,,A*7F
$GPRMC,144913.90,A,3338.548735,N,11710.283496,W,22.4,182.0,130910,,,A*7D
$GPRMC,144916.90,A,3338.531115,N,11710.281740,W,21.4,180.7,130910,,,A*7E
$GPRMC,144920.90,A,3338.509448,N,11710.280102,W,18.4,179.2,130910,,,A*75
$GPRMC,144923.90,A,3338.493884,N,11710.280005,W,18.4,179.7,130910,,,A*7B
$GPRMC,144926.20,A,3338.483566,N,11710.280456,W,16.5,181.2,130910,,,A*7A
$GPRMC,144929.90,A,3338.468237,N,11710.280984,W,14.9,182.7,130910,,,A*72
$GPRMC,144932.90,A,3338.453043,N,11710.280981,W,16.7,181.5,130910,,,A*79
$GPRMC,144935.90,A,3338.438580,N,11710.281215,W,17.4,182.1,130910,,,A*7B
$GPRMC,144939.90,A,3338.415998,N,11710.281475,W,19.3,179.5,130910,,,A*74
$GPRMC,144942.90,A,3338.401923,N,11710.280015,W,18.6,178.1,130910,,,A*7F
$GPRMC,144945.90,A,3338.387478,N,11710.280735,W,17.4,180.9,130910,,,A*75
$GPRMC,144948.90,A,3338.372654,N,11710.280566,W,17.4,179.9,130910,,,A*7C
$GPRMC,144951.90,A,3338.358170,N,11710.279647,W,17.7,180.0,130910,,,A*77
$GPRMC,144954.20,A,3338.348395,N,11710.280359,W,16.1,182.0,130910,,,A*78
$GPRMC,144958.20,A,3338.331831,N,11710.280497,W,15.0,179.9,130910,,,A*75
$GPRMC,145001.20,A,3338.319621,N,11710.280851,W,15.5,180.6,130910,,,A*7E
$GPRMC,145004.90,A,3338.303020,N,11710.280596,W,15.7,179.9,130910,,,A*71
$GPRMC,145007.90,A,3338.290289,N,11710.279998,W,14.9,180.0,130910,,,A*7C
$GPRMC,145010.90,A,3338.277444,N,11710.281134,W,14.9,182.2,130910,,,A*7D
$GPRMC,145013.90,A,3338.265600,N,11710.281536,W,14.2,181.3,130910,,,A*70
$GPRMC,145016.90,A,3338.251886,N,11710.280515,W,16.3,177.2,130910,,,A*79
$GPRMC,145020.20,A,3338.236333,N,11710.280424,W,17.9,178.8,130910,,,A*7E
$GPRMC,145023.20,A,3338.218631,N,11710.280882,W,21.5,180.3,130910,,,A*73
$GPRMC,145026.90,A,3338.194837,N,11710.280917,W,24.4,180.2,130910,,,A*7A
$GPRMC,145030.20,A,3338.168222,N,11710.280688,W,28.3,179.3,130910,,,A*7E
$GPRMC,145033.20,A,3338.141466,N,11710.280111,W,31.2,179.4,130910,,,A*79
$GPRMC,145036.90,A,3338.105269,N,11710.281455,W,35.4,180.1,130910,,,A*7B
$GPRMC,145039.20,A,3338.082629,N,11710.281873,W,36.4,179.8,130910,,,A*75
$GPRMC,145042.20,A,3338.052073,N,11710.281220,W,37.3,179.9,130910,,,A*76
$GPRMC,145045.90,A,3338.013530,N,11710.281368,W,36.5,180.6,130910,,,A*7E
$GPRMC,145048.30,A,3337.990028,N,11710.281504,W,36.3,180.2,130910,,,A*76
$GPRMC,145051.30,A,3337.960795,N,11710.280854,W,35.8,180.0,130910,,,A*73
$GPRMC,145054.20,A,3337.929228,N,11710.280392,W,36.4,180.0,130910,,,A*77
$GPRMC,145057.20,A,3337.898260,N,11710.280389,W,37.8,179.7,130910,,,A*75
$GPRMC,145100.20,A,3337.865690,N,11710.280339,W,39.6,179.9,130910,,,A*7A
$GPRMC,145103.20,A,3337.832249,N,11710.281191,W,39.6,180.2,130910,,,A*77
$GPRMC,145107.90,A,3337.780350,N,11710.279934,W,39.4,179.7,130910,,,A*76
$GPRMC,145110.90,A,3337.746440,N,11710.281146,W,39.9,180.5,130910,,,A*7F
$GPRMC,145113.20,A,3337.721447,N,11710.280977,W,39.9,180.1,130910,,,A*7E
$GPRMC,145116.90,A,3337.676083,N,11710.281480,W,43.3,179.7,130910,,,A*7C
$GPRMC,145119.90,A,3337.639143,N,11710.280927,W,46.0,180.0,130910,,,A*73
$GPRMC,145122.90,A,3337.597726,N,11710.282450,W,48.5,180.8,130910,,,A*75
$GPRMC,145125.20,A,3337.565477,N,11710.282694,W,51.6,180.6,130910,,,A*7C
$GPRMC,145128.00,A,3337.524068,N,11710.282933,W,53.7,180.5,130910,,,A*7E
$GPRMC,145131.20,A,3337.475229,N,11710.283298,W,54.3,180.5,130910,,,A*7E
$GPRMC,145135.20,A,3337.414521,N,11710.283255,W,55.1,180.3,130910,,,A*76
$GPRMC,145138.90,A,3337.357753,N,11710.283905,W,55.7,181.0,130910,,,A*7D
$GPRMC,145142.90,A,3337.293322,N,11710.285010,W,57.2,180.2,130910,,,A*74
$GPRMC,145146.90,A,3337.229791,N,11710.285340,W,56.7,179.8,130910,,,A*73
$GPRMC,145150.90,A,3337.166555,N,11710.283599,W,57.1,179.0,130910,,,A*7D
$GPRMC,145153.90,A,3337.118519,N,11710.283140,W,57.8,179.6,130910,,,A*70
$GPRMC,145157.90,A,3337.056221,N,11710.282064,W,56.9,179.2,130910,,,A*71
$GPRMC,145201.90,A,3336.991815,N,11710.281692,W,56.7,179.4,130910,,,A*7B
$GPRMC,145206.00,A,3336.927073,N,11710.278949,W,57.7,178.4,130910,,,A*7F
$GPRMC,145209.90,A,3336.863246,N,11710.279230,W,57.5,179.6,130910,,,A*79
$GPRMC,145212.90,A,3336.817237,N,11710.278889,W,55.9,179.7,130910,,,A*70
$GPRMC,145215.90,A,3336.772434,N,11710.279208,W,55.0,180.9,130910,,,A*7D
$GPRMC,145219.20,A,3336.720857,N,11710.282244,W,55.8,182.3,130910,,,A*78
$GPRMC,145222.00,A,3336.678515,N,11710.283384,W,56.3,182.3,130910,,,A*71
$GPRMC,145226.20,A,3336.611195,N,11710.286803,W,56.9,182.4,130910,,,A*78
$GPRMC,145229.20,A,3336.563659,N,11710.288690,W,57.3,182.2,130910,,,A*71
$GPRMC,145232.20,A,3336.517281,N,11710.291519,W,56.7,182.3,130910,,,A*77
$GPRMC,145235.20,A,3336.469797,N,11710.294279,W,56.4,182.5,130910,,,A*7B
$GPRMC,145238.20,A,3336.421943,N,11710.296303,W,56.1,181.9,130910,,,A*79
$GPRMC,145241.20,A,3336.375337,N,11710.297768,W,56.2,181.4,130910,,,A*7E
$GPRMC,145244.20,A,3336.329453,N,11710.299520,W,54.8,181.7,130910,,,A*7C
$GPRMC,145248.30,A,3336.271206,N,11710.302299,W,52.8,181.9,130910,,,A*75
$GPRMC,145251.20,A,3336.228298,N,11710.304912,W,51.4,184.0,130910,,,A*7A
$GPRMC,145254.90,A,3336.179463,N,11710.314753,W,51.5,190.7,130910,,,A*78
$GPRMC,145257.90,A,3336.137281,N,11710.328744,W,51.9,196.4,130910,,,A*7B
$GPRMC,145301.90,A,3336.083351,N,11710.354085,W,52.8,203.0,130910,,,A*73
$GPRMC,145305.20,A,3336.041967,N,11710.379888,W,53.1,207.8,130910,,,A*73
$GPRMC,145308.90,A,3335.996295,N,11710.414765,W,53.0,213.2,130910,,,A*7D
$GPRMC,145311.90,A,3335.958956,N,11710.444471,W,53.3,213.6,130910,,,A*77
$GPRMC,145315.90,A,3335.910270,N,11710.479908,W,51.2,212.1,130910,,,A*78
$GPRMC,145318.90,A,3335.874197,N,11710.509406,W,51.0,213.4,130910,,,A*7F
$GPRMC,145322.90,A,3335.826893,N,11710.545289,W,50.9,212.7,130910,,,A*7F
$GPRMC,145326.90,A,3335.780260,N,11710.581883,W,51.3,213.5,130910,,,A*7E
$GPRMC,145329.90,A,3335.746091,N,11710.610081,W,50.8,213.7,130910,,,A*7E
$GPRMC,145333.20,A,3335.706332,N,11710.640846,W,51.4,213.7,130910,,,A*7B
$GPRMC,145336.20,A,3335.668942,N,11710.669524,W,52.6,212.8,130910,,,A*77
$GPRMC,145339.20,A,3335.628360,N,11710.697921,W,54.1,210.8,130910,,,A*7D
$GPRMC,145342.20,A,3335.588626,N,11710.724690,W,54.8,207.6,130910,,,A*72
$GPRMC,145345.20,A,3335.548022,N,11710.749656,W,55.4,205.0,130910,,,A*73
$GPRMC,145348.20,A,3335.505692,N,11710.772292,W,56.0,203.3,130910,,,A*7C
$GPRMC,145351.20,A,3335.461823,N,11710.793456,W,56.9,199.8,130910,,,A*70
$GPRMC,145354.90,A,3335.405191,N,11710.815595,W,57.9,196.1,130910,,,A*74
$GPRMC,145358.20,A,3335.353574,N,11710.832370,W,57.7,193.6,130910,,,A*7C
$GPRMC,145401.20,A,3335.306210,N,11710.844405,W,58.1,190.7,130910,,,A*7D
$GPRMC,145405.20,A,3335.242357,N,11710.855906,W,58.4,186.5,130910,,,A*74
$GPRMC,145409.20,A,3335.177421,N,11710.862778,W,59.0,184.0,130910,,,A*7A
$GPRMC,145412.20,A,3335.128091,N,11710.865008,W,59.6,181.5,130910,,,A*74
$GPRMC,145416.20,A,3335.060644,N,11710.864095,W,61.2,180.0,130910,,,A*7D
$GPRMC,145419.20,A,3335.008922,N,11710.863347,W,61.4,179.9,130910,,,A*71
$GPRMC,145422.20,A,3334.958072,N,11710.862914,W,60.9,179.6,130910,,,A*76
$GPRMC,145425.20,A,3334.906989,N,11710.862670,W,60.6,179.8,130910,,,A*7B
$GPRMC,145428.90,A,3334.844890,N,11710.862553,W,58.8,179.7,130910,,,A*7B
$GPRMC,145431.90,A,3334.797291,N,11710.861404,W,57.0,179.8,130910,,,A*71
$GPRMC,145434.20,A,3334.761323,N,11710.860964,W,56.4,179.3,130910,,,A*7A
$GPRMC,145437.20,A,3334.715057,N,11710.860235,W,56.6,179.6,130910,,,A*72
$GPRMC,145440.20,A,3334.667419,N,11710.860699,W,58.0,180.1,130910,,,A*73
$GPRMC,145444.20,A,3334.603388,N,11710.860232,W,58.3,179.9,130910,,,A*72
$GPRMC,145447.20,A,3334.554901,N,11710.860383,W,58.4,179.4,130910,,,A*7A
$GPRMC,145451.20,A,3334.488769,N,11710.859834,W,59.2,178.8,130910,,,A*7A
$GPRMC,145454.20,A,3334.443617,N,11710.860244,W,55.0,179.6,130910,,,A*76
$GPRMC,145457.20,A,3334.397847,N,11710.859791,W,54.3,179.4,130910,,,A*77
$GPRMC,145501.30,A,3334.339634,N,11710.859568,W,52.7,179.5,130910,,,A*7D
$GPRMC,145504.90,A,3334.282675,N,11710.860803,W,53.8,180.3,130910,,,A*72
$GPRMC,145507.90,A,3334.238209,N,11710.860799,W,54.1,179.4,130910,,,A*7C
$GPRMC,145510.90,A,3334.192621,N,11710.859178,W,53.9,179.6,130910,,,A*79
$GPRMC,145514.90,A,3334.130155,N,11710.858196,W,54.1,179.6,130910,,,A*7F
$GPRMC,145517.90,A,3334.085652,N,11710.859581,W,53.4,179.8,130910,,,A*7C
$GPRMC,145520.90,A,3334.042007,N,11710.859759,W,53.5,180.1,130910,,,A*7C
$GPRMC,145524.00,A,3333.997019,N,11710.860458,W,53.0,179.9,130910,,,A*7B
$GPRMC,145527.90,A,3333.937780,N,11710.858526,W,53.7,179.2,130910,,,A*73
$GPRMC,145531.90,A,3333.880208,N,11710.860597,W,53.9,180.1,130910,,,A*76
$GPRMC,145534.20,A,3333.845474,N,11710.860043,W,54.0,179.3,130910,,,A*7A
$GPRMC,145538.90,A,3333.774455,N,11710.857400,W,55.0,178.9,130910,,,A*7E
$GPRMC,145542.90,A,3333.712303,N,11710.857536,W,56.8,180.0,130910,,,A*76
$GPRMC,145545.90,A,3333.664018,N,11710.857676,W,58.3,179.7,130910,,,A*7B
$GPRMC,145548.90,A,3333.615160,N,11710.858008,W,58.9,180.6,130910,,,A*73
$GPRMC,145551.90,A,3333.567024,N,11710.857436,W,58.3,179.7,130910,,,A*77
$GPRMC,145554.20,A,3333.528925,N,11710.856326,W,59.0,179.9,130910,,,A*71
$GPRMC,145557.20,A,3333.479547,N,11710.856719,W,58.9,180.3,130910,,,A*73
$GPRMC,145600.90,A,3333.417818,N,11710.856722,W,58.7,180.2,130910,,,A*71
$GPRMC,145603.20,A,3333.380508,N,11710.855896,W,59.5,180.0,130910,,,A*7E
$GPRMC,145606.00,A,3333.334808,N,11710.855552,W,59.8,180.4,130910,,,A*77
$GPRMC,145609.90,A,3333.269158,N,11710.858959,W,59.4,183.9,130910,,,A*7C
$GPRMC,145612.90,A,3333.219683,N,11710.866073,W,59.4,186.9,130910,,,A*79
$GPRMC,145616.90,A,3333.153971,N,11710.877846,W,58.5,188.3,130910,,,A*78
$GPRMC,145620.90,A,3333.092533,N,11710.889923,W,56.6,188.2,130910,,,A*74
$GPRMC,145624.90,A,3333.029987,N,11710.898579,W,55.5,184.6,130910,,,A*78
$GPRMC,145627.90,A,3332.983702,N,11710.900129,W,54.6,178.8,130910,,,A*7E
$GPRMC,145631.90,A,3332.923243,N,11710.893154,W,55.2,172.0,130910,,,A*75
$GPRMC,145634.90,A,3332.878319,N,11710.880739,W,54.4,166.6,130910,,,A*7A
$GPRMC,145637.90,A,3332.833490,N,11710.865693,W,55.8,162.8,130910,,,A*7D
$GPRMC,145641.90,A,3332.777946,N,11710.837721,W,55.7,155.6,130910,,,A*7F
$GPRMC,145644.90,A,3332.737446,N,11710.810670,W,56.6,149.1,130910,,,A*7B
$GPRMC,145647.90,A,3332.700121,N,11710.778933,W,56.6,143.6,130910,,,A*7C
$GPRMC,145650.90,A,3332.663320,N,11710.741856,W,56.8,138.4,130910,,,A*75
$GPRMC,145653.90,A,3332.628215,N,11710.701357,W,57.4,136.0,130910,,,A*77
$GPRMC,145657.90,A,3332.583076,N,11710.649798,W,55.3,136.2,130910,,,A*7B
$GPRMC,145700.90,A,3332.549643,N,11710.614757,W,53.1,139.9,130910,,,A*75
$GPRMC,145703.20,A,3332.522371,N,11710.591013,W,52.9,145.4,130910,,,A*72
$GPRMC,145706.20,A,3332.486047,N,11710.562962,W,52.0,149.5,130910,,,A*79
$GPRMC,145709.20,A,3332.449637,N,11710.537193,W,50.8,149.8,130910,,,A*75
$GPRMC,145712.20,A,3332.414271,N,11710.512058,W,48.2,149.7,130910,,,A*7C
$GPRMC,145715.20,A,3332.380345,N,11710.488204,W,46.2,149.5,130910,,,A*72
$GPRMC,145719.00,A,3332.341273,N,11710.460876,W,42.8,150.2,130910,,,A*7D
$GPRMC,145722.90,A,3332.303524,N,11710.433560,W,39.1,148.4,130910,,,A*79
$GPRMC,145726.90,A,3332.263167,N,11710.404430,W,44.2,149.1,130910,,,A*74
$GPRMC,145730.90,A,3332.220739,N,11710.374673,W,44.9,151.1,130910,,,A*7E
$GPRMC,145733.90,A,3332.186816,N,11710.351991,W,45.8,150.6,130910,,,A*72
$GPRMC,145736.90,A,3332.155840,N,11710.330497,W,43.2,149.7,130910,,,A*73
$GPRMC,145739.90,A,3332.126588,N,11710.310022,W,40.2,150.2,130910,,,A*77
$GPRMC,145742.90,A,3332.099039,N,11710.292279,W,37.9,150.2,130910,,,A*7D
$GPRMC,145745.90,A,3332.071779,N,11710.275280,W,36.8,151.2,130910,,,A*71
$GPRMC,145748.90,A,3332.044692,N,11710.256923,W,37.1,151.3,130910,,,A*74
$GPRMC,145751.90,A,3332.018087,N,11710.239050,W,35.9,150.4,130910,,,A*7F
$GPRMC,145754.90,A,3331.991846,N,11710.221541,W,34.8,150.7,130910,,,A*7B
$GPRMC,145757.90,A,3331.966343,N,11710.204853,W,33.9,151.2,130910,,,A*75
$GPRMC,145800.90,A,3331.942333,N,11710.189148,W,32.7,151.7,130910,,,A*76
$GPRMC,145804.90,A,3331.909829,N,11710.167589,W,33.6,150.6,130910,,,A*74
$GPRMC,145808.90,A,3331.876238,N,11710.144949,W,35.5,151.8,130910,,,A*70
$GPRMC,145811.90,A,3331.850035,N,11710.128238,W,35.9,150.4,130910,,,A*75
$GPRMC,145814.90,A,3331.824632,N,11710.111814,W,34.5,150.8,130910,,,A*7D
$GPRMC,145817.90,A,3331.800174,N,11710.095719,W,32.8,150.1,130910,,,A*70
$GPRMC,145820.90,A,3331.777845,N,11710.078822,W,31.8,149.3,130910,,,A*7D
$GPRMC,145823.90,A,3331.754258,N,11710.062553,W,32.7,150.1,130910,,,A*7F
$GPRMC,145827.90,A,3331.721618,N,11710.040495,W,34.9,150.2,130910,,,A*79
$GPRMC,145830.90,A,3331.695053,N,11710.023077,W,36.5,150.2,130910,,,A*7B
$GPRMC,145833.90,A,3331.666547,N,11710.005433,W,38.9,151.4,130910,,,A*71
$GPRMC,145836.90,A,3331.636189,N,11709.984170,W,42.1,150.5,130910,,,A*78
$GPRMC,145839.00,A,3331.614745,N,11709.969970,W,43.1,150.5,130910,,,A*72
$GPRMC,145842.90,A,3331.574852,N,11709.944150,W,41.3,150.6,130910,,,A*7D
$GPRMC,145845.90,A,3331.545395,N,11709.922886,W,41.1,149.7,130910,,,A*71
$GPRMC,145848.90,A,3331.515559,N,11709.904127,W,42.1,151.4,130910,,,A*70
$GPRMC,145852.90,A,3331.472959,N,11709.874377,W,45.6,149.9,130910,,,A*72
$GPRMC,145855.90,A,3331.437604,N,11709.851704,W,49.1,150.8,130910,,,A*76
$GPRMC,145858.90,A,3331.400998,N,11709.826841,W,50.7,150.5,130910,,,A*78
$GPRMC,145902.90,A,3331.351316,N,11709.791869,W,50.9,151.0,130910,,,A*7A
$GPRMC,145906.90,A,3331.302933,N,11709.759054,W,51.4,150.5,130910,,,A*7F
$GPRMC,145909.90,A,3331.264403,N,11709.736317,W,50.2,151.0,130910,,,A*71
$GPRMC,145912.00,A,3331.240384,N,11709.720360,W,50.5,150.5,130910,,,A*78
$GPRMC,145915.90,A,3331.190140,N,11709.686396,W,53.4,151.0,130910,,,A*70
$GPRMC,145919.20,A,3331.145572,N,11709.657604,W,55.0,150.9,130910,,,A*72
$GPRMC,145923.90,A,3331.081114,N,11709.615819,W,55.6,150.9,130910,,,A*7F
$GPRMC,145926.90,A,3331.041385,N,11709.587310,W,54.7,149.4,130910,,,A*73
$GPRMC,145929.90,A,3330.999920,N,11709.560551,W,56.7,151.4,130910,,,A*75
$GPRMC,145932.90,A,3330.957686,N,11709.533496,W,57.0,151.2,130910,,,A*72
$GPRMC,145935.90,A,3330.916526,N,11709.505351,W,55.6,150.8,130910,,,A*7F
$GPRMC,145939.90,A,3330.864971,N,11709.473438,W,52.4,154.3,130910,,,A*7B
$GPRMC,145942.90,A,3330.824406,N,11709.452453,W,52.8,156.5,130910,,,A*78
$GPRMC,145945.90,A,3330.779717,N,11709.432336,W,54.8,158.7,130910,,,A*73
$GPRMC,145948.90,A,3330.735532,N,11709.412405,W,56.3,159.1,130910,,,A*78
$GPRMC,145951.20,A,3330.701854,N,11709.397870,W,56.0,159.3,130910,,,A*74
$GPRMC,145954.20,A,3330.659642,N,11709.378467,W,55.3,158.8,130910,,,A*75
$GPRMC,145957.20,A,3330.616456,N,11709.357415,W,56.1,158.2,130910,,,A*79
$GPRMC,150000.20,A,3330.573472,N,11709.336671,W,56.0,158.3,130910,,,A*77
$GPRMC,150003.20,A,3330.528128,N,11709.316920,W,57.2,159.0,130910,,,A*78
$GPRMC,150007.20,A,3330.467687,N,11709.289393,W,57.8,159.0,130910,,,A*7B
$GPRMC,150010.20,A,3330.422613,N,11709.269687,W,57.6,159.3,130910,,,A*72
$GPRMC,150014.20,A,3330.361630,N,11709.241432,W,58.7,158.9,130910,,,A*74
$GPRMC,150017.20,A,3330.315477,N,11709.219955,W,58.8,159.0,130910,,,A*73
$GPRMC,150021.20,A,3330.254090,N,11709.192148,W,59.3,159.3,130910,,,A*72
$GPRMC,150024.20,A,3330.206473,N,11709.171216,W,60.4,158.9,130910,,,A*7A
$GPRMC,150028.20,A,3330.142107,N,11709.143467,W,61.4,159.2,130910,,,A*79
$GPRMC,150032.20,A,3330.079593,N,11709.112669,W,62.0,158.2,130910,,,A*7C
$GPRMC,150035.20,A,3330.032615,N,11709.087592,W,61.5,155.6,130910,,,A*7C
$GPRMC,150038.20,A,3329.986643,N,11709.059483,W,62.7,153.7,130910,,,A*78
$GPRMC,150041.20,A,3329.939992,N,11709.028274,W,64.1,149.6,130910,,,A*73
$GPRMC,150044.20,A,3329.893605,N,11708.994757,W,65.0,147.6,130910,,,A*73
$GPRMC,150048.20,A,3329.833700,N,11708.945751,W,65.7,143.9,130910,,,A*77
$GPRMC,150052.20,A,3329.774974,N,11708.891390,W,66.8,141.6,130910,,,A*7D
$GPRMC,150055.20,A,3329.732486,N,11708.849198,W,66.1,140.4,130910,,,A*7D
$GPRMC,150059.20,A,3329.674948,N,11708.795371,W,64.8,143.3,130910,,,A*79
$GPRMC,150102.20,A,3329.630338,N,11708.760889,W,63.0,149.9,130910,,,A*72
$GPRMC,150105.20,A,3329.584225,N,11708.731549,W,62.5,154.5,130910,,,A*75
$GPRMC,150108.20,A,3329.536444,N,11708.708221,W,61.6,158.9,130910,,,A*73
$GPRMC,150111.20,A,3329.486946,N,11708.688566,W,62.5,163.0,130910,,,A*72
$GPRMC,150115.00,A,3329.424959,N,11708.665994,W,62.3,163.1,130910,,,A*77
$GPRMC,150118.90,A,3329.358564,N,11708.643391,W,61.7,164.9,130910,,,A*7E
$GPRMC,150121.90,A,3329.307676,N,11708.626444,W,61.7,164.5,130910,,,A*7E
$GPRMC,150124.90,A,3329.259735,N,11708.607679,W,61.0,163.1,130910,,,A*7C
$GPRMC,150127.90,A,3329.211292,N,11708.589879,W,60.4,163.4,130910,,,A*70
$GPRMC,150130.90,A,3329.163708,N,11708.572904,W,60.1,163.4,130910,,,A*7C
$GPRMC,150133.90,A,3329.117097,N,11708.555794,W,58.2,163.5,130910,,,A*76
$GPRMC,150136.90,A,3329.069476,N,11708.539910,W,58.4,163.0,130910,,,A*7B
$GPRMC,150139.90,A,3329.023409,N,11708.522797,W,58.3,163.5,130910,,,A*7B
$GPRMC,150142.90,A,3328.976010,N,11708.507102,W,58.1,164.0,130910,,,A*7E
$GPRMC,150145.90,A,3328.928243,N,11708.491398,W,58.4,163.6,130910,,,A*7D
$GPRMC,150148.90,A,3328.884345,N,11708.475641,W,55.9,163.5,130910,,,A*78
$GPRMC,150152.20,A,3328.834135,N,11708.456885,W,57.0,162.8,130910,,,A*76
$GPRMC,150156.90,A,3328.761825,N,11708.430739,W,57.6,162.8,130910,,,A*70
$GPRMC,150159.90,A,3328.717165,N,11708.413012,W,57.3,162.1,130910,,,A*70
$GPRMC,150202.90,A,3328.668652,N,11708.396111,W,58.4,163.3,130910,,,A*74
$GPRMC,150206.90,A,3328.607323,N,11708.374016,W,58.6,163.4,130910,,,A*75
$GPRMC,150209.00,A,3328.575004,N,11708.361607,W,58.6,162.7,130910,,,A*73
$GPRMC,150212.90,A,3328.514296,N,11708.339926,W,58.2,163.4,130910,,,A*79
$GPRMC,150215.20,A,3328.479529,N,11708.326609,W,57.3,163.3,130910,,,A*79
$GPRMC,150218.90,A,3328.423926,N,11708.306583,W,56.7,163.3,130910,,,A*75
$GPRMC,150221.90,A,3328.376494,N,11708.292072,W,56.3,163.9,130910,,,A*75
$GPRMC,150224.90,A,3328.330567,N,11708.278835,W,56.0,164.8,130910,,,A*75
$GPRMC,150228.90,A,3328.273287,N,11708.256653,W,53.5,163.9,130910,,,A*72
$GPRMC,150232.90,A,3328.213957,N,11708.240435,W,52.5,165.5,130910,,,A*77
$GPRMC,150235.90,A,3328.176441,N,11708.226357,W,48.3,165.8,130910,,,A*79
$GPRMC,150239.90,A,3328.124171,N,11708.212646,W,48.4,169.7,130910,,,A*72
$GPRMC,150242.90,A,3328.085321,N,11708.204507,W,49.2,172.0,130910,,,A*78
$GPRMC,150245.90,A,3328.042447,N,11708.199564,W,49.9,175.3,130910,,,A*7E
$GPRMC,150248.20,A,3328.009204,N,11708.197215,W,50.9,176.9,130910,,,A*78
$GPRMC,150251.20,A,3327.966574,N,11708.196265,W,51.3,178.8,130910,,,A*7D
$GPRMC,150255.20,A,3327.908751,N,11708.197878,W,51.4,182.3,130910,,,A*7A
$GPRMC,150258.20,A,3327.865928,N,11708.200707,W,51.6,183.0,130910,,,A*77
$GPRMC,150301.20,A,3327.822926,N,11708.203197,W,51.8,182.8,130910,,,A*7C
$GPRMC,150305.20,A,3327.768835,N,11708.206267,W,50.6,181.1,130910,,,A*76
$GPRMC,150308.20,A,3327.726600,N,11708.203742,W,51.7,176.3,130910,,,A*74
$GPRMC,150311.20,A,3327.682541,N,11708.198411,W,51.4,175.4,130910,,,A*76
$GPRMC,150314.20,A,3327.639477,N,11708.193848,W,51.0,175.4,130910,,,A*78
$GPRMC,150317.90,A,3327.586174,N,11708.186378,W,49.8,175.5,130910,,,A*7D
$GPRMC,150321.90,A,3327.533663,N,11708.178340,W,48.9,174.8,130910,,,A*71
$GPRMC,150324.90,A,3327.495127,N,11708.171282,W,48.9,173.1,130910,,,A*76
$GPRMC,150327.90,A,3327.454286,N,11708.164858,W,49.7,173.7,130910,,,A*70
$GPRMC,150330.20,A,3327.422002,N,11708.161511,W,51.1,174.8,130910,,,A*70
$GPRMC,150333.90,A,3327.368968,N,11708.155540,W,52.8,174.8,130910,,,A*7D
$GPRMC,150336.90,A,3327.324905,N,11708.152730,W,52.8,175.0,130910,,,A*70
$GPRMC,150340.90,A,3327.262578,N,11708.146885,W,54.5,174.8,130910,,,A*72
$GPRMC,150343.90,A,3327.215148,N,11708.143181,W,55.5,175.2,130910,,,A*74
$GPRMC,150347.90,A,3327.148862,N,11708.136938,W,56.2,175.2,130910,,,A*76
$GPRMC,150350.90,A,3327.103582,N,11708.133648,W,55.5,177.4,130910,,,A*71
$GPRMC,150353.90,A,3327.057319,N,11708.133959,W,56.6,180.8,130910,,,A*7D
$GPRMC,150356.90,A,3327.011041,N,11708.137139,W,56.0,184.7,130910,,,A*73
$GPRMC,150359.90,A,3326.965722,N,11708.143958,W,54.1,188.1,130910,,,A*70
$GPRMC,150402.90,A,3326.919913,N,11708.155379,W,55.0,192.2,130910,,,A*78
$GPRMC,150405.90,A,3326.875312,N,11708.168437,W,55.0,194.9,130910,,,A*71
$GPRMC,150408.90,A,3326.832311,N,11708.180908,W,54.4,195.1,130910,,,A*77
$GPRMC,150411.90,A,3326.785940,N,11708.194659,W,56.3,194.7,130910,,,A*7E
$GPRMC,150414.90,A,3326.740840,N,11708.209922,W,55.7,196.0,130910,,,A*75
$GPRMC,150417.90,A,3326.696401,N,11708.224619,W,54.9,195.6,130910,,,A*77
$GPRMC,150420.30,A,3326.661272,N,11708.236846,W,55.8,195.3,130910,,,A*71
$GPRMC,150423.30,A,3326.615695,N,11708.251189,W,56.6,195.3,130910,,,A*7A
$GPRMC,150426.30,A,3326.569811,N,11708.265823,W,57.1,195.1,130910,,,A*7F
$GPRMC,150429.30,A,3326.524037,N,11708.280291,W,55.8,195.7,130910,,,A*70
$GPRMC,150432.30,A,3326.479754,N,11708.296862,W,55.8,196.9,130910,,,A*7D
$GPRMC,150435.30,A,3326.433905,N,11708.314189,W,58.0,198.6,130910,,,A*7D
$GPRMC,150439.30,A,3326.373083,N,11708.341564,W,59.4,201.3,130910,,,A*71
$GPRMC,150442.20,A,3326.327276,N,11708.363167,W,58.6,203.0,130910,,,A*70
$GPRMC,150445.20,A,3326.282393,N,11708.386913,W,59.0,204.8,130910,,,A*7B
$GPRMC,150448.20,A,3326.238047,N,11708.412283,W,59.0,206.2,130910,,,A*7D
$GPRMC,150451.20,A,3326.194561,N,11708.438586,W,58.4,207.6,130910,,,A*7B
$GPRMC,150454.20,A,3326.152405,N,11708.466829,W,57.9,209.5,130910,,,A*7B
$GPRMC,150458.20,A,3326.097767,N,11708.506353,W,57.6,211.7,130910,,,A*7D
$GPRMC,150501.20,A,3326.058088,N,11708.537689,W,57.0,213.5,130910,,,A*73
$GPRMC,150504.90,A,3326.009172,N,11708.579584,W,56.8,215.7,130910,,,A*74
$GPRMC,150507.90,A,3325.969139,N,11708.614168,W,57.4,216.8,130910,,,A*7B
$GPRMC,150510.90,A,3325.931432,N,11708.648920,W,58.0,218.9,130910,,,A*77
$GPRMC,150514.20,A,3325.890707,N,11708.689935,W,58.1,220.5,130910,,,A*78
$GPRMC,150518.20,A,3325.842163,N,11708.742139,W,58.9,223.1,130910,,,A*72
$GPRMC,150521.20,A,3325.805999,N,11708.783556,W,60.3,224.1,130910,,,A*70
$GPRMC,150524.20,A,3325.770275,N,11708.827012,W,61.2,226.2,130910,,,A*74
$GPRMC,150527.20,A,3325.734367,N,11708.870904,W,61.4,225.6,130910,,,A*78
$GPRMC,150530.20,A,3325.698830,N,11708.914364,W,61.0,225.4,130910,,,A*79
$GPRMC,150533.20,A,3325.663002,N,11708.956439,W,61.1,223.9,130910,,,A*74
$GPRMC,150536.20,A,3325.625222,N,11708.996627,W,61.0,220.5,130910,,,A*7C
$GPRMC,150539.90,A,3325.576265,N,11709.043517,W,60.5,217.8,130910,,,A*73
$GPRMC,150542.90,A,3325.536530,N,11709.078671,W,59.5,215.3,130910,,,A*74
$GPRMC,150545.30,A,3325.505152,N,11709.102967,W,59.6,211.5,130910,,,A*7C
$GPRMC,150548.90,A,3325.452972,N,11709.140284,W,59.0,210.5,130910,,,A*75
$GPRMC,150552.90,A,3325.397563,N,11709.179695,W,58.1,210.4,130910,,,A*73
$GPRMC,150555.90,A,3325.355689,N,11709.207972,W,58.5,210.2,130910,,,A*73
$GPRMC,150558.90,A,3325.313339,N,11709.236821,W,58.7,209.9,130910,,,A*76
$GPRMC,150601.20,A,3325.280592,N,11709.259368,W,58.9,210.0,130910,,,A*7E
$GPRMC,150604.20,A,3325.239083,N,11709.288866,W,58.7,209.9,130910,,,A*7A
$GPRMC,150607.20,A,3325.196858,N,11709.317975,W,58.8,209.7,130910,,,A*74
$GPRMC,150610.20,A,3325.155236,N,11709.347182,W,58.3,210.1,130910,,,A*7F
$GPRMC,150613.20,A,3325.113043,N,11709.377368,W,59.2,210.9,130910,,,A*73
$GPRMC,150616.20,A,3325.071488,N,11709.408188,W,58.7,211.8,130910,,,A*77
$GPRMC,150619.20,A,3325.029969,N,11709.439540,W,59.8,212.1,130910,,,A*71
$GPRMC,150622.90,A,3324.976482,N,11709.477956,W,61.3,211.5,130910,,,A*7E
$GPRMC,150625.00,A,3324.944697,N,11709.500633,W,62.3,211.3,130910,,,A*7F
$GPRMC,150628.00,A,3324.901532,N,11709.532756,W,62.3,211.6,130910,,,A*79
$GPRMC,150631.90,A,3324.843736,N,11709.575763,W,62.3,211.2,130910,,,A*78
$GPRMC,150634.90,A,3324.798558,N,11709.608473,W,62.9,211.4,130910,,,A*79
$GPRMC,150637.90,A,3324.754074,N,11709.641033,W,63.5,211.3,130910,,,A*76
$GPRMC,150640.90,A,3324.709811,N,11709.673889,W,62.6,211.7,130910,,,A*7B
$GPRMC,150644.90,A,3324.650884,N,11709.717520,W,63.3,211.9,130910,,,A*79
$GPRMC,150647.90,A,3324.605837,N,11709.750539,W,62.9,211.5,130910,,,A*7E
$GPRMC,150650.20,A,3324.572794,N,11709.774500,W,61.1,211.5,130910,,,A*71
$GPRMC,150653.20,A,3324.530104,N,11709.806190,W,60.0,211.7,130910,,,A*7E
$GPRMC,150656.20,A,3324.487473,N,11709.838922,W,61.0,212.6,130910,,,A*7C
$GPRMC,150659.20,A,3324.444799,N,11709.871684,W,60.7,212.9,130910,,,A*7C
$GPRMC,150702.20,A,3324.402316,N,11709.905590,W,61.3,214.1,130910,,,A*7D
$GPRMC,150706.20,A,3324.347648,N,11709.951294,W,60.2,214.6,130910,,,A*74
$GPRMC,150710.20,A,3324.291620,N,11709.998006,W,61.1,215.4,130910,,,A*7A
$GPRMC,150713.20,A,3324.248963,N,11710.033696,W,61.9,215.2,130910,,,A*74
$GPRMC,150716.20,A,3324.206823,N,11710.068755,W,61.4,214.2,130910,,,A*72
$GPRMC,150719.20,A,3324.165080,N,11710.102286,W,60.2,213.6,130910,,,A*78
$GPRMC,150722.20,A,3324.123088,N,11710.135380,W,60.2,212.9,130910,,,A*77
$GPRMC,150725.20,A,3324.078863,N,11710.167855,W,61.2,211.4,130910,,,A*79
$GPRMC,150729.20,A,3324.020210,N,11710.209827,W,61.5,210.4,130910,,,A*7E
$GPRMC,150733.20,A,3323.959173,N,11710.250711,W,62.8,208.9,130910,,,A*7F
$GPRMC,150736.20,A,3323.912987,N,11710.279951,W,62.9,207.2,130910,,,A*72
$GPRMC,150739.20,A,3323.865640,N,11710.308309,W,63.1,206.3,130910,,,A*71
$GPRMC,150742.20,A,3323.818226,N,11710.335789,W,63.4,205.7,130910,,,A*73
$GPRMC,150745.20,A,3323.769881,N,11710.362459,W,63.9,204.6,130910,,,A*7B
$GPRMC,150749.20,A,3323.704940,N,11710.394032,W,62.7,201.4,130910,,,A*78
$GPRMC,150752.20,A,3323.654791,N,11710.414192,W,63.2,198.7,130910,,,A*74
$GPRMC,150755.20,A,3323.603694,N,11710.432683,W,63.1,196.7,130910,,,A*7B
$GPRMC,150758.20,A,3323.551328,N,11710.447487,W,64.2,194.2,130910,,,A*77
$GPRMC,150801.20,A,3323.501234,N,11710.460048,W,62.0,191.7,130910,,,A*7B
$GPRMC,150804.20,A,3323.450882,N,11710.472211,W,62.5,189.8,130910,,,A*72
$GPRMC,150808.20,A,3323.383034,N,11710.485138,W,62.1,187.2,130910,,,A*72
$GPRMC,150811.20,A,3323.332095,N,11710.490953,W,62.1,184.7,130910,,,A*7C
$GPRMC,150814.20,A,3323.280361,N,11710.494669,W,63.0,182.4,130910,,,A*7E
$GPRMC,150817.20,A,3323.227526,N,11710.496031,W,63.2,180.5,130910,,,A*7D
$GPRMC,150820.20,A,3323.174556,N,11710.494601,W,64.0,177.9,130910,,,A*7D
$GPRMC,150823.20,A,3323.121562,N,11710.490079,W,63.5,175.6,130910,,,A*7B
$GPRMC,150826.20,A,3323.068557,N,11710.483214,W,63.9,173.0,130910,,,A*73
$GPRMC,150829.20,A,3323.015424,N,11710.474937,W,64.1,171.7,130910,,,A*7B
$GPRMC,150832.20,A,3322.963011,N,11710.463654,W,64.2,168.8,130910,,,A*72
$GPRMC,150835.20,A,3322.911427,N,11710.450235,W,63.1,166.9,130910,,,A*79
$GPRMC,150839.20,A,3322.843828,N,11710.427185,W,62.6,163.6,130910,,,A*74
$GPRMC,150842.20,A,3322.794310,N,11710.407410,W,62.9,161.7,130910,,,A*7A
$GPRMC,150845.90,A,3322.732084,N,11710.381348,W,63.4,159.0,130910,,,A*77
$GPRMC,150848.20,A,3322.696160,N,11710.362903,W,62.6,157.2,130910,,,A*72
$GPRMC,150851.20,A,3322.649006,N,11710.336769,W,63.2,155.0,130910,,,A*7F
$GPRMC,150854.20,A,3322.601124,N,11710.308502,W,64.2,152.9,130910,,,A*7C
$GPRMC,150857.20,A,3322.555624,N,11710.278410,W,63.5,150.3,130910,,,A*76
$GPRMC,150900.20,A,3322.511416,N,11710.245767,W,64.0,148.1,130910,,,A*72
$GPRMC,150903.20,A,3322.468326,N,11710.210665,W,63.1,145.9,130910,,,A*7A
$GPRMC,150907.20,A,3322.413685,N,11710.160328,W,63.4,142.2,130910,,,A*7F
$GPRMC,150911.20,A,3322.360189,N,11710.106930,W,63.2,140.0,130910,,,A*75
$GPRMC,150915.20,A,3322.309639,N,11710.052186,W,61.9,137.5,130910,,,A*7B
$GPRMC,150918.20,A,3322.272482,N,11710.010971,W,61.3,138.0,130910,,,A*7F
$GPRMC,150921.20,A,3322.234568,N,11709.969677,W,61.4,137.9,130910,,,A*75
$GPRMC,150924.20,A,3322.195269,N,11709.929021,W,61.8,139.4,130910,,,A*70
$GPRMC,150928.20,A,3322.143197,N,11709.877064,W,62.0,141.6,130910,,,A*78
$GPRMC,150931.20,A,3322.102546,N,11709.839053,W,61.9,143.4,130910,,,A*79
$GPRMC,150934.20,A,3322.060001,N,11709.804734,W,62.2,146.2,130910,,,A*7C
$GPRMC,150938.20,A,3322.000563,N,11709.761724,W,63.1,149.4,130910,,,A*71
$GPRMC,150942.20,A,3321.937361,N,11709.724625,W,61.7,153.0,130910,,,A*7C
$GPRMC,150946.20,A,3321.874016,N,11709.688489,W,62.5,155.6,130910,,,A*7F
$GPRMC,150949.20,A,3321.824177,N,11709.664936,W,62.9,158.0,130910,,,A*7F
$GPRMC,150953.20,A,3321.756085,N,11709.635137,W,62.8,161.2,130910,,,A*76
$GPRMC,150957.20,A,3321.690389,N,11709.609916,W,60.7,163.7,130910,,,A*78
$GPRMC,151000.20,A,3321.641972,N,11709.594785,W,59.4,165.7,130910,,,A*7C
$GPRMC,151003.20,A,3321.592901,N,11709.581492,W,59.5,167.6,130910,,,A*75
$GPRMC,151006.20,A,3321.543542,N,11709.570385,W,59.3,169.5,130910,,,A*73
$GPRMC,151010.20,A,3321.477512,N,11709.558888,W,60.3,172.8,130910,,,A*76
$GPRMC,151014.20,A,3321.410239,N,11709.551725,W,60.6,176.0,130910,,,A*75
$GPRMC,151018.20,A,3321.344536,N,11709.548038,W,60.4,179.6,130910,,,A*7F
$GPRMC,151021.20,A,3321.294387,N,11709.548528,W,60.2,181.9,130910,,,A*7F
$GPRMC,151024.20,A,3321.244690,N,11709.550230,W,59.4,181.3,130910,,,A*75
$GPRMC,151027.20,A,3321.195733,N,11709.550723,W,58.7,180.6,130910,,,A*70
$GPRMC,151030.20,A,3321.147389,N,11709.551647,W,58.1,180.8,130910,,,A*76
$GPRMC,151033.20,A,3321.098893,N,11709.552275,W,58.3,180.8,130910,,,A*72
$GPRMC,151037.20,A,3321.034586,N,11709.553915,W,58.1,180.8,130910,,,A*77
$GPRMC,151040.20,A,3320.986654,N,11709.554575,W,58.3,181.0,130910,,,A*7C
$GPRMC,151043.20,A,3320.936799,N,11709.554850,W,59.9,180.9,130910,,,A*7D
$GPRMC,151047.90,A,3320.856022,N,11709.556657,W,61.9,180.5,130910,,,A*7E
$GPRMC,151051.20,A,3320.801497,N,11709.558122,W,60.6,180.6,130910,,,A*7C
$GPRMC,151054.90,A,3320.738581,N,11709.559479,W,61.2,181.1,130910,,,A*78
$GPRMC,151057.20,A,3320.700175,N,11709.560068,W,61.0,180.8,130910,,,A*70
$GPRMC,151100.20,A,3320.647735,N,11709.560280,W,63.3,180.8,130910,,,A*76
$GPRMC,151104.90,A,3320.563779,N,11709.561647,W,64.7,180.8,130910,,,A*79
$GPRMC,151108.20,A,3320.504655,N,11709.562272,W,64.4,180.7,130910,,,A*7D
$GPRMC,151112.20,A,3320.433838,N,11709.563944,W,64.1,181.2,130910,,,A*78
$GPRMC,151115.90,A,3320.365981,N,11709.563710,W,63.3,180.8,130910,,,A*72
$GPRMC,151119.90,A,3320.297099,N,11709.565008,W,61.5,180.7,130910,,,A*71
$GPRMC,151122.20,A,3320.258525,N,11709.565113,W,60.3,180.5,130910,,,A*7D
$GPRMC,151126.20,A,3320.190310,N,11709.566386,W,61.0,180.7,130910,,,A*73
$GPRMC,151130.00,A,3320.127603,N,11709.567395,W,60.5,180.7,130910,,,A*7A
$GPRMC,151134.20,A,3320.056706,N,11709.568201,W,61.1,180.6,130910,,,A*78
$GPRMC,151137.20,A,3320.006013,N,11709.569426,W,61.0,181.0,130910,,,A*79
$GPRMC,151140.90,A,3319.942574,N,11709.571451,W,61.3,180.8,130910,,,A*76
$GPRMC,151143.20,A,3319.903000,N,11709.571892,W,61.8,180.6,130910,,,A*7B
$GPRMC,151147.20,A,3319.834730,N,11709.573470,W,61.8,180.8,130910,,,A*72
$GPRMC,151150.20,A,3319.781993,N,11709.573661,W,62.2,179.7,130910,,,A*70
$GPRMC,151153.20,A,3319.730554,N,11709.572075,W,62.2,177.5,130910,,,A*70
$GPRMC,151157.20,A,3319.661061,N,11709.565542,W,64.0,174.4,130910,,,A*73
$GPRMC,151200.20,A,3319.607393,N,11709.556939,W,64.4,171.1,130910,,,A*78
$GPRMC,151203.20,A,3319.553597,N,11709.545530,W,65.1,169.6,130910,,,A*76
$GPRMC,151206.20,A,3319.501121,N,11709.531720,W,64.3,166.8,130910,,,A*7F
$GPRMC,151209.20,A,3319.449197,N,11709.515113,W,64.8,164.6,130910,,,A*77
$GPRMC,151213.20,A,3319.381592,N,11709.489069,W,63.1,161.2,130910,,,A*79
$GPRMC,151217.20,A,3319.315639,N,11709.459116,W,63.0,157.9,130910,,,A*79
$GPRMC,151220.20,A,3319.266821,N,11709.433870,W,63.5,155.7,130910,,,A*73
$GPRMC,151223.20,A,3319.219205,N,11709.406217,W,63.9,153.3,130910,,,A*77
$GPRMC,151226.20,A,3319.173439,N,11709.376150,W,62.9,151.4,130910,,,A*70
$GPRMC,151229.20,A,3319.127320,N,11709.346585,W,62.9,151.5,130910,,,A*7F
$GPRMC,151232.20,A,3319.082288,N,11709.317881,W,61.7,152.1,130910,,,A*7F
$GPRMC,151235.20,A,3319.037231,N,11709.288259,W,62.4,151.6,130910,,,A*78
$GPRMC,151238.20,A,3318.992107,N,11709.258559,W,62.1,151.3,130910,,,A*7E
$GPRMC,151242.20,A,3318.932482,N,11709.219314,W,61.8,151.7,130910,,,A*75
$GPRMC,151245.20,A,3318.887155,N,11709.191098,W,61.2,153.3,130910,,,A*7A
$GPRMC,151248.20,A,3318.839990,N,11709.165395,W,61.3,155.4,130910,,,A*76
$GPRMC,151252.90,A,3318.765004,N,11709.131526,W,60.7,160.3,130910,,,A*7F
$GPRMC,151255.20,A,3318.727139,N,11709.115831,W,62.1,161.0,130910,,,A*71
$GPRMC,151258.20,A,3318.677888,N,11709.096021,W,62.9,162.3,130910,,,A*70
$GPRMC,151302.20,A,3318.609188,N,11709.075198,W,62.9,167.0,130910,,,A*76
$GPRMC,151305.90,A,3318.544089,N,11709.059359,W,62.8,168.3,130910,,,A*7C
$GPRMC,151309.30,A,3318.486823,N,11709.049196,W,62.1,172.0,130910,,,A*7C
$GPRMC,151313.30,A,3318.418982,N,11709.039386,W,60.0,173.9,130910,,,A*75
$GPRMC,151317.30,A,3318.350993,N,11709.033058,W,61.1,176.4,130910,,,A*78
$GPRMC,151320.30,A,3318.300345,N,11709.029676,W,60.6,177.3,130910,,,A*79
$GPRMC,151323.30,A,3318.249286,N,11709.026553,W,60.1,177.5,130910,,,A*72
$GPRMC,151326.30,A,3318.199580,N,11709.024230,W,58.3,178.0,130910,,,A*7B
$GPRMC,151329.30,A,3318.150922,N,11709.021830,W,59.0,177.6,130910,,,A*71
$GPRMC,151332.30,A,3318.101516,N,11709.019087,W,58.3,177.3,130910,,,A*7C
$GPRMC,151335.30,A,3318.053398,N,11709.015303,W,58.5,175.9,130910,,,A*70
$GPRMC,151338.30,A,3318.003746,N,11709.011401,W,59.9,176.0,130910,,,A*79
$GPRMC,151342.30,A,3317.935879,N,11709.006813,W,61.2,177.0,130910,,,A*7C
$GPRMC,151345.30,A,3317.884239,N,11709.003436,W,62.4,177.6,130910,,,A*73
$GPRMC,151349.30,A,3317.814821,N,11709.000316,W,63.6,178.3,130910,,,A*7A
$GPRMC,151353.30,A,3317.743213,N,11708.997335,W,64.2,178.6,130910,,,A*76
$GPRMC,151356.30,A,3317.688491,N,11708.994907,W,65.3,177.7,130910,,,A*7F
$GPRMC,151359.30,A,3317.632836,N,11708.992281,W,66.6,177.8,130910,,,A*7A
$GPRMC,151403.30,A,3317.560255,N,11708.988293,W,65.2,177.3,130910,,,A*7D
$GPRMC,151406.30,A,3317.508974,N,11708.983934,W,63.2,177.3,130910,,,A*75
$GPRMC,151409.30,A,3317.454997,N,11708.980594,W,63.4,177.5,130910,,,A*7A
$GPRMC,151412.30,A,3317.400591,N,11708.977651,W,64.4,176.9,130910,,,A*73
$GPRMC,151416.30,A,3317.328902,N,11708.974583,W,64.2,178.9,130910,,,A*7B
$GPRMC,151420.30,A,3317.258929,N,11708.976658,W,63.9,182.7,130910,,,A*71
$GPRMC,151423.30,A,3317.206191,N,11708.982020,W,63.8,185.3,130910,,,A*72
$GPRMC,151426.30,A,3317.154430,N,11708.990209,W,63.5,188.1,130910,,,A*75
$GPRMC,151429.30,A,3317.104894,N,11709.000776,W,63.2,190.8,130910,,,A*76
$GPRMC,151432.30,A,3317.054257,N,11709.014343,W,63.1,192.8,130910,,,A*7B
$GPRMC,151435.30,A,3317.004598,N,11709.029847,W,62.9,195.4,130910,,,A*7E
$GPRMC,151438.30,A,3316.955719,N,11709.048726,W,61.5,198.0,130910,,,A*7D
$GPRMC,151441.30,A,3316.907176,N,11709.069436,W,62.4,200.4,130910,,,A*7E
$GPRMC,151444.30,A,3316.859134,N,11709.092747,W,62.6,203.3,130910,,,A*70
$GPRMC,151447.30,A,3316.811573,N,11709.119162,W,63.9,205.4,130910,,,A*74
$GPRMC,151450.30,A,3316.763455,N,11709.147029,W,64.2,205.9,130910,,,A*79
$GPRMC,151453.30,A,3316.714337,N,11709.175310,W,64.9,205.2,130910,,,A*71
$GPRMC,151456.30,A,3316.665462,N,11709.202606,W,64.6,205.3,130910,,,A*7B
$GPRMC,151500.30,A,3316.601201,N,11709.239658,W,64.7,205.8,130910,,,A*71
$GPRMC,151503.30,A,3316.552999,N,11709.267590,W,64.2,205.7,130910,,,A*7B
$GPRMC,151506.30,A,3316.504793,N,11709.296058,W,65.0,205.8,130910,,,A*7A
$GPRMC,151510.30,A,3316.441105,N,11709.333278,W,63.9,205.7,130910,,,A*7A
$GPRMC,151513.30,A,3316.392910,N,11709.361560,W,64.3,206.1,130910,,,A*7D
$GPRMC,151516.30,A,3316.343779,N,11709.388909,W,64.9,204.5,130910,,,A*7D
$GPRMC,151519.30,A,3316.294397,N,11709.414684,W,64.4,202.5,130910,,,A*7E
$GPRMC,151522.30,A,3316.243664,N,11709.437776,W,64.4,200.4,130910,,,A*7B
$GPRMC,151525.30,A,3316.193557,N,11709.458344,W,63.3,198.5,130910,,,A*7E
$GPRMC,151529.30,A,3316.124870,N,11709.482020,W,64.1,195.3,130910,,,A*7E
$GPRMC,151533.30,A,3316.056583,N,11709.501434,W,64.6,191.8,130910,,,A*73
$GPRMC,151536.30,A,3316.003837,N,11709.512516,W,64.1,189.9,130910,,,A*78
$GPRMC,151539.90,A,3315.939292,N,11709.524921,W,64.0,187.2,130910,,,A*72
$GPRMC,151542.90,A,3315.886960,N,11709.530495,W,63.2,184.9,130910,,,A*77
$GPRMC,151546.20,A,3315.827927,N,11709.533476,W,63.3,181.8,130910,,,A*7B
$GPRMC,151549.20,A,3315.775588,N,11709.533773,W,63.0,179.5,130910,,,A*7A
$GPRMC,151552.90,A,3315.711579,N,11709.531638,W,62.8,177.0,130910,,,A*79
$GPRMC,151555.90,A,3315.660918,N,11709.526577,W,61.3,174.9,130910,,,A*7E
$GPRMC,151558.90,A,3315.610657,N,11709.519445,W,61.5,173.0,130910,,,A*74
$GPRMC,151601.20,A,3315.572604,N,11709.511985,W,60.7,171.2,130910,,,A*7B
$GPRMC,151604.90,A,3315.510285,N,11709.500362,W,61.1,169.7,130910,,,A*74
$GPRMC,151607.90,A,3315.458302,N,11709.487325,W,62.6,167.8,130910,,,A*7C
$GPRMC,151611.90,A,3315.392710,N,11709.464899,W,61.9,163.2,130910,,,A*7E
$GPRMC,151614.20,A,3315.355669,N,11709.450491,W,61.8,162.4,130910,,,A*71
$GPRMC,151617.20,A,3315.307036,N,11709.430346,W,61.8,160.3,130910,,,A*77
$GPRMC,151620.20,A,3315.258603,N,11709.408841,W,61.7,159.8,130910,,,A*71
$GPRMC,151623.20,A,3315.212304,N,11709.388003,W,59.9,159.6,130910,,,A*74
$GPRMC,151629.20,A,3315.118273,N,11709.347177,W,59.5,160.0,130910,,,A*77
$GPRMC,151632.20,A,3315.071933,N,11709.327163,W,58.6,160.5,130910,,,A*78
$GPRMC,151636.20,A,3315.010925,N,11709.300328,W,58.9,160.2,130910,,,A*7C
$GPRMC,151639.20,A,3314.963810,N,11709.280823,W,59.1,160.0,130910,,,A*7A
$GPRMC,151643.20,A,3314.904613,N,11709.255001,W,57.3,160.6,130910,,,A*71
$GPRMC,151646.20,A,3314.860435,N,11709.235639,W,56.7,159.7,130910,,,A*74
$GPRMC,151649.20,A,3314.814115,N,11709.216533,W,58.1,160.2,130910,,,A*70
$GPRMC,151652.20,A,3314.766772,N,11709.197014,W,59.2,159.8,130910,,,A*7F
$GPRMC,151656.20,A,3314.705495,N,11709.169128,W,60.1,159.7,130910,,,A*7D
$GPRMC,151700.30,A,3314.644533,N,11709.140296,W,60.5,159.8,130910,,,A*71
$GPRMC,151704.30,A,3314.582407,N,11709.112604,W,60.2,159.4,130910,,,A*79
$GPRMC,151708.30,A,3314.519474,N,11709.085770,W,59.9,160.5,130910,,,A*74
$GPRMC,151711.30,A,3314.472315,N,11709.065499,W,59.0,159.9,130910,,,A*75
$GPRMC,151714.30,A,3314.425132,N,11709.045670,W,59.2,160.2,130910,,,A*71
$GPRMC,151717.90,A,3314.365561,N,11709.024898,W,58.7,160.1,130910,,,A*71
$GPRMC,151720.20,A,3314.329626,N,11709.009713,W,59.1,160.2,130910,,,A*71
$GPRMC,151723.90,A,3314.270695,N,11708.984443,W,59.6,160.0,130910,,,A*72
$GPRMC,151726.90,A,3314.223041,N,11708.965160,W,58.9,160.4,130910,,,A*7F
$GPRMC,151729.90,A,3314.175891,N,11708.945389,W,59.6,160.2,130910,,,A*7A
$GPRMC,151732.90,A,3314.128414,N,11708.925380,W,60.0,160.3,130910,,,A*7B
$GPRMC,151735.90,A,3314.080511,N,11708.906021,W,59.7,160.3,130910,,,A*7F
$GPRMC,151738.90,A,3314.034588,N,11708.887367,W,58.6,160.5,130910,,,A*72
$GPRMC,151741.90,A,3313.990544,N,11708.867209,W,59.2,160.2,130910,,,A*79
$GPRMC,151744.90,A,3313.944899,N,11708.847658,W,59.0,160.2,130910,,,A*78
$GPRMC,151748.90,A,3313.881094,N,11708.819228,W,60.9,160.2,130910,,,A*72
$GPRMC,151751.90,A,3313.834378,N,11708.799665,W,59.6,159.7,130910,,,A*75
$GPRMC,151754.90,A,3313.787658,N,11708.779627,W,60.6,160.4,130910,,,A*7B
$GPRMC,151758.90,A,3313.722931,N,11708.751647,W,61.6,159.7,130910,,,A*7C
$GPRMC,151802.90,A,3313.658500,N,11708.723004,W,61.5,159.9,130910,,,A*77
$GPRMC,151806.90,A,3313.594145,N,11708.694927,W,61.3,160.6,130910,,,A*73
$GPRMC,151810.90,A,3313.530775,N,11708.668888,W,60.8,160.6,130910,,,A*72
$GPRMC,151814.90,A,3313.467947,N,11708.642056,W,61.5,160.4,130910,,,A*77
$GPRMC,151817.90,A,3313.419925,N,11708.620426,W,61.2,159.7,130910,,,A*70
$GPRMC,151820.90,A,3313.373411,N,11708.598451,W,60.9,158.3,130910,,,A*7A
$GPRMC,151823.90,A,3313.328644,N,11708.575655,W,59.6,157.4,130910,,,A*7D
$GPRMC,151827.90,A,3313.267202,N,11708.543022,W,59.9,156.0,130910,,,A*7C
$GPRMC,151830.90,A,3313.221694,N,11708.517584,W,60.3,155.5,130910,,,A*7D
$GPRMC,151833.20,A,3313.189741,N,11708.498225,W,58.6,153.6,130910,,,A*7C
$GPRMC,151837.20,A,3313.132575,N,11708.462896,W,58.5,152.2,130910,,,A*7C
$GPRMC,151840.20,A,3313.090187,N,11708.434960,W,58.3,150.9,130910,,,A*78
$GPRMC,151843.90,A,3313.038119,N,11708.399992,W,58.8,150.3,130910,,,A*79
$GPRMC,151846.90,A,3312.995575,N,11708.370778,W,58.8,150.3,130910,,,A*70
$GPRMC,151850.90,A,3312.944678,N,11708.329131,W,57.8,147.0,130910,,,A*78
$GPRMC,151854.90,A,3312.891299,N,11708.285644,W,58.8,146.6,130910,,,A*74
$GPRMC,151857.90,A,3312.850354,N,11708.251762,W,60.2,146.4,130910,,,A*75
$GPRMC,151900.90,A,3312.807315,N,11708.217912,W,61.9,146.6,130910,,,A*72
$GPRMC,151903.90,A,3312.758989,N,11708.186572,W,63.5,148.7,130910,,,A*7B
$GPRMC,151906.90,A,3312.711499,N,11708.154201,W,64.4,149.1,130910,,,A*72
$GPRMC,151909.90,A,3312.668688,N,11708.119097,W,63.1,148.0,130910,,,A*76
$GPRMC,151912.90,A,3312.624768,N,11708.086651,W,62.6,148.7,130910,,,A*71
$GPRMC,151915.90,A,3312.580357,N,11708.055026,W,61.7,148.8,130910,,,A*76
$GPRMC,151918.90,A,3312.536255,N,11708.023161,W,60.8,148.2,130910,,,A*72
$GPRMC,151921.90,A,3312.489638,N,11707.994303,W,59.5,148.7,130910,,,A*7C
$GPRMC,151925.90,A,3312.431949,N,11707.955235,W,59.0,149.2,130910,,,A*7A
$GPRMC,151929.90,A,3312.377080,N,11707.913716,W,58.9,148.2,130910,,,A*70
$GPRMC,151932.90,A,3312.336055,N,11707.882559,W,58.3,148.4,130910,,,A*7B
$GPRMC,151935.90,A,3312.295552,N,11707.852791,W,57.1,149.3,130910,,,A*76
$GPRMC,151939.90,A,3312.241429,N,11707.815038,W,56.7,149.7,130910,,,A*7A
$GPRMC,151943.90,A,3312.186736,N,11707.777456,W,57.1,149.6,130910,,,A*73
$GPRMC,151946.90,A,3312.146679,N,11707.747103,W,57.4,149.4,130910,,,A*71
$GPRMC,151949.90,A,3312.105718,N,11707.718371,W,57.9,150.4,130910,,,A*77
$GPRMC,151952.90,A,3312.062596,N,11707.690634,W,59.6,152.3,130910,,,A*78
$GPRMC,151955.90,A,3312.018916,N,11707.662701,W,59.2,151.1,130910,,,A*79
$GPRMC,151958.90,A,3311.974996,N,11707.634957,W,60.0,152.8,130910,,,A*70
$GPRMC,152001.90,A,3311.928911,N,11707.608055,W,60.2,154.7,130910,,,A*7F
$GPRMC,152005.20,A,3311.880964,N,11707.581836,W,57.0,154.5,130910,,,A*7A
$GPRMC,152008.20,A,3311.837026,N,11707.557607,W,56.8,154.6,130910,,,A*79
$GPRMC,152011.90,A,3311.783103,N,11707.527391,W,57.5,153.9,130910,,,A*75
$GPRMC,152014.90,A,3311.740108,N,11707.502896,W,57.1,153.7,130910,,,A*75
$GPRMC,152018.90,A,3311.683554,N,11707.470280,W,56.7,153.8,130910,,,A*7B
$GPRMC,152022.90,A,3311.627035,N,11707.438129,W,55.6,154.9,130910,,,A*76
$GPRMC,152025.90,A,3311.586269,N,11707.415077,W,55.6,154.5,130910,,,A*7B
$GPRMC,152028.90,A,3311.542895,N,11707.390745,W,56.5,153.8,130910,,,A*71
$GPRMC,152031.90,A,3311.499140,N,11707.367003,W,57.4,154.6,130910,,,A*7B
$GPRMC,152034.90,A,3311.454677,N,11707.342442,W,58.6,154.5,130910,,,A*74
$GPRMC,152037.90,A,3311.410397,N,11707.316537,W,59.2,154.2,130910,,,A*7C
$GPRMC,152041.90,A,3311.350402,N,11707.281984,W,60.6,154.1,130910,,,A*73
$GPRMC,152044.90,A,3311.305936,N,11707.255429,W,60.0,154.2,130910,,,A*7A
$GPRMC,152048.90,A,3311.246485,N,11707.220850,W,59.7,154.5,130910,,,A*7F
$GPRMC,152051.90,A,3311.202880,N,11707.194905,W,58.4,153.9,130910,,,A*7A
$GPRMC,152054.90,A,3311.160455,N,11707.169185,W,57.9,154.1,130910,,,A*73
$GPRMC,152058.90,A,3311.102188,N,11707.135601,W,57.5,154.2,130910,,,A*73
$GPRMC,152102.90,A,3311.043824,N,11707.102664,W,57.9,154.5,130910,,,A*7A
$GPRMC,152105.90,A,3311.000592,N,11707.078264,W,58.1,154.3,130910,,,A*73
$GPRMC,152108.90,A,3310.956393,N,11707.053329,W,58.8,154.5,130910,,,A*7C
$GPRMC,152112.90,A,3310.897202,N,11707.020108,W,58.5,154.2,130910,,,A*7D
$GPRMC,152116.90,A,3310.838098,N,11706.985286,W,59.2,154.0,130910,,,A*7B
$GPRMC,152119.90,A,3310.792502,N,11706.959714,W,60.1,154.4,130910,,,A*7F
$GPRMC,152123.90,A,3310.733411,N,11706.925853,W,59.0,154.1,130910,,,A*77
$GPRMC,152127.90,A,3310.674818,N,11706.892179,W,58.7,154.0,130910,,,A*7F
$GPRMC,152130.90,A,3310.631498,N,11706.865654,W,58.3,154.0,130910,,,A*78
$GPRMC,152133.90,A,3310.586752,N,11706.841406,W,59.0,154.4,130910,,,A*74
$GPRMC,152136.90,A,3310.542373,N,11706.816756,W,58.9,154.1,130910,,,A*77
$GPRMC,152139.90,A,3310.498440,N,11706.791636,W,58.3,154.0,130910,,,A*75
$GPRMC,152142.90,A,3310.454885,N,11706.765739,W,58.4,154.6,130910,,,A*78
$GPRMC,152145.90,A,3310.411508,N,11706.740777,W,58.7,154.2,130910,,,A*7C
$GPRMC,152148.90,A,3310.365594,N,11706.714899,W,60.4,154.5,130910,,,A*71
$GPRMC,152151.90,A,3310.319678,N,11706.687658,W,61.2,153.9,130910,,,A*77
$GPRMC,152154.90,A,3310.273295,N,11706.661719,W,61.4,154.1,130910,,,A*7D
$GPRMC,152157.90,A,3310.225712,N,11706.635159,W,62.2,154.3,130910,,,A*73
$GPRMC,152200.90,A,3310.179520,N,11706.608465,W,62.1,154.2,130910,,,A*7D
$GPRMC,152203.20,A,3310.145560,N,11706.587830,W,61.4,154.2,130910,,,A*70
$GPRMC,152207.20,A,3310.084064,N,11706.552874,W,61.2,154.2,130910,,,A*77
$GPRMC,152210.20,A,3310.037833,N,11706.526526,W,61.2,154.2,130910,,,A*7A
$GPRMC,152213.20,A,3309.991213,N,11706.500209,W,61.6,154.3,130910,,,A*77
