NMEA Sentence Code,UTC Time,Status,Latitude,Latitude Direction,Longitude,Longitude Direction,Speed (knots),Track Angle (degrees true),Date,MagneticVariation,Magnetic Variation Direction,[FAA Mode]-Optional,Checksum
$GPRMC,014846.000,A,3252.0400,N,11711.5871,W,4.39,39.0,171110,,*13
$GPRMC,014901.000,A,3252.0371,N,11711.5813,W,9.46,129.2,171110,,*23
$GPRMC,014904.000,A,3252.0229,N,11711.5635,W,28.19,132.5,171110,,*14
$GPRMC,014907.000,A,3252.0017,N,11711.5396,W,37.09,136.2,171110,,*18
$GPRMC,014910.000,A,3251.9755,N,11711.5110,W,41.81,137.8,171110,,*13
$GPRMC,014913.000,A,3251.9493,N,11711.4843,W,36.74,139.4,171110,,*1F
$GPRMC,014916.000,A,3251.9258,N,11711.4608,W,34.59,138.7,171110,,*15
$GPRMC,014919.000,A,3251.9028,N,11711.4384,W,33.46,140.0,171110,,*1F
$GPRMC,014922.000,A,3251.8803,N,11711.4171,W,33.73,141.0,171110,,*18
$GPRMC,014925.000,A,3251.8607,N,11711.3983,W,27.21,141.1,171110,,*14
$GPRMC,014928.000,A,3251.8439,N,11711.3825,W,23.56,141.4,171110,,*1A
$GPRMC,014931.000,A,3251.8291,N,11711.3684,W,23.87,141.3,171110,,*18
$GPRMC,014934.000,A,3251.8127,N,11711.3529,W,27.19,141.5,171110,,*12
$GPRMC,014937.000,A,3251.7938,N,11711.3350,W,29.76,141.5,171110,,*17
$GPRMC,014940.000,A,3251.7757,N,11711.3171,W,28.00,141.0,171110,,*14
$GPRMC,014943.000,A,3251.7580,N,11711.2999,W,27.34,141.0,171110,,*18
$GPRMC,014946.000,A,3251.7401,N,11711.2829,W,27.20,141.2,171110,,*18
$GPRMC,014949.000,A,3251.7218,N,11711.2660,W,28.97,141.3,171110,,*18
$GPRMC,014952.000,A,3251.7011,N,11711.2469,W,32.23,141.1,171110,,*14
$GPRMC,014955.000,A,3251.6800,N,11711.2270,W,31.34,141.4,171110,,*14
$GPRMC,014958.000,A,3251.6608,N,11711.2087,W,26.97,141.1,171110,,*1F
$GPRMC,015001.000,A,3251.6437,N,11711.1936,W,24.05,143.2,171110,,*1D
$GPRMC,015004.000,A,3251.6282,N,11711.1811,W,20.33,145.0,171110,,*11
$GPRMC,015007.000,A,3251.6148,N,11711.1710,W,17.94,146.7,171110,,*14
$GPRMC,015010.000,A,3251.6012,N,11711.1610,W,21.12,147.6,171110,,*16
$GPRMC,015013.000,A,3251.5855,N,11711.1495,W,21.85,148.7,171110,,*12
$GPRMC,015016.000,A,3251.5682,N,11711.1380,W,25.07,150.0,171110,,*10
$GPRMC,015019.000,A,3251.5495,N,11711.1252,W,27.94,151.0,171110,,*1C
$GPRMC,015022.000,A,3251.5278,N,11711.1121,W,29.03,152.4,171110,,*11
$GPRMC,015025.000,A,3251.5059,N,11711.0987,W,30.81,153.0,171110,,*15
$GPRMC,015028.000,A,3251.4821,N,11711.0848,W,33.11,152.8,171110,,*1F
$GPRMC,015031.000,A,3251.4583,N,11711.0699,W,31.56,152.7,171110,,*1E
$GPRMC,015034.000,A,3251.4347,N,11711.0555,W,32.43,152.6,171110,,*10
$GPRMC,015037.000,A,3251.4099,N,11711.0395,W,35.30,152.6,171110,,*1A
$GPRMC,015040.000,A,3251.3839,N,11711.0237,W,36.17,152.7,171110,,*11
$GPRMC,015043.000,A,3251.3557,N,11711.0067,W,39.90,152.8,171110,,*1F
$GPRMC,015046.000,A,3251.3261,N,11710.9882,W,39.65,152.5,171110,,*14
$GPRMC,015049.000,A,3251.2969,N,11710.9701,W,39.16,152.5,171110,,*19
$GPRMC,015052.000,A,3251.2674,N,11710.9524,W,39.78,152.5,171110,,*1D
$GPRMC,015055.000,A,3251.2402,N,11710.9355,W,34.01,152.5,171110,,*1A
$GPRMC,015058.000,A,3251.2154,N,11710.9209,W,32.58,153.0,171110,,*17
$GPRMC,015101.000,A,3251.1879,N,11710.9055,W,39.92,154.4,171110,,*1A
$GPRMC,015104.000,A,3251.1545,N,11710.8872,W,46.70,155.4,171110,,*14
$GPRMC,015107.000,A,3251.1180,N,11710.8677,W,47.36,155.8,171110,,*1E
$GPRMC,015110.000,A,3251.0825,N,11710.8484,W,46.54,156.1,171110,,*1E
$GPRMC,015113.000,A,3251.0464,N,11710.8331,W,45.81,161.5,171110,,*16
$GPRMC,015116.000,A,3251.0104,N,11710.8243,W,42.61,169.5,171110,,*15
$GPRMC,015119.000,A,3250.9789,N,11710.8212,W,32.03,175.5,171110,,*1B
$GPRMC,015122.000,A,3250.9572,N,11710.8203,W,19.59,177.4,171110,,*10
$GPRMC,015128.000,A,3250.9466,N,11710.8198,W,8.18,176.4,171110,,*2B
$GPRMC,015131.000,A,3250.9363,N,11710.8190,W,16.06,176.2,171110,,*1F
$GPRMC,015134.000,A,3250.9209,N,11710.8169,W,20.45,172.9,171110,,*1C
$GPRMC,015137.000,A,3250.9039,N,11710.8121,W,19.46,165.4,171110,,*10
$GPRMC,015140.000,A,3250.8903,N,11710.8061,W,17.38,157.3,171110,,*15
$GPRMC,015143.000,A,3250.8781,N,11710.7980,W,14.77,150.3,171110,,*14
$GPRMC,015146.000,A,3250.8688,N,11710.7910,W,10.73,145.1,171110,,*16
$GPRMC,015149.000,A,3250.8636,N,11710.7859,W,6.63,141.3,171110,,*20
$GPRMC,015152.000,A,3250.8591,N,11710.7811,W,8.14,137.0,171110,,*24
$GPRMC,015155.000,A,3250.8537,N,11710.7744,W,10.50,132.9,171110,,*15
$GPRMC,015158.000,A,3250.8480,N,11710.7654,W,13.31,129.1,171110,,*13
$GPRMC,015201.000,A,3250.8410,N,11710.7545,W,12.86,124.2,171110,,*15
$GPRMC,015204.000,A,3250.8360,N,11710.7440,W,11.53,118.6,171110,,*14
$GPRMC,015207.000,A,3250.8328,N,11710.7344,W,8.86,114.7,171110,,*25
$GPRMC,015210.000,A,3250.8307,N,11710.7282,W,5.94,110.6,171110,,*2E
$GPRMC,015216.000,A,3250.8289,N,11710.7192,W,5.20,110.6,171110,,*22
$GPRMC,015219.000,A,3250.8279,N,11710.7137,W,5.91,105.3,171110,,*26
$GPRMC,015222.000,A,3250.8266,N,11710.7082,W,5.34,103.2,171110,,*27
$GPRMC,015231.000,A,3250.8254,N,11710.6959,W,5.06,103.2,171110,,*2B
$GPRMC,015234.000,A,3250.8253,N,11710.6904,W,6.54,93.0,171110,,*1F
$GPRMC,015237.000,A,3250.8243,N,11710.6826,W,9.63,91.6,171110,,*13
$GPRMC,015240.000,A,3250.8262,N,11710.6730,W,8.57,54.3,171110,,*12
$GPRMC,015243.000,A,3250.8273,N,11710.6625,W,10.92,86.6,171110,,*2E
$GPRMC,015246.000,A,3250.8268,N,11710.6507,W,11.83,86.5,171110,,*20
$GPRMC,015249.000,A,3250.8261,N,11710.6374,W,11.86,90.5,171110,,*26
$GPRMC,015252.000,A,3250.8229,N,11710.6247,W,10.64,91.9,171110,,*21
$GPRMC,015255.000,A,3250.8221,N,11710.6141,W,9.44,91.8,171110,,*10
$GPRMC,015258.000,A,3250.8213,N,11710.6054,W,8.11,91.6,171110,,*16
$GPRMC,015301.000,A,3250.8210,N,11710.5971,W,7.72,92.3,171110,,*19
$GPRMC,015304.000,A,3250.8209,N,11710.5875,W,12.43,93.0,171110,,*25
$GPRMC,015307.000,A,3250.8201,N,11710.5738,W,13.75,92.6,171110,,*2B
$GPRMC,015310.000,A,3250.8201,N,11710.5637,W,7.26,81.4,171110,,*10
$GPRMC,015313.000,A,3250.8208,N,11710.5569,W,6.21,87.2,171110,,*14
$GPRMC,015316.000,A,3250.8198,N,11710.5489,W,9.17,91.5,171110,,*1E
$GPRMC,015319.000,A,3250.8194,N,11710.5371,W,13.70,91.9,171110,,*2B
$GPRMC,015322.000,A,3250.8192,N,11710.5221,W,15.30,92.2,171110,,*2B
$GPRMC,015325.000,A,3250.8185,N,11710.5099,W,9.43,94.2,171110,,*14
$GPRMC,015328.000,A,3250.8177,N,11710.5031,W,5.70,95.2,171110,,*1B
$GPRMC,015331.000,A,3250.8172,N,11710.4956,W,10.02,94.9,171110,,*24
$GPRMC,015334.000,A,3250.8168,N,11710.4861,W,9.55,95.9,171110,,*14
$GPRMC,015337.000,A,3250.8163,N,11710.4763,W,10.64,95.9,171110,,*2B
$GPRMC,015340.000,A,3250.8153,N,11710.4638,W,14.39,96.0,171110,,*21
$GPRMC,015343.000,A,3250.8140,N,11710.4516,W,9.15,95.3,171110,,*1D
$GPRMC,015346.000,A,3250.8127,N,11710.4443,W,7.19,97.4,171110,,*1F
$GPRMC,015349.000,A,3250.8116,N,11710.4357,W,9.84,97.4,171110,,*1A
$GPRMC,015352.000,A,3250.8116,N,11710.4237,W,12.50,93.9,171110,,*2D
$GPRMC,015355.000,A,3250.8107,N,11710.4139,W,6.82,96.1,171110,,*10
$GPRMC,015358.000,A,3250.8100,N,11710.4080,W,6.10,99.9,171110,,*15
$GPRMC,015407.000,A,3250.8069,N,11710.4001,W,8.45,102.6,171110,,*2D
$GPRMC,015410.000,A,3250.8046,N,11710.3893,W,13.24,103.7,171110,,*1F
$GPRMC,015413.000,A,3250.8024,N,11710.3711,W,20.08,101.2,171110,,*14
$GPRMC,015416.000,A,3250.8000,N,11710.3510,W,21.53,100.4,171110,,*1C
$GPRMC,015419.000,A,3250.7959,N,11710.3301,W,19.80,104.7,171110,,*1D
$GPRMC,015422.000,A,3250.7908,N,11710.3135,W,15.50,108.8,171110,,*16
$GPRMC,015425.000,A,3250.7852,N,11710.2981,W,17.74,111.9,171110,,*14
$GPRMC,015428.000,A,3250.7805,N,11710.2834,W,12.51,112.7,171110,,*1B
$GPRMC,015431.000,A,3250.7774,N,11710.2748,W,6.60,118.9,171110,,*2D
$GPRMC,015437.000,A,3250.7754,N,11710.2683,W,5.24,118.9,171110,,*2C
$GPRMC,015440.000,A,3250.7732,N,11710.2624,W,6.81,115.4,171110,,*2D
$GPRMC,015443.000,A,3250.7702,N,11710.2557,W,9.15,116.2,171110,,*2D
$GPRMC,015446.000,A,3250.7664,N,11710.2475,W,8.01,117.4,171110,,*2B
$GPRMC,015449.000,A,3250.7631,N,11710.2400,W,9.11,118.2,171110,,*2F
$GPRMC,015452.000,A,3250.7589,N,11710.2313,W,10.27,118.8,171110,,*17
$GPRMC,015455.000,A,3250.7554,N,11710.2229,W,10.04,119.0,171110,,*10
$GPRMC,015458.000,A,3250.7505,N,11710.2133,W,12.58,120.2,171110,,*12
$GPRMC,015501.000,A,3250.7446,N,11710.2025,W,13.18,121.4,171110,,*1D
$GPRMC,015504.000,A,3250.7397,N,11710.1928,W,9.25,122.3,171110,,*25
$GPRMC,015507.000,A,3250.7346,N,11710.1836,W,13.00,123.7,171110,,*1D
$GPRMC,015510.000,A,3250.7292,N,11710.1739,W,10.17,124.4,171110,,*12
$GPRMC,015513.000,A,3250.7256,N,11710.1673,W,6.38,124.6,171110,,*2E
$GPRMC,015516.000,A,3250.7233,N,11710.1632,W,4.86,124.6,171110,,*2A
$GPRMC,015519.000,A,3250.7193,N,11710.1570,W,9.38,126.5,171110,,*20
$GPRMC,015522.000,A,3250.7150,N,11710.1507,W,7.41,127.6,171110,,*25
$GPRMC,015525.000,A,3250.7101,N,11710.1429,W,12.13,128.3,171110,,*12
$GPRMC,015528.000,A,3250.7032,N,11710.1330,W,13.16,129.7,171110,,*10
$GPRMC,015531.000,A,3250.6967,N,11710.1240,W,10.48,130.5,171110,,*14
$GPRMC,015534.000,A,3250.6905,N,11710.1150,W,14.19,131.2,171110,,*11
$GPRMC,015537.000,A,3250.6824,N,11710.1046,W,12.93,132.2,171110,,*11
$GPRMC,015540.000,A,3250.6754,N,11710.0959,W,10.26,132.3,171110,,*12
$GPRMC,015543.000,A,3250.6704,N,11710.0894,W,9.31,132.2,171110,,*2B
$GPRMC,015546.000,A,3250.6655,N,11710.0829,W,8.32,132.2,171110,,*2F
$GPRMC,015549.000,A,3250.6615,N,11710.0770,W,8.85,131.3,171110,,*29
$GPRMC,015552.000,A,3250.6563,N,11710.0697,W,9.48,131.7,171110,,*2D
$GPRMC,015555.000,A,3250.6501,N,11710.0623,W,9.45,132.8,171110,,*20
$GPRMC,015558.000,A,3250.6453,N,11710.0571,W,5.84,133.0,171110,,*27
$GPRMC,015610.000,A,3250.6370,N,11710.0460,W,5.52,133.1,171110,,*25
$GPRMC,015622.000,A,3250.6273,N,11710.0339,W,6.04,133.0,171110,,*2C
$GPRMC,015625.000,A,3250.6234,N,11710.0292,W,5.52,132.4,171110,,*2D
$GPRMC,015628.000,A,3250.6199,N,11710.0234,W,8.39,131.4,171110,,*2B
$GPRMC,015631.000,A,3250.6149,N,11710.0167,W,9.93,131.6,171110,,*28
$GPRMC,015634.000,A,3250.6089,N,11710.0089,W,9.95,132.0,171110,,*22
$GPRMC,015637.000,A,3250.6040,N,11710.0027,W,7.11,132.1,171110,,*23
$GPRMC,015649.000,A,3250.5981,N,11709.9941,W,4.94,132.2,171110,,*28
$GPRMC,015652.000,A,3250.5948,N,11709.9900,W,4.72,131.8,171110,,*23
$GPRMC,015658.000,A,3250.5906,N,11709.9848,W,5.01,131.8,171110,,*2B
$GPRMC,015710.000,A,3250.5819,N,11709.9735,W,8.03,132.3,171110,,*2B
$GPRMC,015713.000,A,3250.5764,N,11709.9664,W,10.53,132.3,171110,,*14
$GPRMC,015716.000,A,3250.5703,N,11709.9591,W,11.24,131.5,171110,,*1D
$GPRMC,015719.000,A,3250.5635,N,11709.9501,W,12.10,132.2,171110,,*1F
$GPRMC,015722.000,A,3250.5569,N,11709.9409,W,12.90,131.2,171110,,*1F
$GPRMC,015725.000,A,3250.5503,N,11709.9321,W,11.89,132.3,171110,,*10
$GPRMC,015728.000,A,3250.5432,N,11709.9231,W,13.24,132.6,171110,,*1E
$GPRMC,015731.000,A,3250.5356,N,11709.9136,W,12.45,132.4,171110,,*13
$GPRMC,015734.000,A,3250.5283,N,11709.9039,W,16.27,132.4,171110,,*11
$GPRMC,015737.000,A,3250.5187,N,11709.8911,W,17.16,131.9,171110,,*1A
$GPRMC,015740.000,A,3250.5095,N,11709.8791,W,15.46,132.1,171110,,*12
$GPRMC,015743.000,A,3250.5005,N,11709.8670,W,16.63,131.8,171110,,*18
$GPRMC,015746.000,A,3250.4913,N,11709.8552,W,15.51,131.9,171110,,*12
$GPRMC,015749.000,A,3250.4838,N,11709.8445,W,13.06,131.9,171110,,*16
$GPRMC,015752.000,A,3250.4771,N,11709.8352,W,11.40,132.4,171110,,*11
$GPRMC,015755.000,A,3250.4703,N,11709.8267,W,13.04,132.0,171110,,*12
$GPRMC,015758.000,A,3250.4622,N,11709.8161,W,15.27,131.9,171110,,*15
$GPRMC,015801.000,A,3250.4532,N,11709.8043,W,17.23,132.2,171110,,*1B
$GPRMC,015804.000,A,3250.4439,N,11709.7922,W,16.13,132.3,171110,,*16
$GPRMC,015807.000,A,3250.4359,N,11709.7819,W,11.56,132.3,171110,,*1B
$GPRMC,015810.000,A,3250.4301,N,11709.7753,W,7.15,132.4,171110,,*26
$GPRMC,015813.000,A,3250.4267,N,11709.7704,W,5.86,133.0,171110,,*2B
$GPRMC,015816.000,A,3250.4227,N,11709.7654,W,8.58,132.4,171110,,*25
$GPRMC,015819.000,A,3250.4181,N,11709.7589,W,8.48,132.1,171110,,*22
$GPRMC,015822.000,A,3250.4134,N,11709.7523,W,8.52,131.8,171110,,*25
$GPRMC,015825.000,A,3250.4082,N,11709.7452,W,10.29,132.1,171110,,*16
$GPRMC,015828.000,A,3250.4027,N,11709.7383,W,8.88,132.0,171110,,*2C
$GPRMC,015831.000,A,3250.3980,N,11709.7322,W,8.18,132.0,171110,,*25
$GPRMC,015834.000,A,3250.3934,N,11709.7263,W,8.32,132.1,171110,,*22
$GPRMC,015843.000,A,3250.3869,N,11709.7176,W,5.25,132.1,171110,,*27
$GPRMC,015846.000,A,3250.3820,N,11709.7123,W,9.46,135.4,171110,,*24
$GPRMC,015849.000,A,3250.3754,N,11709.7047,W,11.68,134.5,171110,,*11
$GPRMC,015852.000,A,3250.3691,N,11709.6967,W,9.22,132.7,171110,,*2A
$GPRMC,015855.000,A,3250.3642,N,11709.6898,W,8.75,132.0,171110,,*26
$GPRMC,015858.000,A,3250.3605,N,11709.6845,W,4.65,131.7,171110,,*21
$GPRMC,015904.000,A,3250.3554,N,11709.6774,W,8.63,130.1,171110,,*2E
$GPRMC,015907.000,A,3250.3504,N,11709.6691,W,11.08,129.5,171110,,*1B
$GPRMC,015910.000,A,3250.3453,N,11709.6609,W,9.72,128.5,171110,,*2A
$GPRMC,015913.000,A,3250.3402,N,11709.6534,W,10.98,127.8,171110,,*1E
$GPRMC,015916.000,A,3250.3345,N,11709.6449,W,10.64,127.0,171110,,*1F
$GPRMC,015919.000,A,3250.3294,N,11709.6366,W,10.95,125.9,171110,,*12
$GPRMC,015922.000,A,3250.3234,N,11709.6261,W,14.69,124.1,171110,,*18
$GPRMC,015925.000,A,3250.3165,N,11709.6129,W,16.29,122.3,171110,,*15
$GPRMC,015928.000,A,3250.3093,N,11709.5985,W,18.57,121.0,171110,,*1A
$GPRMC,015931.000,A,3250.3018,N,11709.5825,W,18.00,119.1,171110,,*12
$GPRMC,015934.000,A,3250.2954,N,11709.5676,W,15.73,117.5,171110,,*1C
$GPRMC,015937.000,A,3250.2899,N,11709.5546,W,13.81,116.4,171110,,*14
$GPRMC,015940.000,A,3250.2858,N,11709.5426,W,13.09,115.0,171110,,*19
$GPRMC,015943.000,A,3250.2809,N,11709.5306,W,14.26,113.9,171110,,*1E
$GPRMC,015946.000,A,3250.2763,N,11709.5177,W,15.70,112.1,171110,,*17
$GPRMC,015949.000,A,3250.2713,N,11709.5027,W,15.82,111.2,171110,,*16
$GPRMC,015952.000,A,3250.2674,N,11709.4897,W,12.07,109.6,171110,,*19
$GPRMC,015955.000,A,3250.2642,N,11709.4803,W,8.00,113.5,171110,,*22
$GPRMC,020004.000,A,3250.2595,N,11709.4679,W,4.44,113.8,171110,,*22
$GPRMC,020007.000,A,3250.2583,N,11709.4628,W,7.16,108.8,171110,,*2C
$GPRMC,020010.000,A,3250.2563,N,11709.4540,W,10.88,105.6,171110,,*1B
$GPRMC,020013.000,A,3250.2542,N,11709.4431,W,12.65,104.2,171110,,*18
$GPRMC,020016.000,A,3250.2521,N,11709.4302,W,13.64,102.9,171110,,*12
$GPRMC,020019.000,A,3250.2501,N,11709.4181,W,10.33,105.0,171110,,*19
$GPRMC,020034.000,A,3250.2485,N,11709.4088,W,5.85,103.2,171110,,*2E
$GPRMC,020037.000,A,3250.2477,N,11709.4030,W,6.50,100.4,171110,,*2D
$GPRMC,020040.000,A,3250.2467,N,11709.3946,W,10.75,100.0,171110,,*17
$GPRMC,020043.000,A,3250.2452,N,11709.3849,W,7.32,101.5,171110,,*2D
$GPRMC,020052.000,A,3250.2441,N,11709.3760,W,4.97,103.6,171110,,*26
$GPRMC,020055.000,A,3250.2432,N,11709.3686,W,10.65,97.9,171110,,*27
$GPRMC,020058.000,A,3250.2421,N,11709.3559,W,15.28,96.0,171110,,*2D
$GPRMC,020101.000,A,3250.2408,N,11709.3399,W,15.91,94.7,171110,,*26
$GPRMC,020104.000,A,3250.2395,N,11709.3259,W,11.99,93.5,171110,,*24
$GPRMC,020107.000,A,3250.2395,N,11709.3171,W,6.35,92.6,171110,,*1C
$GPRMC,020116.000,A,3250.2385,N,11709.3043,W,6.35,91.2,171110,,*1A
$GPRMC,020119.000,A,3250.2387,N,11709.2979,W,6.36,89.9,171110,,*17
$GPRMC,020122.000,A,3250.2387,N,11709.2899,W,11.71,88.1,171110,,*2C
$GPRMC,020125.000,A,3250.2390,N,11709.2783,W,8.86,88.7,171110,,*1F
$GPRMC,020140.000,A,3250.2400,N,11709.2608,W,4.58,89.4,171110,,*1D
$GPRMC,020143.000,A,3250.2404,N,11709.2560,W,5.00,89.4,171110,,*1B
$GPRMC,020146.000,A,3250.2408,N,11709.2498,W,7.95,85.6,171110,,*14
$GPRMC,020149.000,A,3250.2415,N,11709.2426,W,5.35,85.5,171110,,*19
$GPRMC,020155.000,A,3250.2423,N,11709.2327,W,7.75,84.5,171110,,*10
$GPRMC,020158.000,A,3250.2431,N,11709.2230,W,11.77,83.1,171110,,*2F
$GPRMC,020201.000,A,3250.2439,N,11709.2117,W,10.52,86.9,171110,,*25
$GPRMC,020204.000,A,3250.2442,N,11709.2007,W,8.66,86.6,171110,,*1D
$GPRMC,020207.000,A,3250.2452,N,11709.1930,W,7.38,81.8,171110,,*1C
$GPRMC,020216.000,A,3250.2470,N,11709.1791,W,8.33,79.9,171110,,*1B
$GPRMC,020219.000,A,3250.2487,N,11709.1701,W,9.29,77.9,171110,,*11
$GPRMC,020222.000,A,3250.2500,N,11709.1638,W,5.19,77.4,171110,,*1E
$GPRMC,020225.000,A,3250.2507,N,11709.1595,W,4.51,77.4,171110,,*17
$GPRMC,020228.000,A,3250.2522,N,11709.1549,W,5.55,77.0,171110,,*1D
$GPRMC,020231.000,A,3250.2540,N,11709.1445,W,17.19,79.5,171110,,*2C
$GPRMC,020234.000,A,3250.2576,N,11709.1237,W,22.58,77.3,171110,,*24
$GPRMC,020237.000,A,3250.2623,N,11709.1015,W,20.78,76.4,171110,,*20
$GPRMC,020240.000,A,3250.2652,N,11709.0844,W,13.23,77.0,171110,,*20
$GPRMC,020243.000,A,3250.2664,N,11709.0752,W,6.63,81.8,171110,,*1F
$GPRMC,020249.000,A,3250.2678,N,11709.0663,W,7.21,79.5,171110,,*16
$GPRMC,020252.000,A,3250.2689,N,11709.0562,W,13.29,78.0,171110,,*29
$GPRMC,020255.000,A,3250.2735,N,11709.0405,W,19.67,75.8,171110,,*2D
$GPRMC,020258.000,A,3250.2782,N,11709.0200,W,24.33,75.3,171110,,*2B
$GPRMC,020301.000,A,3250.2833,N,11708.9959,W,24.14,76.1,171110,,*28
$GPRMC,020304.000,A,3250.2862,N,11708.9769,W,15.81,77.7,171110,,*2D
$GPRMC,020307.000,A,3250.2887,N,11708.9638,W,12.80,79.1,171110,,*2E
$GPRMC,020310.000,A,3250.2917,N,11708.9491,W,19.34,78.3,171110,,*26
$GPRMC,020313.000,A,3250.2956,N,11708.9241,W,31.38,79.5,171110,,*2A
$GPRMC,020316.000,A,3250.3032,N,11708.8907,W,35.49,76.3,171110,,*26
$GPRMC,020319.000,A,3250.3090,N,11708.8579,W,31.59,77.1,171110,,*22
$GPRMC,020322.000,A,3250.3146,N,11708.8287,W,28.77,78.1,171110,,*2D
$GPRMC,020325.000,A,3250.3201,N,11708.8011,W,27.41,77.8,171110,,*2B
$GPRMC,020328.000,A,3250.3247,N,11708.7756,W,23.79,77.8,171110,,*20
$GPRMC,020331.000,A,3250.3295,N,11708.7555,W,18.92,77.9,171110,,*2A
$GPRMC,020334.000,A,3250.3334,N,11708.7379,W,19.24,77.2,171110,,*2A
$GPRMC,020337.000,A,3250.3374,N,11708.7197,W,16.95,76.2,171110,,*2B
$GPRMC,020340.000,A,3250.3405,N,11708.7052,W,14.55,77.1,171110,,*2E
$GPRMC,020343.000,A,3250.3434,N,11708.6924,W,12.58,76.6,171110,,*2B
$GPRMC,020346.000,A,3250.3455,N,11708.6818,W,10.44,76.2,171110,,*2C
$GPRMC,020349.000,A,3250.3483,N,11708.6706,W,14.29,75.5,171110,,*23
$GPRMC,020352.000,A,3250.3514,N,11708.6554,W,17.77,76.6,171110,,*2B
$GPRMC,020355.000,A,3250.3545,N,11708.6389,W,16.60,76.5,171110,,*2A
$GPRMC,020358.000,A,3250.3574,N,11708.6248,W,12.81,76.2,171110,,*25
$GPRMC,020401.000,A,3250.3601,N,11708.6130,W,12.23,75.5,171110,,*2F
$GPRMC,020404.000,A,3250.3632,N,11708.5991,W,15.68,75.7,171110,,*20
$GPRMC,020407.000,A,3250.3667,N,11708.5836,W,16.67,75.6,171110,,*22
$GPRMC,020410.000,A,3250.3706,N,11708.5688,W,15.37,75.2,171110,,*2B
$GPRMC,020413.000,A,3250.3743,N,11708.5515,W,19.81,75.9,171110,,*24
$GPRMC,020416.000,A,3250.3790,N,11708.5309,W,22.51,76.3,171110,,*28
$GPRMC,020419.000,A,3250.3831,N,11708.5090,W,23.57,76.4,171110,,*20
$GPRMC,020422.000,A,3250.3884,N,11708.4843,W,28.02,76.4,171110,,*2A
$GPRMC,020425.000,A,3250.3939,N,11708.4568,W,28.39,76.4,171110,,*26
$GPRMC,020428.000,A,3250.3987,N,11708.4301,W,26.42,76.3,171110,,*22
$GPRMC,020431.000,A,3250.4039,N,11708.4036,W,28.39,77.1,171110,,*27
$GPRMC,020434.000,A,3250.4101,N,11708.3748,W,30.79,76.3,171110,,*2F
$GPRMC,020437.000,A,3250.4172,N,11708.3442,W,33.29,75.9,171110,,*2E
$GPRMC,020440.000,A,3250.4238,N,11708.3116,W,35.48,76.7,171110,,*2B
$GPRMC,020443.000,A,3250.4305,N,11708.2750,W,39.43,78.0,171110,,*2C
$GPRMC,020446.000,A,3250.4363,N,11708.2355,W,40.42,80.9,171110,,*29
$GPRMC,020449.000,A,3250.4407,N,11708.1960,W,39.33,82.1,171110,,*2E
$GPRMC,020452.000,A,3250.4447,N,11708.1567,W,40.82,82.3,171110,,*2D
$GPRMC,020455.000,A,3250.4491,N,11708.1161,W,41.04,82.4,171110,,*2B
$GPRMC,020458.000,A,3250.4542,N,11708.0770,W,39.55,82.6,171110,,*27
$GPRMC,020501.000,A,3250.4570,N,11708.0383,W,38.92,85.7,171110,,*2F
$GPRMC,020504.000,A,3250.4588,N,11707.9984,W,41.02,86.8,171110,,*2D
$GPRMC,020507.000,A,3250.4582,N,11707.9566,W,42.46,91.3,171110,,*2A
$GPRMC,020510.000,A,3250.4525,N,11707.9136,W,44.06,98.3,171110,,*2B
$GPRMC,020513.000,A,3250.4477,N,11707.8697,W,43.53,94.2,171110,,*29
$GPRMC,020516.000,A,3250.4511,N,11707.8266,W,44.22,83.2,171110,,*20
$GPRMC,020519.000,A,3250.4585,N,11707.7862,W,37.97,77.8,171110,,*28
$GPRMC,020522.000,A,3250.4643,N,11707.7576,W,20.80,77.9,171110,,*20
$GPRMC,020525.000,A,3250.4674,N,11707.7416,W,16.44,76.1,171110,,*20
$GPRMC,020528.000,A,3250.4700,N,11707.7273,W,15.01,78.0,171110,,*27
$GPRMC,020531.000,A,3250.4723,N,11707.7136,W,12.56,79.4,171110,,*2C
$GPRMC,020534.000,A,3250.4730,N,11707.7041,W,6.71,84.5,171110,,*19
$GPRMC,020537.000,A,3250.4742,N,11707.6986,W,6.36,83.7,171110,,*1A
$GPRMC,020540.000,A,3250.4751,N,11707.6921,W,7.86,83.6,171110,,*1E
$GPRMC,020543.000,A,3250.4764,N,11707.6836,W,11.06,84.9,171110,,*2B
$GPRMC,020546.000,A,3250.4766,N,11707.6714,W,12.32,86.4,171110,,*28
$GPRMC,020549.000,A,3250.4763,N,11707.6615,W,7.41,88.2,171110,,*1A
$GPRMC,020552.000,A,3250.4758,N,11707.6538,W,8.31,91.5,171110,,*13
$GPRMC,020555.000,A,3250.4755,N,11707.6446,W,10.36,93.4,171110,,*2C
$GPRMC,020558.000,A,3250.4746,N,11707.6339,W,9.53,96.9,171110,,*1F
$GPRMC,020604.000,A,3250.4737,N,11707.6239,W,4.72,95.6,171110,,*10
$GPRMC,020607.000,A,3250.4729,N,11707.6180,W,8.29,91.9,171110,,*14
$GPRMC,020610.000,A,3250.4716,N,11707.6062,W,14.00,97.6,171110,,*2C
$GPRMC,020613.000,A,3250.4683,N,11707.5898,W,17.16,100.6,171110,,*17
$GPRMC,020616.000,A,3250.4651,N,11707.5727,W,15.68,100.2,171110,,*19
$GPRMC,020619.000,A,3250.4628,N,11707.5570,W,15.72,100.0,171110,,*11
$GPRMC,020622.000,A,3250.4607,N,11707.5391,W,19.71,98.9,171110,,*2B
$GPRMC,020625.000,A,3250.4586,N,11707.5198,W,18.86,97.0,171110,,*22
$GPRMC,020628.000,A,3250.4571,N,11707.5025,W,16.21,94.7,171110,,*27
$GPRMC,020631.000,A,3250.4563,N,11707.4870,W,15.05,93.4,171110,,*24
$GPRMC,020634.000,A,3250.4554,N,11707.4729,W,14.51,92.6,171110,,*25
$GPRMC,020637.000,A,3250.4548,N,11707.4581,W,14.49,91.5,171110,,*22
$GPRMC,020640.000,A,3250.4544,N,11707.4465,W,10.15,92.7,171110,,*29
$GPRMC,020643.000,A,3250.4539,N,11707.4370,W,10.07,92.3,171110,,*24
$GPRMC,020646.000,A,3250.4538,N,11707.4267,W,9.27,91.2,171110,,*1F
$GPRMC,020649.000,A,3250.4540,N,11707.4201,W,4.96,91.3,171110,,*19
$GPRMC,020652.000,A,3250.4539,N,11707.4151,W,6.02,91.7,171110,,*10
$GPRMC,020655.000,A,3250.4537,N,11707.4069,W,9.91,91.6,171110,,*17
$GPRMC,020658.000,A,3250.4537,N,11707.3966,W,9.75,91.8,171110,,*1F
$GPRMC,020701.000,A,3250.4532,N,11707.3879,W,7.98,93.9,171110,,*16
$GPRMC,020704.000,A,3250.4528,N,11707.3811,W,5.05,95.3,171110,,*1C
$GPRMC,020707.000,A,3250.4521,N,11707.3761,W,5.65,96.4,171110,,*1C
$GPRMC,020710.000,A,3250.4513,N,11707.3698,W,7.73,99.5,171110,,*17
$GPRMC,020713.000,A,3250.4497,N,11707.3627,W,6.72,103.9,171110,,*23
$GPRMC,020716.000,A,3250.4481,N,11707.3556,W,7.59,107.8,171110,,*29
$GPRMC,020719.000,A,3250.4457,N,11707.3482,W,7.69,112.6,171110,,*2C
$GPRMC,020722.000,A,3250.4430,N,11707.3412,W,8.47,116.9,171110,,*24
$GPRMC,020725.000,A,3250.4399,N,11707.3341,W,6.77,121.5,171110,,*23
$GPRMC,020728.000,A,3250.4363,N,11707.3291,W,5.74,125.5,171110,,*23
$GPRMC,020731.000,A,3250.4341,N,11707.3253,W,4.38,125.5,171110,,*2C
$GPRMC,020734.000,A,3250.4310,N,11707.3215,W,6.16,129.8,171110,,*20
$GPRMC,020737.000,A,3250.4268,N,11707.3163,W,7.59,134.2,171110,,*23
$GPRMC,020740.000,A,3250.4216,N,11707.3107,W,9.31,138.7,171110,,*21
$GPRMC,020743.000,A,3250.4149,N,11707.3045,W,11.11,143.3,171110,,*1F
$GPRMC,020746.000,A,3250.4077,N,11707.2993,W,10.42,149.2,171110,,*19
$GPRMC,020749.000,A,3250.3999,N,11707.2953,W,9.13,155.1,171110,,*26
$GPRMC,020752.000,A,3250.3927,N,11707.2920,W,10.77,158.8,171110,,*13
$GPRMC,020755.000,A,3250.3816,N,11707.2891,W,15.90,166.0,171110,,*15
$GPRMC,020758.000,A,3250.3641,N,11707.2871,W,24.70,174.4,171110,,*11
$GPRMC,020801.000,A,3250.3389,N,11707.2850,W,32.59,174.5,171110,,*1D
$GPRMC,020804.000,A,3250.3110,N,11707.2811,W,32.49,173.0,171110,,*1C
$GPRMC,020807.000,A,3250.2836,N,11707.2758,W,32.99,170.6,171110,,*19
$GPRMC,020810.000,A,3250.2572,N,11707.2689,W,31.05,167.6,171110,,*1F
$GPRMC,020813.000,A,3250.2322,N,11707.2609,W,29.43,165.0,171110,,*18
$GPRMC,020816.000,A,3250.2090,N,11707.2525,W,28.19,163.5,171110,,*17
$GPRMC,020819.000,A,3250.1865,N,11707.2437,W,27.36,161.1,171110,,*1F
$GPRMC,020822.000,A,3250.1644,N,11707.2345,W,29.14,161.0,171110,,*17
$GPRMC,020825.000,A,3250.1398,N,11707.2252,W,33.52,162.6,171110,,*1F
$GPRMC,020828.000,A,3250.1133,N,11707.2157,W,32.50,163.0,171110,,*13
$GPRMC,020831.000,A,3250.0896,N,11707.2063,W,26.79,161.6,171110,,*10
$GPRMC,020834.000,A,3250.0735,N,11707.2000,W,15.91,161.2,171110,,*14
$GPRMC,020837.000,A,3250.0653,N,11707.1968,W,9.60,163.0,171110,,*21
$GPRMC,020840.000,A,3250.0516,N,11707.1943,W,22.85,167.5,171110,,*19
$GPRMC,020843.000,A,3250.0324,N,11707.1883,W,22.87,165.6,171110,,*13
$GPRMC,020846.000,A,3250.0184,N,11707.1865,W,13.20,200.9,171110,,*16
$GPRMC,020849.000,A,3250.0110,N,11707.1989,W,19.13,238.2,171110,,*1D
$GPRMC,020852.000,A,3250.0035,N,11707.2195,W,21.03,245.7,171110,,*12
$GPRMC,020855.000,A,3249.9985,N,11707.2351,W,11.49,248.6,171110,,*1D
$GPRMC,020928.000,A,3249.9960,N,11707.2452,W,9.39,247.1,171110,,*2F
$GPRMC,020931.000,A,3249.9906,N,11707.2576,W,14.43,242.9,171110,,*1C
$GPRMC,020934.000,A,3249.9813,N,11707.2682,W,15.74,198.3,171110,,*1F
$GPRMC,020937.000,A,3249.9673,N,11707.2651,W,21.38,165.2,171110,,*16
$GPRMC,020940.000,A,3249.9476,N,11707.2566,W,25.88,161.4,171110,,*1B
$GPRMC,020943.000,A,3249.9258,N,11707.2476,W,29.61,160.4,171110,,*18
$GPRMC,020946.000,A,3249.9004,N,11707.2369,W,35.22,161.9,171110,,*19
$GPRMC,020949.000,A,3249.8725,N,11707.2273,W,33.34,165.0,171110,,*15
$GPRMC,020952.000,A,3249.8474,N,11707.2201,W,30.64,167.3,171110,,*1A
$GPRMC,020955.000,A,3249.8221,N,11707.2143,W,31.08,168.0,171110,,*19
$GPRMC,020958.000,A,3249.7975,N,11707.2084,W,29.80,168.5,171110,,*17
$GPRMC,021001.000,A,3249.7730,N,11707.2021,W,29.71,167.5,171110,,*12
$GPRMC,021004.000,A,3249.7492,N,11707.1953,W,29.52,166.8,171110,,*1E
$GPRMC,021007.000,A,3249.7253,N,11707.1873,W,30.43,166.0,171110,,*15
$GPRMC,021010.000,A,3249.7016,N,11707.1815,W,28.03,167.9,171110,,*15
$GPRMC,021013.000,A,3249.6795,N,11707.1764,W,25.78,170.3,171110,,*1F
$GPRMC,021016.000,A,3249.6598,N,11707.1736,W,22.28,173.2,171110,,*12
$GPRMC,021019.000,A,3249.6410,N,11707.1713,W,22.63,173.8,171110,,*1E
$GPRMC,021022.000,A,3249.6223,N,11707.1693,W,20.00,173.6,171110,,*10
$GPRMC,021025.000,A,3249.6071,N,11707.1674,W,18.31,174.3,171110,,*10
$GPRMC,021028.000,A,3249.5909,N,11707.1655,W,20.92,173.5,171110,,*18
$GPRMC,021031.000,A,3249.5715,N,11707.1628,W,26.33,173.4,171110,,*15
$GPRMC,021034.000,A,3249.5469,N,11707.1595,W,31.53,174.2,171110,,*1C
$GPRMC,021037.000,A,3249.5183,N,11707.1565,W,36.07,173.9,171110,,*1B
$GPRMC,021040.000,A,3249.4866,N,11707.1526,W,38.84,173.7,171110,,*14
$GPRMC,021043.000,A,3249.4538,N,11707.1488,W,36.70,174.2,171110,,*13
$GPRMC,021046.000,A,3249.4239,N,11707.1452,W,36.03,174.1,171110,,*10
$GPRMC,021049.000,A,3249.3930,N,11707.1416,W,38.04,174.5,171110,,*17
$GPRMC,021052.000,A,3249.3620,N,11707.1371,W,36.26,171.2,171110,,*19
$GPRMC,021055.000,A,3249.3339,N,11707.1246,W,38.00,156.0,171110,,*1B
$GPRMC,021058.000,A,3249.3104,N,11707.0988,W,37.47,138.7,171110,,*11
$GPRMC,021101.000,A,3249.2891,N,11707.0689,W,40.13,132.3,171110,,*19
$GPRMC,021104.000,A,3249.2657,N,11707.0374,W,43.75,135.5,171110,,*1D
$GPRMC,021107.000,A,3249.2338,N,11707.0134,W,45.89,151.6,171110,,*10
$GPRMC,021110.000,A,3249.1961,N,11707.0055,W,47.34,172.9,171110,,*1F
$GPRMC,021113.000,A,3249.1549,N,11707.0089,W,48.84,182.7,171110,,*1E
$GPRMC,021116.000,A,3249.1141,N,11707.0122,W,47.08,183.1,171110,,*1B
$GPRMC,021119.000,A,3249.0759,N,11707.0164,W,45.63,184.7,171110,,*16
$GPRMC,021122.000,A,3249.0390,N,11707.0195,W,43.07,183.3,171110,,*16
$GPRMC,021125.000,A,3249.0036,N,11707.0184,W,42.14,175.7,171110,,*10
$GPRMC,021128.000,A,3248.9701,N,11707.0081,W,40.49,166.1,171110,,*1C
$GPRMC,021131.000,A,3248.9409,N,11706.9965,W,35.26,162.4,171110,,*1E
$GPRMC,021134.000,A,3248.9131,N,11706.9858,W,34.04,161.8,171110,,*14
$GPRMC,021137.000,A,3248.8852,N,11706.9745,W,37.31,162.2,171110,,*15
$GPRMC,021140.000,A,3248.8549,N,11706.9639,W,37.89,164.6,171110,,*19
$GPRMC,021143.000,A,3248.8240,N,11706.9567,W,37.56,170.3,171110,,*1E
$GPRMC,021146.000,A,3248.7926,N,11706.9561,W,38.43,181.3,171110,,*1C
$GPRMC,021149.000,A,3248.7618,N,11706.9649,W,36.19,193.1,171110,,*18
$GPRMC,021152.000,A,3248.7366,N,11706.9765,W,28.40,199.6,171110,,*1F
$GPRMC,021155.000,A,3248.7191,N,11706.9855,W,19.01,202.4,171110,,*1A
$GPRMC,021158.000,A,3248.7076,N,11706.9925,W,14.24,204.4,171110,,*15
$GPRMC,021201.000,A,3248.6978,N,11706.9978,W,16.15,203.8,171110,,*1F
$GPRMC,021204.000,A,3248.6829,N,11707.0052,W,21.22,201.0,171110,,*1C
$GPRMC,021207.000,A,3248.6684,N,11707.0110,W,15.73,196.2,171110,,*1D
$GPRMC,021210.000,A,3248.6599,N,11707.0131,W,7.02,192.2,171110,,*26
$GPRMC,021216.000,A,3248.6507,N,11707.0149,W,11.67,189.5,171110,,*11
$GPRMC,021219.000,A,3248.6362,N,11707.0164,W,22.11,183.1,171110,,*1B
$GPRMC,021222.000,A,3248.6174,N,11707.0150,W,21.29,176.1,171110,,*13
$GPRMC,021225.000,A,3248.6019,N,11707.0114,W,17.63,169.6,171110,,*1C
$GPRMC,021228.000,A,3248.5894,N,11707.0069,W,14.28,163.0,171110,,*14
$GPRMC,021231.000,A,3248.5795,N,11707.0002,W,13.86,144.4,171110,,*1D
$GPRMC,021234.000,A,3248.5750,N,11706.9882,W,12.79,95.9,171110,,*28
$GPRMC,021237.000,A,3248.5770,N,11706.9772,W,10.01,78.1,171110,,*2F
$GPRMC,021249.000,A,3248.5820,N,11706.9669,W,10.76,61.9,171110,,*27
$GPRMC,021252.000,A,3248.5879,N,11706.9525,W,17.38,67.7,171110,,*2F
$GPRMC,021255.000,A,3248.5934,N,11706.9366,W,14.57,68.7,171110,,*24
$GPRMC,021258.000,A,3248.5972,N,11706.9270,W,7.37,67.3,171110,,*12
$GPRMC,021413.000,A,3248.6026,N,11706.9097,W,9.03,71.3,171110,,*15
$GPRMC,021416.000,A,3248.6046,N,11706.8995,W,8.41,96.7,171110,,*16
$GPRMC,021419.000,A,3248.6020,N,11706.8916,W,5.44,118.7,171110,,*2D
$GPRMC,021425.000,A,3248.5968,N,11706.8875,W,5.22,118.7,171110,,*20
$GPRMC,021428.000,A,3248.5918,N,11706.8853,W,5.18,162.2,171110,,*2F
$GPRMC,021440.000,A,3248.5883,N,11706.8838,W,4.35,162.2,171110,,*21
$GPRMC,021455.000,A,3248.5786,N,11706.8807,W,5.17,162.1,171110,,*21
$GPRMC,021510.000,A,3248.5698,N,11706.8767,W,4.38,162.0,171110,,*2B
$GPRMC,021525.000,A,3248.5650,N,11706.8747,W,4.50,162.0,171110,,*25
$GPRMC,021543.000,A,3248.5564,N,11706.8719,W,5.56,162.2,171110,,*2F
$GPRMC,021613.000,A,3248.5447,N,11706.8673,W,5.46,162.3,171110,,*24
$GPRMC,021643.000,A,3248.5305,N,11706.8622,W,5.51,162.5,171110,,*24
$GPRMC,021658.000,A,3248.5239,N,11706.8596,W,4.91,162.5,171110,,*21
$GPRMC,021737.000,A,3248.4974,N,11706.8511,W,14.79,163.7,171110,,*11
$GPRMC,021740.000,A,3248.4809,N,11706.8462,W,21.97,165.2,171110,,*1A
$GPRMC,021743.000,A,3248.4606,N,11706.8413,W,26.76,167.9,171110,,*1F
$GPRMC,021746.000,A,3248.4359,N,11706.8359,W,31.73,170.1,171110,,*11
$GPRMC,021749.000,A,3248.4099,N,11706.8307,W,30.99,171.3,171110,,*1C
$GPRMC,021752.000,A,3248.3851,N,11706.8262,W,29.10,172.0,171110,,*16
$GPRMC,021755.000,A,3248.3608,N,11706.8224,W,29.02,173.0,171110,,*13
$GPRMC,021758.000,A,3248.3370,N,11706.8188,W,29.29,173.2,171110,,*1A
$GPRMC,021801.000,A,3248.3116,N,11706.8154,W,31.57,172.6,171110,,*1F
$GPRMC,021804.000,A,3248.2854,N,11706.8117,W,30.27,172.7,171110,,*14
$GPRMC,021807.000,A,3248.2607,N,11706.8077,W,28.53,172.8,171110,,*1D
$GPRMC,021810.000,A,3248.2377,N,11706.8042,W,28.33,172.6,171110,,*17
$GPRMC,021813.000,A,3248.2143,N,11706.8006,W,27.67,172.6,171110,,*1F
$GPRMC,021816.000,A,3248.1910,N,11706.7970,W,28.92,172.6,171110,,*15
$GPRMC,021819.000,A,3248.1671,N,11706.7934,W,28.16,172.6,171110,,*1E
$GPRMC,021822.000,A,3248.1438,N,11706.7899,W,28.71,172.9,171110,,*11
$GPRMC,021825.000,A,3248.1195,N,11706.7864,W,29.33,173.0,171110,,*19
$GPRMC,021828.000,A,3248.0944,N,11706.7829,W,30.36,172.6,171110,,*12
$GPRMC,021831.000,A,3248.0696,N,11706.7789,W,29.64,172.7,171110,,*11
$GPRMC,021834.000,A,3248.0450,N,11706.7751,W,27.16,172.9,171110,,*1C
$GPRMC,021837.000,A,3248.0247,N,11706.7727,W,23.93,173.1,171110,,*1E
$GPRMC,021840.000,A,3248.0055,N,11706.7698,W,20.47,172.2,171110,,*12
$GPRMC,021843.000,A,3247.9895,N,11706.7670,W,18.82,172.8,171110,,*1D
$GPRMC,021846.000,A,3247.9739,N,11706.7647,W,19.87,172.9,171110,,*10
$GPRMC,021849.000,A,3247.9562,N,11706.7618,W,22.94,173.1,171110,,*1A
$GPRMC,021852.000,A,3247.9399,N,11706.7595,W,15.64,173.2,171110,,*1C
$GPRMC,021855.000,A,3247.9317,N,11706.7585,W,7.10,173.0,171110,,*2E
$GPRMC,021858.000,A,3247.9265,N,11706.7575,W,6.56,173.1,171110,,*2A
$GPRMC,021901.000,A,3247.9192,N,11706.7567,W,11.96,173.9,171110,,*1D
$GPRMC,021904.000,A,3247.9066,N,11706.7550,W,17.48,174.8,171110,,*15
$GPRMC,021907.000,A,3247.8904,N,11706.7531,W,20.99,174.2,171110,,*1F
$GPRMC,021910.000,A,3247.8741,N,11706.7508,W,18.53,174.1,171110,,*12
$GPRMC,021913.000,A,3247.8587,N,11706.7493,W,17.26,174.3,171110,,*15
$GPRMC,021916.000,A,3247.8471,N,11706.7477,W,12.19,174.5,171110,,*1D
$GPRMC,021919.000,A,3247.8357,N,11706.7466,W,16.48,175.1,171110,,*14
$GPRMC,021922.000,A,3247.8197,N,11706.7449,W,20.42,175.2,171110,,*13
$GPRMC,021925.000,A,3247.8029,N,11706.7431,W,19.93,174.8,171110,,*12
$GPRMC,021928.000,A,3247.7863,N,11706.7407,W,17.85,174.5,171110,,*17
$GPRMC,021931.000,A,3247.7749,N,11706.7399,W,11.47,174.5,171110,,*10
$GPRMC,021934.000,A,3247.7680,N,11706.7391,W,6.02,174.6,171110,,*2D
$GPRMC,021940.000,A,3247.7610,N,11706.7387,W,5.76,174.2,171110,,*24
$GPRMC,021943.000,A,3247.7522,N,11706.7378,W,14.79,175.5,171110,,*1C
$GPRMC,021946.000,A,3247.7374,N,11706.7362,W,19.97,175.2,171110,,*1D
$GPRMC,021949.000,A,3247.7202,N,11706.7349,W,21.30,176.4,171110,,*18
$GPRMC,021952.000,A,3247.7004,N,11706.7341,W,25.35,178.5,171110,,*10
$GPRMC,021955.000,A,3247.6772,N,11706.7344,W,28.47,180.3,171110,,*1C
$GPRMC,021958.000,A,3247.6530,N,11706.7351,W,28.45,182.5,171110,,*17
$GPRMC,022001.000,A,3247.6293,N,11706.7375,W,28.08,185.2,171110,,*10
$GPRMC,022004.000,A,3247.6061,N,11706.7410,W,28.00,187.8,171110,,*1E
$GPRMC,022007.000,A,3247.5833,N,11706.7456,W,27.97,190.2,171110,,*1E
$GPRMC,022010.000,A,3247.5611,N,11706.7514,W,25.93,191.9,171110,,*1D
$GPRMC,022013.000,A,3247.5410,N,11706.7570,W,24.71,194.5,171110,,*1B
$GPRMC,022016.000,A,3247.5213,N,11706.7638,W,24.15,196.3,171110,,*12
$GPRMC,022019.000,A,3247.5021,N,11706.7712,W,23.87,197.8,171110,,*11
$GPRMC,022022.000,A,3247.4838,N,11706.7781,W,22.83,198.1,171110,,*11
$GPRMC,022025.000,A,3247.4634,N,11706.7857,W,28.84,197.4,171110,,*17
$GPRMC,022028.000,A,3247.4388,N,11706.7949,W,31.28,197.5,171110,,*19
$GPRMC,022031.000,A,3247.4176,N,11706.8030,W,24.36,197.7,171110,,*13
$GPRMC,022034.000,A,3247.3994,N,11706.8102,W,20.99,197.9,171110,,*1A
$GPRMC,022037.000,A,3247.3836,N,11706.8165,W,19.64,198.3,171110,,*1C
$GPRMC,022040.000,A,3247.3668,N,11706.8226,W,23.04,197.3,171110,,*1D
$GPRMC,022043.000,A,3247.3480,N,11706.8293,W,23.72,197.0,171110,,*16
$GPRMC,022046.000,A,3247.3289,N,11706.8359,W,25.03,197.1,171110,,*1A
$GPRMC,022049.000,A,3247.3076,N,11706.8445,W,30.39,197.3,171110,,*12
$GPRMC,022052.000,A,3247.2822,N,11706.8534,W,33.05,196.3,171110,,*1A
$GPRMC,022055.000,A,3247.2539,N,11706.8612,W,35.64,193.3,171110,,*19
$GPRMC,022058.000,A,3247.2241,N,11706.8679,W,35.61,190.9,171110,,*1D
$GPRMC,022101.000,A,3247.1948,N,11706.8724,W,35.56,187.2,171110,,*11
$GPRMC,022104.000,A,3247.1656,N,11706.8750,W,34.93,183.9,171110,,*10
$GPRMC,022107.000,A,3247.1381,N,11706.8761,W,33.15,181.3,171110,,*1F
$GPRMC,022110.000,A,3247.1101,N,11706.8755,W,33.29,179.2,171110,,*1D
$GPRMC,022113.000,A,3247.0827,N,11706.8746,W,32.18,177.9,171110,,*16
$GPRMC,022116.000,A,3247.0565,N,11706.8722,W,30.13,174.8,171110,,*11
$GPRMC,022119.000,A,3247.0321,N,11706.8682,W,27.83,170.9,171110,,*19
$GPRMC,022122.000,A,3247.0108,N,11706.8628,W,25.71,167.9,171110,,*11
$GPRMC,022125.000,A,3246.9918,N,11706.8573,W,21.73,167.3,171110,,*16
$GPRMC,022128.000,A,3246.9778,N,11706.8535,W,13.93,167.4,171110,,*19
$GPRMC,022131.000,A,3246.9686,N,11706.8513,W,9.31,168.2,171110,,*2F
$GPRMC,022134.000,A,3246.9611,N,11706.8498,W,9.65,168.1,171110,,*24
$GPRMC,022137.000,A,3246.9513,N,11706.8475,W,13.81,168.0,171110,,*15
$GPRMC,022140.000,A,3246.9378,N,11706.8442,W,18.15,167.2,171110,,*11
$GPRMC,022143.000,A,3246.9247,N,11706.8404,W,13.76,167.2,171110,,*13
$GPRMC,022146.000,A,3246.9149,N,11706.8377,W,11.05,167.0,171110,,*1C
$GPRMC,022149.000,A,3246.9052,N,11706.8352,W,12.65,166.8,171110,,*13
$GPRMC,022152.000,A,3246.8941,N,11706.8320,W,14.83,166.5,171110,,*15
$GPRMC,022155.000,A,3246.8816,N,11706.8286,W,16.24,166.5,171110,,*13
$GPRMC,022158.000,A,3246.8667,N,11706.8245,W,20.73,166.9,171110,,*12
$GPRMC,022201.000,A,3246.8495,N,11706.8195,W,20.26,166.6,171110,,*13
$GPRMC,022204.000,A,3246.8350,N,11706.8158,W,15.86,166.7,171110,,*14
$GPRMC,022207.000,A,3246.8238,N,11706.8124,W,12.30,166.4,171110,,*1A
$GPRMC,022210.000,A,3246.8138,N,11706.8095,W,11.78,166.8,171110,,*17
$GPRMC,022213.000,A,3246.8024,N,11706.8064,W,17.01,166.1,171110,,*17
$GPRMC,022216.000,A,3246.7887,N,11706.8019,W,16.43,165.2,171110,,*11
$GPRMC,022219.000,A,3246.7773,N,11706.7975,W,12.18,160.8,171110,,*13
$GPRMC,022222.000,A,3246.7685,N,11706.7934,W,10.23,156.4,171110,,*15
$GPRMC,022225.000,A,3246.7612,N,11706.7883,W,11.18,151.0,171110,,*1B
$GPRMC,022228.000,A,3246.7519,N,11706.7817,W,14.24,146.0,171110,,*1F
$GPRMC,022231.000,A,3246.7426,N,11706.7730,W,13.60,141.5,171110,,*15
$GPRMC,022234.000,A,3246.7343,N,11706.7638,W,13.33,136.4,171110,,*1A
$GPRMC,022237.000,A,3246.7267,N,11706.7543,W,14.02,131.8,171110,,*1F
$GPRMC,022240.000,A,3246.7189,N,11706.7425,W,15.85,126.4,171110,,*19
$GPRMC,022243.000,A,3246.7123,N,11706.7288,W,15.30,120.5,171110,,*12
$GPRMC,022246.000,A,3246.7066,N,11706.7153,W,15.34,115.6,171110,,*13
$GPRMC,022249.000,A,3246.7023,N,11706.7015,W,15.15,110.2,171110,,*1C
$GPRMC,022252.000,A,3246.6990,N,11706.6885,W,10.21,106.1,171110,,*10
$GPRMC,022255.000,A,3246.6975,N,11706.6803,W,6.43,104.2,171110,,*20
$GPRMC,022258.000,A,3246.6965,N,11706.6752,W,5.70,102.1,171110,,*21
$GPRMC,022301.000,A,3246.6954,N,11706.6673,W,10.42,98.5,171110,,*2F
$GPRMC,022304.000,A,3246.6946,N,11706.6564,W,12.47,95.4,171110,,*27
$GPRMC,022307.000,A,3246.6944,N,11706.6436,W,13.23,91.4,171110,,*27
$GPRMC,022310.000,A,3246.6947,N,11706.6317,W,11.75,89.2,171110,,*28
$GPRMC,022313.000,A,3246.6952,N,11706.6197,W,12.96,87.1,171110,,*26
$GPRMC,022316.000,A,3246.6959,N,11706.6062,W,14.09,86.2,171110,,*21
$GPRMC,022319.000,A,3246.6969,N,11706.5907,W,18.00,86.2,171110,,*21
$GPRMC,022322.000,A,3246.6981,N,11706.5725,W,19.44,85.8,171110,,*29
$GPRMC,022325.000,A,3246.6993,N,11706.5527,W,20.13,85.5,171110,,*28
$GPRMC,022328.000,A,3246.7003,N,11706.5347,W,14.97,85.9,171110,,*23
$GPRMC,022331.000,A,3246.7012,N,11706.5199,W,15.07,86.2,171110,,*2A
$GPRMC,022334.000,A,3246.7024,N,11706.5049,W,15.91,86.3,171110,,*28
$GPRMC,022337.000,A,3246.7039,N,11706.4866,W,21.36,85.8,171110,,*21
$GPRMC,022340.000,A,3246.7047,N,11706.4669,W,16.03,87.1,171110,,*20
$GPRMC,022343.000,A,3246.7050,N,11706.4540,W,12.12,87.3,171110,,*2B
$GPRMC,022346.000,A,3246.7060,N,11706.4425,W,12.30,86.9,171110,,*24
$GPRMC,022349.000,A,3246.7068,N,11706.4305,W,13.25,87.0,171110,,*2B
$GPRMC,022352.000,A,3246.7069,N,11706.4176,W,12.58,87.3,171110,,*2E
$GPRMC,022355.000,A,3246.7071,N,11706.4046,W,13.38,87.8,171110,,*2E
$GPRMC,022358.000,A,3246.7076,N,11706.3907,W,13.96,87.9,171110,,*2A
$GPRMC,022401.000,A,3246.7080,N,11706.3771,W,13.89,87.8,171110,,*28
$GPRMC,022404.000,A,3246.7088,N,11706.3638,W,13.34,87.2,171110,,*25
$GPRMC,022407.000,A,3246.7089,N,11706.3494,W,16.45,87.6,171110,,*24
$GPRMC,022410.000,A,3246.7097,N,11706.3300,W,22.40,87.0,171110,,*23
$GPRMC,022413.000,A,3246.7105,N,11706.3039,W,29.37,86.5,171110,,*2C
$GPRMC,022416.000,A,3246.7123,N,11706.2715,W,35.23,85.7,171110,,*2C
$GPRMC,022419.000,A,3246.7151,N,11706.2359,W,35.67,84.6,171110,,*2A
$GPRMC,022422.000,A,3246.7189,N,11706.2016,W,34.72,83.1,171110,,*2A
$GPRMC,022425.000,A,3246.7226,N,11706.1684,W,32.48,82.1,171110,,*2B
$GPRMC,022428.000,A,3246.7269,N,11706.1380,W,30.03,80.5,171110,,*27
$GPRMC,022431.000,A,3246.7315,N,11706.1103,W,26.69,79.4,171110,,*20
$GPRMC,022434.000,A,3246.7350,N,11706.0872,W,21.12,80.5,171110,,*26
$GPRMC,022437.000,A,3246.7377,N,11706.0681,W,17.81,80.0,171110,,*28
$GPRMC,022440.000,A,3246.7403,N,11706.0524,W,15.56,80.3,171110,,*2B
$GPRMC,022443.000,A,3246.7428,N,11706.0364,W,17.86,80.2,171110,,*2D
$GPRMC,022446.000,A,3246.7457,N,11706.0181,W,20.07,79.6,171110,,*26
$GPRMC,022449.000,A,3246.7489,N,11705.9999,W,18.32,79.0,171110,,*2A
$GPRMC,022452.000,A,3246.7520,N,11705.9829,W,17.20,78.4,171110,,*21
$GPRMC,022455.000,A,3246.7549,N,11705.9664,W,17.29,78.7,171110,,*24
$GPRMC,022458.000,A,3246.7574,N,11705.9506,W,15.51,78.3,171110,,*29
$GPRMC,022501.000,A,3246.7604,N,11705.9361,W,14.84,78.1,171110,,*2C
$GPRMC,022504.000,A,3246.7629,N,11705.9219,W,15.95,79.1,171110,,*28
$GPRMC,022507.000,A,3246.7651,N,11705.9071,W,13.16,79.0,171110,,*24
$GPRMC,022510.000,A,3246.7670,N,11705.8954,W,13.13,78.8,171110,,*22
$GPRMC,022513.000,A,3246.7697,N,11705.8808,W,15.76,78.9,171110,,*24
$GPRMC,022516.000,A,3246.7720,N,11705.8660,W,16.04,78.5,171110,,*26
$GPRMC,022519.000,A,3246.7753,N,11705.8480,W,21.36,78.8,171110,,*29
$GPRMC,022522.000,A,3246.7790,N,11705.8249,W,24.45,78.9,171110,,*2D
$GPRMC,022525.000,A,3246.7828,N,11705.8019,W,22.51,78.6,171110,,*2D
$GPRMC,022528.000,A,3246.7866,N,11705.7800,W,23.77,78.2,171110,,*24
$GPRMC,022531.000,A,3246.7907,N,11705.7555,W,25.58,78.4,171110,,*2A
$GPRMC,022534.000,A,3246.7945,N,11705.7311,W,24.41,79.5,171110,,*26
$GPRMC,022537.000,A,3246.7988,N,11705.7077,W,24.43,78.5,171110,,*24
$GPRMC,022540.000,A,3246.8033,N,11705.6834,W,25.20,78.7,171110,,*2A
$GPRMC,022543.000,A,3246.8074,N,11705.6583,W,27.01,78.8,171110,,*25
$GPRMC,022546.000,A,3246.8118,N,11705.6315,W,27.04,79.6,171110,,*28
$GPRMC,022549.000,A,3246.8159,N,11705.6063,W,25.06,80.7,171110,,*27
$GPRMC,022552.000,A,3246.8189,N,11705.5809,W,27.14,81.7,171110,,*27
$GPRMC,022555.000,A,3246.8216,N,11705.5521,W,30.66,83.0,171110,,*24
$GPRMC,022558.000,A,3246.8239,N,11705.5201,W,33.95,84.4,171110,,*2D
$GPRMC,022601.000,A,3246.8263,N,11705.4871,W,32.74,85.9,171110,,*23
$GPRMC,022604.000,A,3246.8277,N,11705.4559,W,31.64,86.9,171110,,*25
$GPRMC,022607.000,A,3246.8291,N,11705.4245,W,31.28,86.8,171110,,*2D
$GPRMC,022610.000,A,3246.8306,N,11705.3926,W,33.60,86.9,171110,,*22
$GPRMC,022613.000,A,3246.8318,N,11705.3586,W,34.68,87.0,171110,,*2F
$GPRMC,022616.000,A,3246.8338,N,11705.3253,W,32.98,86.9,171110,,*26
$GPRMC,022619.000,A,3246.8352,N,11705.2921,W,34.86,87.0,171110,,*2B
$GPRMC,022622.000,A,3246.8367,N,11705.2561,W,37.83,87.7,171110,,*2C
$GPRMC,022625.000,A,3246.8373,N,11705.2176,W,40.07,89.5,171110,,*2C
$GPRMC,022628.000,A,3246.8357,N,11705.1786,W,38.89,92.7,171110,,*2C
$GPRMC,022631.000,A,3246.8331,N,11705.1395,W,39.31,95.1,171110,,*21
$GPRMC,022634.000,A,3246.8288,N,11705.1006,W,40.73,97.8,171110,,*2D
$GPRMC,022637.000,A,3246.8233,N,11705.0610,W,39.99,99.2,171110,,*20
$GPRMC,022640.000,A,3246.8183,N,11705.0229,W,39.07,98.8,171110,,*2A
$GPRMC,022643.000,A,3246.8139,N,11704.9825,W,42.37,97.0,171110,,*2E
$GPRMC,022646.000,A,3246.8093,N,11704.9413,W,41.48,98.2,171110,,*25
$GPRMC,022649.000,A,3246.8038,N,11704.9005,W,43.42,98.8,171110,,*2A
$GPRMC,022652.000,A,3246.7982,N,11704.8571,W,44.89,99.0,171110,,*29
$GPRMC,022655.000,A,3246.7923,N,11704.8122,W,46.88,99.1,171110,,*25
$GPRMC,022658.000,A,3246.7858,N,11704.7659,W,48.04,99.1,171110,,*2B
$GPRMC,022701.000,A,3246.7794,N,11704.7181,W,49.55,99.2,171110,,*2D
$GPRMC,022704.000,A,3246.7727,N,11704.6696,W,50.42,99.1,171110,,*2D
$GPRMC,022707.000,A,3246.7659,N,11704.6197,W,51.15,99.0,171110,,*22
$GPRMC,022710.000,A,3246.7598,N,11704.5711,W,49.14,98.0,171110,,*28
$GPRMC,022713.000,A,3246.7547,N,11704.5225,W,49.10,96.5,171110,,*24
$GPRMC,022716.000,A,3246.7513,N,11704.4738,W,49.47,94.6,171110,,*2B
$GPRMC,022719.000,A,3246.7494,N,11704.4261,W,47.91,92.8,171110,,*2E
$GPRMC,022722.000,A,3246.7485,N,11704.3790,W,46.08,90.7,171110,,*26
$GPRMC,022725.000,A,3246.7493,N,11704.3349,W,43.03,88.5,171110,,*23
$GPRMC,022728.000,A,3246.7504,N,11704.2916,W,45.13,87.8,171110,,*25
$GPRMC,022731.000,A,3246.7518,N,11704.2460,W,47.74,88.2,171110,,*2A
$GPRMC,022734.000,A,3246.7536,N,11704.1985,W,48.43,88.1,171110,,*2E
$GPRMC,022737.000,A,3246.7552,N,11704.1515,W,46.58,88.4,171110,,*2B
$GPRMC,022740.000,A,3246.7563,N,11704.1075,W,42.12,88.4,171110,,*20
$GPRMC,022743.000,A,3246.7573,N,11704.0681,W,38.38,88.5,171110,,*2A
$GPRMC,022746.000,A,3246.7575,N,11704.0335,W,31.33,88.8,171110,,*2C
$GPRMC,022749.000,A,3246.7580,N,11704.0045,W,28.93,88.8,171110,,*2F
$GPRMC,022752.000,A,3246.7591,N,11703.9738,W,34.55,86.4,171110,,*23
